"Interval"|"ms"|0|0|1,"Utc"|"ms"|0|0|1,"ElapsedTime"|"Min"|0.0|0.0|10,"Analog1"|"Volts"|0.0|5.0|100,"Analog3"|"Volts"|0.0|5.0|100,"Analog4"|"Volts"|0.0|5.0|50,"Battery"|"Volts"|0.0|20.0|1,"AccelX"|"G"|-3.0|3.0|100,"AccelY"|"G"|-3.0|3.0|100,"AccelZ"|"G"|-3.0|3.0|100,"Yaw"|"Deg/Sec"|-120|120|100,"Pitch"|"Deg/Sec"|-120|120|100,"Roll"|"Deg/Sec"|-120|120|100,"Gsum"|"G"|0.0|3.0|100,"GsumMax"|"G"|0.0|3.0|100,"GsumPct"|"%"|0|100|100,"EngineTemp"|"C"|0|300|1,"RPM"|""|0|10000|25,"TPS"|"%"|0|100|25,"Latitude"|"Degrees"|-180.0|180.0|10,"Longitude"|"Degrees"|-180.0|180.0|10,"Speed"|"mph"|0.0|150.0|10,"Altitude"|"ft"|0.0|4000.0|10,"GPSSats"|""|0|20|10,"GPSQual"|""|0|5|10,"GPSDOP"|""|0.0|20.0|10,"LapCount"|""|0|0|10,"LapTime"|"Min"|0.0|0.0|10,"Sector"|""|0|0|10,"SectorTime"|"Min"|0.0|0.0|10,"CurrentLap"|""|0|0|10,"Distance"|"mi"|0.0|0.0|10,"SessionTime"|"Min"|0.0|0.0|10,"LapDelta"|"s"|0.0|0.0|10,"BestLap"|"Min"|0.0|0.0|10
,,,,,,,,,,,,,,,,,,,,,,,,,,,,,,,,,,
371,0,0.0003,2.55,2.15,1.38,,0.06,0.08,-0.05,0,1,0,0.11,0.13,83,,0,0,,,,,,,,,,,,,,,,
381,0,0.0005,2.53,2.15,,,-0.03,0.03,-0.02,0,0,0,0.05,0.13,38,,,,,,,,,,,,,,,,,,,
391,0,0.0006,2.52,2.14,1.37,,-0.02,0.02,-0.05,0,0,0,0.06,0.13,49,,,,,,,,,,,,,,,,,,,
401,0,0.0008,2.51,2.15,,,0.01,0.02,-0.03,-0,0,0,0.04,0.13,27,,,,,,,,,,,,,,,,,,,
411,0,0.001,2.54,2.12,1.34,,0.03,0.01,0.03,-0,0,0,0.04,0.13,34,,0,0,,,,,,,,,,,,,,,,
421,0,0.0012,2.51,2.1,,,-0.0,-0.0,0.06,-0,-1,0,0.06,0.13,43,,,,,,,,,,,,,,,,,,,
431,0,0.0013,2.52,2.13,1.37,,-0.02,-0.0,0.03,-0,-1,0,0.03,0.13,26,,,,0.0,0.0,0.0,0.0,0,0,0.0,0,0.0,-1,0.0,0,0.0,0.0013,0.0,0.0
441,0,0.0015,2.54,2.15,,,0.02,-0.01,-0.02,-0,-1,0,0.03,0.13,25,,,,,,,,,,,,,,,,,,,
451,0,0.0016,2.53,2.14,1.34,,0.03,-0.02,0.02,-0,-1,0,0.04,0.13,35,,0,0,,,,,,,,,,,,,,,,
461,0,0.0018,2.54,2.15,,,-0.03,-0.02,0.02,-0,-1,-0,0.04,0.13,34,,,,,,,,,,,,,,,,,,,
471,0,0.002,2.55,2.12,1.35,,0.01,-0.03,0.03,-0,-1,-0,0.04,0.13,34,,,,,,,,,,,,,,,,,,,
481,0,0.0022,2.55,2.16,,,0.02,-0.02,-0.02,-0,-0,0,0.03,0.13,27,,,,,,,,,,,,,,,,,,,
491,0,0.0023,2.55,2.16,1.38,,0.02,-0.02,-0.01,-0,-0,0,0.03,0.13,26,,0,0,,,,,,,,,,,,,,,,
501,0,0.0025,2.55,2.15,,,0.0,-0.02,0.0,-0,-0,0,0.02,0.13,15,,,,,,,,,,,,,,,,,,,
511,0,0.0026,2.49,2.09,1.33,,0.04,-0.03,0.02,-0,0,0,0.05,0.13,40,,,,,,,,,,,,,,,,,,,
521,0,0.0028,2.53,2.12,,,0.04,-0.02,-0.0,-0,0,0,0.04,0.13,34,,,,,,,,,,,,,,,,,,,
531,0,0.003,2.52,2.15,1.37,,0.03,-0.03,-0.0,-0,-0,0,0.04,0.13,30,,0,0,0.0,0.0,0.0,0.0,0,0,0.0,0,0.0,-1,0.0,0,0.0,0.003,0.0,0.0
541,0,0.0032,2.52,2.12,,,0.02,-0.02,-0.01,-0,0,0,0.03,0.13,23,,,,,,,,,,,,,,,,,,,
551,0,0.0033,2.55,2.15,1.38,,0.03,-0.03,0.01,-0,-0,0,0.05,0.13,36,,,,,,,,,,,,,,,,,,,
561,0,0.0035,2.52,2.1,,,0.05,-0.03,-0.0,-0,-0,0,0.06,0.13,43,,,,,,,,,,,,,,,,,,,
571,0,0.0036,2.56,2.16,1.38,,0.03,-0.03,-0.01,-0,-0,0,0.04,0.13,35,,0,0,,,,,,,,,,,,,,,,
581,0,0.0038,2.56,2.16,,,0.01,-0.03,-0.02,-0,-0,0,0.04,0.13,30,,,,,,,,,,,,,,,,,,,
591,0,0.004,2.56,2.16,1.38,,0.04,-0.04,-0.02,-0,-0,0,0.06,0.13,46,,,,,,,,,,,,,,,,,,,
601,0,0.0042,2.54,2.16,,,0.04,-0.04,-0.02,-0,-0,0,0.06,0.13,44,,,,,,,,,,,,,,,,,,,
611,0,0.0043,2.55,2.15,1.37,,0.01,-0.04,-0.01,-0,-0,0,0.04,0.13,32,,0,0,,,,,,,,,,,,,,,,
621,0,0.0045,2.55,2.15,,,0.03,-0.04,-0.02,-0,-0,0,0.05,0.13,39,,,,,,,,,,,,,,,,,,,
631,0,0.0046,2.56,2.15,1.38,,0.03,-0.03,-0.02,-0,-0,0,0.05,0.13,41,,,,0.0,0.0,0.0,0.0,0,0,0.0,0,0.0,-1,0.0,0,0.0,0.0046,0.0,0.0
641,0,0.0048,2.53,2.14,,,0.04,-0.04,-0.01,-0,-0,0,0.05,0.13,41,,,,,,,,,,,,,,,,,,,
651,0,0.005,2.56,2.15,1.38,,0.03,-0.04,0.0,-0,-0,0,0.05,0.13,35,,0,0,,,,,,,,,,,,,,,,
661,0,0.0052,2.56,2.16,,,0.04,-0.04,-0.0,-0,-0,0,0.06,0.13,43,,,,,,,,,,,,,,,,,,,
671,0,0.0053,2.55,2.15,1.37,,0.05,-0.04,-0.02,-0,0,0,0.06,0.13,47,,,,,,,,,,,,,,,,,,,
681,0,0.0055,2.56,2.16,,,0.04,-0.04,-0.01,-0,-0,0,0.06,0.13,46,,,,,,,,,,,,,,,,,,,
691,0,0.0056,2.54,2.14,1.35,,0.02,-0.03,-0.01,-0,0,0,0.04,0.13,33,,0,0,,,,,,,,,,,,,,,,
701,0,0.0058,2.55,2.15,,,0.04,-0.04,-0.0,-0,0,0,0.05,0.13,43,,,,,,,,,,,,,,,,,,,
711,0,0.006,2.53,2.14,1.37,,0.05,-0.03,-0.03,-0,0,0,0.07,0.13,52,,,,,,,,,,,,,,,,,,,
721,0,0.0061,2.52,2.11,,,0.04,-0.03,-0.04,-0,0,0,0.06,0.13,49,,,,,,,,,,,,,,,,,,,
731,0,0.0063,2.52,2.14,1.37,,0.02,-0.04,-0.04,-0,0,0,0.06,0.13,45,,0,0,0.0,0.0,0.0,0.0,0,0,0.0,0,0.0,-1,0.0,0,0.0,0.0063,0.0,0.0
741,0,0.0065,2.54,2.15,,,0.04,-0.04,-0.04,-0,0,0,0.07,0.13,54,,,,,,,,,,,,,,,,,,,
751,0,0.0066,2.54,2.12,1.34,,0.05,-0.03,-0.03,0,0,0,0.07,0.13,52,,,,,,,,,,,,,,,,,,,
761,0,0.0068,2.51,2.11,,,0.03,-0.04,-0.03,0,0,0,0.05,0.13,42,,,,,,,,,,,,,,,,,,,
771,0,0.007,2.56,2.16,1.38,,0.04,-0.04,-0.04,0,0,0,0.07,0.13,51,,0,0,,,,,,,,,,,,,,,,
781,0,0.0072,2.54,2.14,,,0.04,-0.04,-0.03,-0,0,0,0.06,0.13,50,,,,,,,,,,,,,,,,,,,
791,0,0.0073,2.55,2.11,1.34,,0.05,-0.04,-0.01,-0,0,0,0.06,0.13,48,,,,,,,,,,,,,,,,,,,
801,0,0.0075,2.56,2.16,,,0.04,-0.04,0.01,0,-0,0,0.05,0.13,42,,,,,,,,,,,,,,,,,,,
811,0,0.0076,2.56,2.16,1.38,,0.04,-0.04,-0.0,-0,-0,0,0.06,0.13,45,,0,0,,,,,,,,,,,,,,,,
821,0,0.0078,2.56,2.15,,,0.05,-0.04,-0.03,-0,-0,0,0.07,0.13,54,,,,,,,,,,,,,,,,,,,
831,0,0.008,2.56,2.15,1.38,,0.05,-0.04,-0.01,-0,-0,0,0.07,0.13,52,,,,0.0,0.0,0.0,0.0,0,0,0.0,0,0.0,-1,0.0,0,0.0,0.008,0.0,0.0
841,0,0.0082,2.54,2.13,,,0.03,-0.04,-0.01,0,-0,0,0.05,0.13,38,,,,,,,,,,,,,,,,,,,
851,0,0.0083,2.52,2.13,1.36,,0.05,-0.04,-0.01,-0,-0,0,0.06,0.13,49,,0,0,,,,,,,,,,,,,,,,
861,0,0.0085,2.55,2.15,,,0.05,-0.03,-0.02,-0,0,0,0.06,0.13,50,,,,,,,,,,,,,,,,,,,
871,0,0.0086,2.54,2.15,1.38,,0.05,-0.03,-0.01,-0,0,0,0.06,0.13,45,,,,,,,,,,,,,,,,,,,
881,0,0.0088,2.56,2.15,,,0.03,-0.03,-0.01,-0,0,0,0.05,0.13,35,,,,,,,,,,,,,,,,,,,
891,0,0.009,2.55,2.16,1.38,,0.06,-0.04,-0.0,-0,0,0,0.07,0.13,52,,0,0,,,,,,,,,,,,,,,,
901,0,0.0092,2.55,2.15,,,0.05,-0.03,-0.0,-0,0,0,0.06,0.13,44,,,,,,,,,,,,,,,,,,,
911,0,0.0093,2.55,2.14,1.37,,0.04,-0.03,0.01,-0,0,0,0.05,0.13,41,,,,,,,,,,,,,,,,,,,
921,0,0.0095,2.54,2.14,,,0.04,-0.03,0.0,-0,0,0,0.05,0.13,40,,,,,,,,,,,,,,,,,,,
931,0,0.0096,2.55,2.15,1.38,,0.05,-0.04,0.0,-0,-0,0,0.06,0.13,47,,0,0,0.0,0.0,0.0,0.0,0,0,0.0,0,0.0,-1,0.0,0,0.0,0.0096,0.0,0.0
941,0,0.0098,2.56,2.16,,,0.06,-0.04,-0.0,-0,-0,0,0.07,0.13,53,,,,,,,,,,,,,,,,,,,
951,0,0.01,2.55,2.16,1.38,,0.04,-0.03,-0.0,-0,-0,0,0.06,0.13,43,,,,,,,,,,,,,,,,,,,
961,0,0.0102,2.55,2.14,,,0.04,-0.04,0.0,-0,-0,0,0.05,0.13,40,,,,,,,,,,,,,,,,,,,
971,0,0.0103,2.54,2.13,1.35,,0.05,-0.04,-0.01,-0,-0,0,0.07,0.13,52,,0,0,,,,,,,,,,,,,,,,
981,0,0.0105,2.54,2.14,,,0.06,-0.04,-0.01,-0,-0,0,0.07,0.13,56,,,,,,,,,,,,,,,,,,,
991,0,0.0106,2.55,2.16,1.38,,0.03,-0.04,-0.01,-0,-0,0,0.05,0.13,39,,,,,,,,,,,,,,,,,,,
1001,0,0.0108,2.56,2.16,,,0.05,-0.04,-0.01,-0,-0,0,0.06,0.13,50,,,,,,,,,,,,,,,,,,,
1011,0,0.011,2.55,2.16,1.38,,0.06,-0.04,-0.02,0,0,0,0.07,0.13,54,,0,0,,,,,,,,,,,,,,,,
1021,0,0.0112,2.56,2.16,,,0.06,-0.04,-0.01,0,0,0,0.07,0.13,53,,,,,,,,,,,,,,,,,,,
1031,0,0.0113,2.55,2.16,1.38,,0.04,-0.03,-0.0,0,0,0,0.06,0.13,43,,,,0.0,0.0,0.0,0.0,0,0,0.0,0,0.0,-1,0.0,0,0.0,0.0113,0.0,0.0
1041,0,0.0115,2.55,2.15,,,0.06,-0.04,-0.0,-0,0,0,0.07,0.13,54,,,,,,,,,,,,,,,,,,,
1051,0,0.0116,2.56,2.16,1.37,,0.06,-0.03,-0.02,0,0,0,0.07,0.13,54,,0,0,,,,,,,,,,,,,,,,
1061,0,0.0118,2.56,2.11,,,0.06,-0.04,-0.01,0,0,0,0.07,0.13,53,,,,,,,,,,,,,,,,,,,
1071,0,0.012,2.56,2.16,1.38,,0.04,-0.03,-0.01,0,0,0,0.05,0.13,42,,,,,,,,,,,,,,,,,,,
1081,0,0.0122,2.54,2.13,,,0.05,-0.04,-0.0,0,0,0,0.07,0.13,51,,,,,,,,,,,,,,,,,,,
1091,0,0.0123,2.56,2.16,1.38,,0.06,-0.04,-0.01,0,0,0,0.07,0.13,55,,0,0,,,,,,,,,,,,,,,,
1101,0,0.0125,2.55,2.14,,,0.05,-0.04,-0.02,0,0,0,0.06,0.13,48,,,,,,,,,,,,,,,,,,,
1111,0,0.0126,2.54,2.15,1.38,,0.03,-0.04,-0.02,0,0,0,0.05,0.13,40,,,,,,,,,,,,,,,,,,,
1121,0,0.0128,2.55,2.15,,,0.05,-0.04,-0.02,0,0,0,0.07,0.13,55,,,,,,,,,,,,,,,,,,,
1131,0,0.013,2.52,2.14,1.38,,0.05,-0.04,-0.01,0,0,0,0.06,0.13,48,,0,0,0.0,0.0,0.0,0.0,0,0,0.0,0,0.0,-1,0.0,0,0.0,0.013,0.0,0.0
1141,0,0.0132,2.56,2.16,,,0.03,-0.04,0.0,0,0,0,0.05,0.13,39,,,,,,,,,,,,,,,,,,,
1151,0,0.0133,2.56,2.16,1.38,,0.04,-0.05,-0.01,0,0,0,0.06,0.13,47,,,,,,,,,,,,,,,,,,,
1161,0,0.0135,2.53,2.12,,,0.04,-0.04,-0.01,-0,0,0,0.06,0.13,48,,,,,,,,,,,,,,,,,,,
1171,0,0.0136,2.56,2.16,1.38,,0.05,-0.05,0.0,-0,0,0,0.07,0.13,54,,0,0,,,,,,,,,,,,,,,,
1181,0,0.0138,2.54,2.15,,,0.04,-0.05,0.01,0,-0,0,0.06,0.13,48,,,,,,,,,,,,,,,,,,,
1191,0,0.014,2.56,2.16,1.38,,0.05,-0.05,0.01,-0,-0,0,0.07,0.13,51,,,,,,,,,,,,,,,,,,,
1201,0,0.0142,2.52,2.15,,,0.05,-0.05,-0.0,-0,0,0,0.07,0.13,53,,,,,,,,,,,,,,,,,,,
1211,0,0.0143,2.53,2.14,1.38,,0.05,-0.05,0.01,-0,-0,0,0.07,0.13,57,,0,0,,,,,,,,,,,,,,,,
1221,0,0.0145,2.55,2.14,,,0.03,-0.05,0.01,-0,-0,0,0.06,0.13,44,,,,,,,,,,,,,,,,,,,
1231,0,0.0146,2.55,2.16,1.39,,0.05,-0.05,0.01,-0,-0,0,0.07,0.13,53,,,,0.0,0.0,0.0,0.0,0,0,0.0,0,0.0,-1,0.0,0,0.0,0.0146,0.0,0.0
1241,0,0.0148,2.52,2.13,,,0.05,-0.04,-0.01,-0,-0,0,0.06,0.13,50,,,,,,,,,,,,,,,,,,,
1251,0,0.015,2.56,2.16,1.38,,0.04,-0.04,-0.0,-0,-0,0,0.06,0.13,47,,0,0,,,,,,,,,,,,,,,,
1261,0,0.0152,2.56,2.15,,,0.03,-0.04,-0.0,-0,-0,0,0.05,0.13,39,,,,,,,,,,,,,,,,,,,
1271,0,0.0153,2.56,2.15,1.38,,0.05,-0.05,0.0,-0,0,0,0.07,0.13,54,,,,,,,,,,,,,,,,,,,
1281,0,0.0155,2.54,2.13,,,0.05,-0.03,-0.0,-0,0,0,0.06,0.13,45,,,,,,,,,,,,,,,,,,,
1291,0,0.0156,2.56,2.15,1.38,,0.03,-0.04,0.01,-0,-0,0,0.06,0.13,43,,0,0,,,,,,,,,,,,,,,,
1301,0,0.0158,2.56,2.16,,,0.03,-0.04,-0.0,-0,-0,0,0.05,0.13,38,,,,,,,,,,,,,,,,,,,
1311,0,0.016,2.52,2.13,1.36,,0.04,-0.04,-0.0,-0,-0,0,0.06,0.13,46,,,,,,,,,,,,,,,,,,,
1321,0,0.0162,2.53,2.12,,,0.05,-0.04,-0.01,-0,-0,0,0.06,0.13,50,,,,,,,,,,,,,,,,,,,
1331,0,0.0163,2.56,2.16,1.39,12.92,0.04,-0.04,-0.01,-0,-0,0,0.06,0.13,43,0,0,0,0.0,0.0,0.0,0.0,0,0,0.0,0,0.0,-1,0.0,0,0.0,0.0163,0.0,0.0
1341,0,0.0165,2.55,2.16,,,0.03,-0.04,-0.0,-0,-0,0,0.05,0.13,36,,,,,,,,,,,,,,,,,,,
1351,0,0.0166,2.54,2.13,1.35,,0.06,-0.04,-0.01,-0,-0,0,0.07,0.13,55,,,,,,,,,,,,,,,,,,,
1361,0,0.0168,2.55,2.15,,,0.06,-0.04,-0.01,-0,-0,0,0.07,0.13,57,,,,,,,,,,,,,,,,,,,
1371,0,0.017,2.55,2.15,1.38,,0.04,-0.04,-0.0,-0,0,0,0.05,0.13,40,,0,0,,,,,,,,,,,,,,,,
1381,0,0.0172,2.56,2.16,,,0.05,-0.04,0.01,-0,0,0,0.06,0.13,48,,,,,,,,,,,,,,,,,,,
1391,0,0.0173,2.53,2.14,1.36,,0.05,-0.04,-0.0,-0,0,0,0.06,0.13,46,,,,,,,,,,,,,,,,,,,
1401,0,0.0175,2.55,2.16,,,0.05,-0.03,0.01,-1,0,0,0.06,0.13,48,,,,,,,,,,,,,,,,,,,
1411,0,0.0176,2.55,2.16,1.38,,0.04,-0.04,0.01,-1,0,0,0.05,0.13,42,,0,0,,,,,,,,,,,,,,,,
1421,0,0.0178,2.56,2.15,,,0.05,-0.04,0.01,-1,0,0,0.06,0.13,49,,,,,,,,,,,,,,,,,,,
1431,0,0.018,2.55,2.16,1.37,,0.05,-0.03,-0.01,-1,1,0,0.06,0.13,47,,,,0.0,0.0,0.0,0.0,0,0,0.0,0,0.0,-1,0.0,0,0.0,0.018,0.0,0.0
1441,0,0.0182,2.53,2.12,,,0.05,-0.04,0.0,-1,0,0,0.06,0.13,47,,,,,,,,,,,,,,,,,,,
1451,0,0.0183,2.54,2.13,1.34,,0.02,-0.04,0.01,-1,1,0,0.05,0.13,35,,0,0,,,,,,,,,,,,,,,,
1461,0,0.0185,2.52,2.15,,,0.04,-0.04,0.01,-1,0,0,0.06,0.13,45,,,,,,,,,,,,,,,,,,,
1471,0,0.0187,2.56,2.16,1.38,,0.04,-0.04,-0.01,-1,1,0,0.06,0.13,49,,,,,,,,,,,,,,,,,,,
1481,0,0.0188,2.54,2.15,,,0.04,-0.04,-0.01,-1,0,0,0.06,0.13,44,,,,,,,,,,,,,,,,,,,
1491,0,0.019,2.53,2.15,1.37,,0.02,-0.04,-0.01,-1,1,0,0.05,0.13,36,,0,0,,,,,,,,,,,,,,,,
1501,0,0.0192,2.56,2.16,,,0.04,-0.04,-0.01,-0,1,0,0.05,0.13,43,,,,,,,,,,,,,,,,,,,
1511,0,0.0193,2.56,2.16,1.38,,0.05,-0.04,-0.01,-0,1,0,0.06,0.13,46,,,,,,,,,,,,,,,,,,,
1521,0,0.0195,2.55,2.15,,,0.03,-0.04,-0.01,-0,1,0,0.05,0.13,38,,,,,,,,,,,,,,,,,,,
1531,0,0.0196,2.53,2.14,1.35,,0.04,-0.04,-0.01,-0,1,0,0.06,0.13,45,,0,0,0.0,0.0,0.0,0.0,0,0,0.0,0,0.0,-1,0.0,0,0.0,0.0196,0.0,0.0
1541,0,0.0198,2.55,2.15,,,0.04,-0.03,-0.02,-0,1,0,0.05,0.13,42,,,,,,,,,,,,,,,,,,,
1551,0,0.02,2.56,2.15,1.37,,0.05,-0.04,0.0,-0,1,0,0.06,0.13,46,,,,,,,,,,,,,,,,,,,
1561,0,0.0202,2.53,2.12,,,0.04,-0.04,0.01,-0,0,0,0.05,0.13,40,,,,,,,,,,,,,,,,,,,
1571,0,0.0203,2.55,2.14,1.35,,0.04,-0.03,0.01,-0,0,0,0.05,0.13,43,,0,0,,,,,,,,,,,,,,,,
1581,0,0.0205,2.55,2.14,,,0.04,-0.03,-0.01,-0,0,0,0.05,0.13,40,,,,,,,,,,,,,,,,,,,
1591,0,0.0206,2.56,2.15,1.37,,0.05,-0.04,0.01,-0,0,0,0.06,0.13,50,,,,,,,,,,,,,,,,,,,
1601,0,0.0208,2.56,2.17,,,0.03,-0.03,0.02,-0,0,0,0.05,0.13,38,,,,,,,,,,,,,,,,,,,
1611,0,0.021,2.56,2.15,1.38,,0.04,-0.03,0.02,-0,0,0,0.05,0.13,42,,0,0,,,,,,,,,,,,,,,,
1621,0,0.0212,2.57,2.16,,,0.05,-0.04,-0.01,-0,0,0,0.06,0.13,47,,,,,,,,,,,,,,,,,,,
1631,0,0.0213,2.52,2.14,1.36,,0.04,-0.03,-0.01,-0,0,0,0.05,0.13,41,,,,0.0,0.0,0.0,0.0,0,0,0.0,0,0.0,-1,0.0,0,0.0,0.0213,0.0,0.0
1641,0,0.0215,2.54,2.14,,,0.03,-0.03,-0.0,-0,0,0,0.04,0.13,33,,,,,,,,,,,,,,,,,,,
1651,0,0.0216,2.54,2.15,1.37,,0.04,-0.04,-0.0,-0,0,0,0.05,0.13,40,,0,0,,,,,,,,,,,,,,,,
1661,0,0.0218,2.56,2.16,,,0.05,-0.04,-0.0,-0,0,0,0.06,0.13,46,,,,,,,,,,,,,,,,,,,
1671,0,0.022,2.54,2.16,1.37,,0.02,-0.04,-0.01,-0,0,0,0.05,0.13,35,,,,,,,,,,,,,,,,,,,
1681,0,0.0222,2.56,2.15,,,0.03,-0.04,-0.01,-0,0,0,0.05,0.13,39,,,,,,,,,,,,,,,,,,,
1691,0,0.0223,2.57,2.17,1.38,,0.03,-0.04,-0.01,-0,0,0,0.05,0.13,35,,0,0,,,,,,,,,,,,,,,,
1701,0,0.0225,2.53,2.13,,,0.04,-0.04,0.02,-0,0,0,0.06,0.13,44,,,,,,,,,,,,,,,,,,,
1711,0,0.0226,2.57,2.16,1.38,,0.02,-0.04,0.02,-0,0,0,0.05,0.13,40,,,,,,,,,,,,,,,,,,,
1721,0,0.0228,2.55,2.16,,,0.04,-0.04,0.01,-0,0,0,0.06,0.13,46,,,,,,,,,,,,,,,,,,,
1731,0,0.023,2.55,2.16,1.37,,0.04,-0.04,-0.0,-0,0,0,0.06,0.13,47,,0,0,0.0,0.0,0.0,0.0,0,0,0.0,0,0.0,-1,0.0,0,0.0,0.023,0.0,0.0
1741,0,0.0232,2.56,2.16,,,0.04,-0.04,0.01,-0,0,0,0.06,0.13,47,,,,,,,,,,,,,,,,,,,
1751,0,0.0233,2.56,2.15,1.36,,0.05,-0.05,0.01,-0,0,0,0.07,0.13,51,,,,,,,,,,,,,,,,,,,
1761,0,0.0235,2.57,2.16,,,0.05,-0.04,0.01,-0,0,0,0.06,0.13,49,,,,,,,,,,,,,,,,,,,
1771,0,0.0236,2.53,2.09,1.3,,0.06,-0.05,0.01,-0,0,0,0.08,0.13,59,,0,0,,,,,,,,,,,,,,,,
1781,0,0.0238,2.53,2.14,,,0.05,-0.05,0.01,-0,0,0,0.07,0.13,55,,,,,,,,,,,,,,,,,,,
1791,0,0.024,2.57,2.17,1.37,,0.06,-0.05,0.02,-0,0,0,0.08,0.13,61,,,,,,,,,,,,,,,,,,,
1801,0,0.0242,2.53,2.16,,,0.05,-0.04,-0.01,-0,0,0,0.07,0.13,51,,,,,,,,,,,,,,,,,,,
1811,0,0.0243,2.57,2.14,1.37,,0.06,-0.05,0.0,-0,-0,0,0.08,0.13,59,,0,0,,,,,,,,,,,,,,,,
1821,0,0.0245,2.56,2.15,,,0.05,-0.05,-0.01,-0,0,0,0.07,0.13,53,,,,,,,,,,,,,,,,,,,
1831,0,0.0246,2.54,2.15,1.36,,0.05,-0.04,-0.02,-0,0,0,0.06,0.13,47,,,,0.0,0.0,0.0,0.0,0,0,0.0,0,0.0,-1,0.0,0,0.0,0.0246,0.0,0.0
1841,0,0.0248,2.55,2.15,,,0.07,-0.05,-0.01,-0,0,0,0.08,0.13,62,,,,,,,,,,,,,,,,,,,
1851,0,0.025,2.54,2.15,1.37,,0.04,-0.04,-0.02,-0,0,0,0.06,0.13,46,,0,0,,,,,,,,,,,,,,,,
1861,0,0.0251,2.56,2.16,,,0.06,-0.05,-0.01,-0,0,0,0.08,0.13,61,,,,,,,,,,,,,,,,,,,
1871,0,0.0253,2.53,2.15,1.36,,0.06,-0.04,-0.03,-0,0,0,0.08,0.13,61,,,,,,,,,,,,,,,,,,,
1881,0,0.0255,2.54,2.13,,,0.05,-0.05,-0.03,-0,0,0,0.08,0.13,59,,,,,,,,,,,,,,,,,,,
1891,0,0.0256,2.55,2.16,1.38,,0.06,-0.05,-0.05,-0,0,0,0.09,0.13,72,,0,0,,,,,,,,,,,,,,,,
1901,0,0.0258,2.55,2.14,,,0.04,-0.04,-0.06,-0,0,0,0.08,0.13,65,,,,,,,,,,,,,,,,,,,
1911,0,0.026,2.57,2.16,1.38,,0.08,-0.05,-0.03,-0,0,0,0.1,0.13,74,,,,,,,,,,,,,,,,,,,
1921,0,0.0262,2.55,2.14,,,0.02,-0.04,-0.06,-0,0,0,0.08,0.13,60,,,,,,,,,,,,,,,,,,,
1931,0,0.0263,2.56,2.16,1.34,,0.05,-0.05,-0.09,-0,1,1,0.12,0.13,91,,0,0,0.0,0.0,0.0,0.0,0,0,0.0,0,0.0,-1,0.0,0,0.0,0.0263,0.0,0.0
1941,0,0.0265,2.54,2.16,,,0.06,-0.04,-0.04,-0,0,1,0.08,0.13,64,,,,,,,,,,,,,,,,,,,
1951,0,0.0266,2.53,2.13,1.34,,0.03,-0.05,-0.01,-0,0,0,0.06,0.13,47,,,,,,,,,,,,,,,,,,,
1961,0,0.0268,2.57,2.16,,,0.03,-0.05,0.02,-0,0,0,0.06,0.13,44,,,,,,,,,,,,,,,,,,,
1971,0,0.027,2.54,2.13,1.34,,0.06,-0.07,0.04,-0,-0,1,0.1,0.13,78,,0,0,,,,,,,,,,,,,,,,
1981,0,0.0272,2.55,2.14,,,0.01,-0.06,0.01,-0,-0,0,0.06,0.13,50,,,,,,,,,,,,,,,,,,,
1991,0,0.0273,2.57,2.17,1.38,,0.03,-0.05,-0.03,-0,-0,0,0.07,0.13,51,,,,,,,,,,,,,,,,,,,
2001,0,0.0275,2.54,2.14,,,0.01,-0.06,0.01,-0,-0,1,0.06,0.13,45,,,,,,,,,,,,,,,,,,,
2011,0,0.0276,2.52,2.15,1.36,,0.02,-0.07,0.04,-1,0,1,0.08,0.13,64,,0,0,,,,,,,,,,,,,,,,
2021,0,0.0278,2.53,2.13,,,0.05,-0.06,0.01,-1,0,1,0.07,0.13,56,,,,,,,,,,,,,,,,,,,
2031,0,0.028,2.53,2.14,1.35,,-0.01,-0.08,-0.02,-1,1,1,0.09,0.13,67,,,,0.0,0.0,0.0,0.0,0,0,0.0,0,0.0,-1,0.0,0,0.0,0.028,0.0,0.0
2041,0,0.0282,2.57,2.18,,,0.03,-0.07,0.0,-1,1,1,0.08,0.13,58,,,,,,,,,,,,,,,,,,,
2051,0,0.0283,2.58,2.18,1.38,,0.01,-0.07,0.04,-1,2,1,0.08,0.13,61,,0,0,,,,,,,,,,,,,,,,
2061,0,0.0285,2.58,2.18,,,0.0,-0.1,0.04,-1,2,1,0.11,0.13,84,,,,,,,,,,,,,,,,,,,
2071,0,0.0286,2.56,2.19,1.37,,0.02,-0.07,-0.0,-0,3,1,0.07,0.13,56,,,,,,,,,,,,,,,,,,,
2081,0,0.0288,2.56,2.17,,,-0.01,-0.08,-0.01,-0,3,1,0.08,0.13,65,,,,,,,,,,,,,,,,,,,
2091,0,0.029,2.59,2.19,1.36,,-0.02,-0.08,-0.01,-0,4,1,0.08,0.13,62,,0,0,,,,,,,,,,,,,,,,
2101,0,0.0292,2.6,2.2,,,-0.04,-0.08,0.01,-0,4,1,0.09,0.13,72,,,,,,,,,,,,,,,,,,,
2111,0,0.0293,2.61,2.21,1.37,,-0.05,-0.1,0.01,-0,5,1,0.11,0.13,85,,,,,,,,,,,,,,,,,,,
2121,0,0.0295,2.6,2.19,,,-0.03,-0.09,-0.0,-0,5,1,0.1,0.13,74,,,,,,,,,,,,,,,,,,,
2131,0,0.0296,2.62,2.23,1.38,,-0.09,-0.08,-0.01,0,5,1,0.13,0.13,97,,0,0,0.0,0.0,0.0,0.0,0,0,0.0,0,0.0,-1,0.0,0,0.0,0.0296,0.0,0.0
2141,0,0.0298,2.62,2.23,,,-0.08,-0.07,-0.04,-0,6,1,0.11,0.13,89,,,,,,,,,,,,,,,,,,,
2151,0,0.03,2.62,2.24,1.37,,-0.13,-0.07,-0.03,-0,6,1,0.15,0.15,100,,,,,,,,,,,,,,,,,,,
2161,0,0.0302,2.63,2.25,,,-0.16,-0.08,-0.03,-0,6,1,0.18,0.18,100,,,,,,,,,,,,,,,,,,,
2171,0,0.0303,2.63,2.26,1.38,,-0.14,-0.07,-0.04,-0,6,1,0.16,0.18,90,,0,0,,,,,,,,,,,,,,,,
2181,0,0.0305,2.62,2.24,,,-0.17,-0.06,-0.05,-0,6,1,0.19,0.19,100,,,,,,,,,,,,,,,,,,,
2191,0,0.0306,2.6,2.21,1.38,,-0.17,-0.08,-0.06,-0,6,1,0.19,0.19,100,,,,,,,,,,,,,,,,,,,
2201,0,0.0308,2.61,2.26,,,-0.19,-0.06,-0.06,-0,5,0,0.2,0.2,100,,,,,,,,,,,,,,,,,,,
2211,0,0.031,2.61,2.25,1.38,,-0.22,-0.05,-0.06,-0,5,0,0.23,0.23,100,,0,0,,,,,,,,,,,,,,,,
2221,0,0.0312,2.64,2.26,,,-0.22,-0.07,-0.06,-0,5,0,0.24,0.24,100,,,,,,,,,,,,,,,,,,,
2231,0,0.0313,2.61,2.22,1.35,,-0.22,-0.06,-0.06,-0,5,-0,0.23,0.24,98,,,,0.0,0.0,0.0,0.0,0,0,0.0,0,0.0,-1,0.0,0,0.0,0.0313,0.0,0.0
2241,0,0.0315,2.64,2.26,,,-0.21,-0.09,-0.06,-0,5,-0,0.23,0.24,99,,,,,,,,,,,,,,,,,,,
2251,0,0.0316,2.63,2.24,1.36,,-0.21,-0.09,-0.05,-0,4,-0,0.24,0.24,100,,0,0,,,,,,,,,,,,,,,,
2261,0,0.0318,2.63,2.26,,,-0.21,-0.07,-0.06,-0,4,-0,0.23,0.24,99,,,,,,,,,,,,,,,,,,,
2271,0,0.032,2.64,2.25,1.38,,-0.23,-0.11,-0.07,-0,4,0,0.26,0.26,100,,,,,,,,,,,,,,,,,,,
2281,0,0.0322,2.63,2.25,,,-0.23,-0.09,-0.06,-0,4,0,0.26,0.26,98,,,,,,,,,,,,,,,,,,,
2291,0,0.0323,2.62,2.25,1.38,,-0.26,-0.11,-0.05,-0,4,0,0.28,0.28,100,,0,0,,,,,,,,,,,,,,,,
2301,0,0.0325,2.63,2.25,,,-0.26,-0.11,-0.02,0,4,0,0.28,0.28,99,,,,,,,,,,,,,,,,,,,
2311,0,0.0326,2.64,2.26,1.38,,-0.24,-0.08,-0.04,0,4,0,0.26,0.28,90,,,,,,,,,,,,,,,,,,,
2321,0,0.0328,2.64,2.26,,,-0.26,-0.09,-0.05,0,4,0,0.28,0.28,99,,,,,,,,,,,,,,,,,,,
2331,0,0.033,2.63,2.26,1.39,12.89,-0.27,-0.07,-0.04,0,4,0,0.28,0.28,98,0,0,0,0.0,0.0,0.0,0.0,0,0,0.0,0,0.0,-1,0.0,0,0.0,0.033,0.0,0.0
2341,0,0.0332,2.6,2.24,,,-0.29,-0.08,-0.04,1,4,0,0.3,0.3,100,,,,,,,,,,,,,,,,,,,
2351,0,0.0333,2.63,2.22,1.34,,-0.29,-0.08,-0.02,1,4,0,0.3,0.3,100,,,,,,,,,,,,,,,,,,,
2361,0,0.0335,2.6,2.23,,,-0.27,-0.07,-0.04,1,4,0,0.28,0.3,94,,,,,,,,,,,,,,,,,,,
2371,0,0.0336,2.63,2.26,1.38,,-0.31,-0.06,-0.05,1,4,0,0.32,0.32,100,,0,0,,,,,,,,,,,,,,,,
2381,0,0.0338,2.64,2.26,,,-0.3,-0.05,-0.06,1,4,0,0.31,0.32,97,,,,,,,,,,,,,,,,,,,
2391,0,0.034,2.63,2.24,1.35,,-0.32,-0.07,-0.05,1,4,0,0.33,0.33,100,,,,,,,,,,,,,,,,,,,
2401,0,0.0342,2.64,2.26,,,-0.32,-0.08,-0.03,1,5,0,0.33,0.33,100,,,,,,,,,,,,,,,,,,,
2411,0,0.0343,2.61,2.24,1.35,,-0.3,-0.08,-0.05,1,5,0,0.32,0.33,95,,0,0,,,,,,,,,,,,,,,,
2421,0,0.0345,2.65,2.26,,,-0.34,-0.08,-0.06,1,5,0,0.36,0.36,100,,,,,,,,,,,,,,,,,,,
2431,0,0.0347,2.62,2.25,1.38,,-0.32,-0.04,-0.07,1,5,0,0.33,0.36,92,,,,0.0,0.0,0.0,0.0,0,0,0.0,0,0.0,-1,0.0,0,0.0,0.0347,0.0,0.0
2441,0,0.0348,2.64,2.26,,,-0.35,-0.06,-0.04,1,5,0,0.36,0.36,100,,,,,,,,,,,,,,,,,,,
2451,0,0.035,2.6,2.22,1.35,,-0.37,-0.05,-0.01,1,5,-0,0.37,0.37,100,,0,0,,,,,,,,,,,,,,,,
2461,0,0.0352,2.64,2.26,,,-0.33,-0.06,-0.02,2,4,-0,0.33,0.37,90,,,,,,,,,,,,,,,,,,,
2471,0,0.0353,2.61,2.24,1.35,,-0.35,-0.06,-0.04,2,4,-0,0.36,0.37,97,,,,,,,,,,,,,,,,,,,
2481,0,0.0355,2.6,2.25,,,-0.33,-0.04,-0.07,2,4,-1,0.34,0.37,93,,,,,,,,,,,,,,,,,,,
2491,0,0.0356,2.64,2.26,1.39,,-0.38,-0.07,-0.05,2,4,-1,0.39,0.39,100,,0,0,,,,,,,,,,,,,,,,
2501,0,0.0358,2.6,2.22,,,-0.4,-0.08,-0.02,1,4,-1,0.41,0.41,100,,,,,,,,,,,,,,,,,,,
2511,0,0.036,2.64,2.26,1.38,,-0.35,-0.1,-0.02,1,4,-1,0.37,0.41,90,,,,,,,,,,,,,,,,,,,
2521,0,0.0362,2.63,2.26,,,-0.36,-0.11,-0.04,1,4,-0,0.38,0.41,92,,,,,,,,,,,,,,,,,,,
2531,0,0.0363,2.6,2.22,1.37,,-0.35,-0.1,-0.05,1,4,-0,0.37,0.41,89,,0,0,0.0,0.0,0.0,0.0,0,0,0.0,0,0.0,-1,0.0,0,0.0,0.0363,0.0,0.0
2541,0,0.0365,2.64,2.26,,,-0.39,-0.1,-0.04,1,3,-0,0.4,0.41,97,,,,,,,,,,,,,,,,,,,
2551,0,0.0366,2.62,2.22,1.34,,-0.4,-0.08,-0.03,1,3,-0,0.41,0.41,100,,,,,,,,,,,,,,,,,,,
2561,0,0.0368,2.64,2.25,,,-0.35,-0.1,-0.02,1,3,-1,0.37,0.41,90,,,,,,,,,,,,,,,,,,,
2571,0,0.037,2.63,2.25,1.38,,-0.37,-0.1,-0.02,1,3,-1,0.38,0.41,93,,0,0,,,,,,,,,,,,,,,,
2581,0,0.0372,2.63,2.24,,,-0.35,-0.09,-0.03,1,3,-0,0.36,0.41,89,,,,,,,,,,,,,,,,,,,
2591,0,0.0373,2.63,2.25,1.38,,-0.38,-0.08,-0.05,1,3,-0,0.39,0.41,96,,,,,,,,,,,,,,,,,,,
2601,0,0.0375,2.65,2.25,,,-0.39,-0.05,-0.07,1,3,-1,0.4,0.41,98,,,,,,,,,,,,,,,,,,,
2611,0,0.0376,2.62,2.25,1.37,,-0.37,-0.08,-0.06,1,2,-1,0.38,0.41,94,,0,0,,,,,,,,,,,,,,,,
2621,0,0.0378,2.6,2.23,,,-0.37,-0.07,-0.04,1,2,-1,0.38,0.41,93,,,,,,,,,,,,,,,,,,,
2631,0,0.038,2.6,2.24,1.36,,-0.38,-0.06,-0.05,1,2,-1,0.38,0.41,93,,,,0.0,0.0,0.0,0.0,0,0,0.0,0,0.0,-1,0.0,0,0.0,0.038,0.0,0.0
2641,0,0.0382,2.64,2.25,,,-0.38,-0.07,-0.06,1,2,-1,0.39,0.41,96,,,,,,,,,,,,,,,,,,,
2651,0,0.0383,2.63,2.25,1.38,,-0.38,-0.06,-0.07,1,2,-1,0.39,0.41,96,,0,0,,,,,,,,,,,,,,,,
2661,0,0.0385,2.64,2.25,,,-0.38,-0.09,-0.06,0,2,-1,0.4,0.41,97,,,,,,,,,,,,,,,,,,,
2671,0,0.0386,2.64,2.25,1.38,,-0.37,-0.09,-0.06,0,2,-1,0.38,0.41,93,,,,,,,,,,,,,,,,,,,
2681,0,0.0388,2.64,2.25,,,-0.38,-0.1,-0.04,0,2,-1,0.4,0.41,97,,,,,,,,,,,,,,,,,,,
2691,0,0.039,2.59,2.21,1.35,,-0.38,-0.12,-0.03,0,2,-1,0.4,0.41,98,,0,0,,,,,,,,,,,,,,,,
2701,0,0.0392,2.61,2.22,,,-0.35,-0.1,-0.06,-0,2,-0,0.37,0.41,89,,,,,,,,,,,,,,,,,,,
2711,0,0.0393,2.62,2.22,1.34,,-0.37,-0.11,-0.06,-0,2,-0,0.39,0.41,95,,,,,,,,,,,,,,,,,,,
2721,0,0.0395,2.6,2.2,,,-0.35,-0.08,-0.08,-0,1,-0,0.37,0.41,89,,,,,,,,,,,,,,,,,,,
2731,0,0.0396,2.61,2.24,1.33,,-0.38,-0.11,-0.07,-0,1,-0,0.4,0.41,98,,0,0,0.0,0.0,0.0,0.0,0,0,0.0,0,0.0,-1,0.0,0,0.0,0.0396,0.0,0.0
2741,0,0.0398,2.61,2.19,,,-0.39,-0.12,-0.08,-0,1,0,0.41,0.41,100,,,,,,,,,,,,,,,,,,,
2751,0,0.04,2.62,2.24,1.38,,-0.34,-0.13,-0.09,-0,1,0,0.37,0.41,91,,,,,,,,,,,,,,,,,,,
2761,0,0.0402,2.59,2.19,,,-0.33,-0.14,-0.08,-1,1,0,0.36,0.41,88,,,,,,,,,,,,,,,,,,,
2771,0,0.0403,2.61,2.2,1.35,,-0.32,-0.11,-0.06,-1,1,0,0.34,0.41,83,,0,0,,,,,,,,,,,,,,,,
2781,0,0.0405,2.58,2.21,,,-0.32,-0.11,-0.04,-1,1,0,0.34,0.41,82,,,,,,,,,,,,,,,,,,,
2791,0,0.0406,2.58,2.18,1.35,,-0.32,-0.08,-0.05,-1,0,0,0.34,0.41,82,,,,,,,,,,,,,,,,,,,
2801,0,0.0408,2.61,2.22,,,-0.31,-0.11,-0.07,-1,0,0,0.33,0.41,81,,,,,,,,,,,,,,,,,,,
2811,0,0.041,2.63,2.2,1.37,,-0.31,-0.11,-0.06,-1,0,0,0.33,0.41,81,,0,0,,,,,,,,,,,,,,,,
2821,0,0.0412,2.61,2.21,,,-0.31,-0.13,-0.05,-1,0,1,0.34,0.41,82,,,,,,,,,,,,,,,,,,,
2831,0,0.0413,2.61,2.22,1.39,,-0.29,-0.13,-0.02,-1,0,1,0.32,0.41,77,,,,0.0,0.0,0.0,0.0,0,0,0.0,0,0.0,-1,0.0,0,0.0,0.0413,0.0,0.0
2841,0,0.0415,2.6,2.21,,,-0.27,-0.1,-0.01,-1,-0,1,0.29,0.41,70,,,,,,,,,,,,,,,,,,,
2851,0,0.0416,2.61,2.21,1.38,,-0.28,-0.1,0.0,-1,-0,1,0.29,0.41,72,,0,0,,,,,,,,,,,,,,,,
2861,0,0.0418,2.6,2.2,,,-0.26,-0.06,-0.03,-1,-1,1,0.27,0.41,65,,,,,,,,,,,,,,,,,,,
2871,0,0.042,2.57,2.2,1.37,,-0.29,-0.09,-0.04,-1,-1,1,0.3,0.41,73,,,,,,,,,,,,,,,,,,,
2881,0,0.0421,2.6,2.2,,,-0.3,-0.08,-0.06,-2,-1,1,0.31,0.41,76,,,,,,,,,,,,,,,,,,,
2891,0,0.0423,2.52,2.14,1.33,,-0.27,-0.09,-0.06,-2,-1,1,0.29,0.41,71,,0,0,,,,,,,,,,,,,,,,
2901,0,0.0425,2.6,2.2,,,-0.26,-0.09,-0.04,-2,-1,1,0.28,0.41,69,,,,,,,,,,,,,,,,,,,
2911,0,0.0426,2.6,2.2,1.36,,-0.25,-0.08,-0.02,-2,-1,1,0.26,0.41,63,,,,,,,,,,,,,,,,,,,
2921,0,0.0428,2.57,2.17,,,-0.23,-0.09,0.01,-2,-1,1,0.25,0.41,61,,,,,,,,,,,,,,,,,,,
2931,0,0.043,2.57,2.17,1.38,,-0.23,-0.05,0.01,-2,-2,1,0.24,0.41,58,,0,0,0.0,0.0,0.0,0.0,0,0,0.0,0,0.0,-1,0.0,0,0.0,0.043,0.0,0.0
2941,0,0.0432,2.6,2.2,,,-0.23,-0.05,-0.0,-2,-2,1,0.23,0.41,57,,,,,,,,,,,,,,,,,,,
2951,0,0.0433,2.58,2.2,1.39,,-0.23,-0.02,-0.03,-2,-2,1,0.23,0.41,56,,,,,,,,,,,,,,,,,,,
2961,0,0.0435,2.58,2.21,,,-0.23,-0.05,-0.04,-2,-2,1,0.24,0.41,59,,,,,,,,,,,,,,,,,,,
2971,0,0.0436,2.57,2.2,1.38,,-0.23,-0.05,-0.03,-2,-2,1,0.24,0.41,58,,0,0,,,,,,,,,,,,,,,,
2981,0,0.0438,2.56,2.2,,,-0.2,-0.04,-0.02,-2,-2,1,0.21,0.41,51,,,,,,,,,,,,,,,,,,,
2991,0,0.044,2.56,2.18,1.35,,-0.19,-0.05,0.02,-2,-2,0,0.19,0.41,47,,,,,,,,,,,,,,,,,,,
3001,0,0.0442,2.57,2.18,,,-0.16,-0.02,0.02,-2,-2,0,0.17,0.41,40,,,,,,,,,,,,,,,,,,,
3011,0,0.0443,2.59,2.2,1.39,,-0.16,-0.05,0.03,-2,-2,0,0.17,0.41,41,,0,0,,,,,,,,,,,,,,,,
3021,0,0.0445,2.56,2.2,,,-0.16,-0.03,0.0,-2,-2,-0,0.16,0.41,40,,,,,,,,,,,,,,,,,,,
3031,0,0.0446,2.58,2.21,1.39,,-0.15,-0.04,-0.03,-2,-2,-0,0.16,0.41,39,,,,0.0,0.0,0.0,0.0,0,0,0.0,0,0.0,-1,0.0,0,0.0,0.0446,0.0,0.0
3041,0,0.0448,2.58,2.2,,,-0.15,-0.01,-0.04,-2,-2,-0,0.16,0.41,39,,,,,,,,,,,,,,,,,,,
3051,0,0.045,2.59,2.21,1.38,,-0.16,-0.03,-0.03,-2,-2,-0,0.17,0.41,40,,0,0,,,,,,,,,,,,,,,,
3061,0,0.0452,2.58,2.21,,,-0.16,-0.04,-0.01,-2,-2,-0,0.17,0.41,40,,,,,,,,,,,,,,,,,,,
3071,0,0.0453,2.54,2.19,1.37,,-0.13,-0.04,0.01,-2,-2,-0,0.14,0.41,33,,,,,,,,,,,,,,,,,,,
3081,0,0.0455,2.57,2.21,,,-0.12,-0.05,0.04,-1,-2,-0,0.14,0.41,34,,,,,,,,,,,,,,,,,,,
3091,0,0.0457,2.55,2.19,1.37,,-0.11,-0.04,0.04,-1,-2,-0,0.12,0.41,28,,0,0,,,,,,,,,,,,,,,,
3101,0,0.0458,2.58,2.19,,,-0.12,-0.05,0.03,-1,-2,-1,0.13,0.41,32,,,,,,,,,,,,,,,,,,,
3111,0,0.046,2.59,2.21,1.39,,-0.13,-0.02,0.0,-1,-2,-1,0.13,0.41,32,,,,,,,,,,,,,,,,,,,
3121,0,0.0462,2.59,2.21,,,-0.13,-0.03,-0.03,-1,-2,-1,0.14,0.41,34,,,,,,,,,,,,,,,,,,,
3131,0,0.0463,2.55,2.17,1.38,,-0.13,-0.02,-0.03,-1,-1,-1,0.14,0.41,34,,0,0,0.0,0.0,0.0,0.0,0,0,0.0,0,0.0,-1,0.0,0,0.0,0.0463,0.0,0.0
3141,0,0.0465,2.54,2.19,,,-0.14,-0.04,-0.02,-1,-1,-1,0.15,0.41,37,,,,,,,,,,,,,,,,,,,
3151,0,0.0466,2.58,2.2,1.38,,-0.16,-0.06,0.01,-1,-1,-1,0.17,0.41,40,,,,,,,,,,,,,,,,,,,
3161,0,0.0468,2.58,2.21,,,-0.13,-0.04,0.01,-1,-1,-1,0.14,0.41,34,,,,,,,,,,,,,,,,,,,
3171,0,0.047,2.55,2.18,1.37,,-0.14,-0.06,0.02,-1,-1,-1,0.15,0.41,38,,0,0,,,,,,,,,,,,,,,,
3181,0,0.0472,2.55,2.18,,,-0.13,-0.04,0.01,-1,-1,-1,0.14,0.41,33,,,,,,,,,,,,,,,,,,,
3191,0,0.0473,2.59,2.18,1.35,,-0.15,-0.04,-0.0,-1,-1,-1,0.15,0.41,37,,,,,,,,,,,,,,,,,,,
3201,0,0.0475,2.61,2.2,,,-0.16,-0.02,-0.03,-1,-1,-1,0.17,0.41,40,,,,,,,,,,,,,,,,,,,
3211,0,0.0476,2.58,2.19,1.36,,-0.15,-0.03,-0.04,-1,-1,-1,0.16,0.41,40,,0,0,,,,,,,,,,,,,,,,
3221,0,0.0478,2.61,2.21,,,-0.15,-0.03,-0.04,-1,-1,-1,0.16,0.41,38,,,,,,,,,,,,,,,,,,,
3231,0,0.048,2.6,2.2,1.37,,-0.15,-0.04,-0.03,-1,-1,-1,0.15,0.41,37,,,,0.0,0.0,0.0,0.0,0,0,0.0,0,0.0,-1,0.0,0,0.0,0.048,0.0,0.0
3241,0,0.0482,2.61,2.21,,,-0.14,-0.05,0.01,-1,-1,-1,0.15,0.41,37,,,,,,,,,,,,,,,,,,,
3251,0,0.0483,2.6,2.2,1.37,,-0.13,-0.03,0.02,-1,-1,-1,0.13,0.41,32,,0,0,,,,,,,,,,,,,,,,
3261,0,0.0485,2.6,2.2,,,-0.13,-0.05,0.02,-1,-1,-1,0.14,0.41,34,,,,,,,,,,,,,,,,,,,
3271,0,0.0486,2.61,2.21,1.39,,-0.13,-0.03,-0.01,-1,-1,-1,0.13,0.41,32,,,,,,,,,,,,,,,,,,,
3281,0,0.0488,2.6,2.21,,,-0.16,-0.05,-0.02,-1,-1,-1,0.17,0.41,41,,,,,,,,,,,,,,,,,,,
3291,0,0.049,2.56,2.16,1.35,,-0.17,-0.05,-0.03,-2,-1,-1,0.18,0.41,44,,0,0,,,,,,,,,,,,,,,,
3301,0,0.0492,2.61,2.21,,,-0.15,-0.06,-0.03,-2,-1,-1,0.16,0.41,40,,,,,,,,,,,,,,,,,,,
3311,0,0.0493,2.61,2.22,1.39,,-0.15,-0.08,-0.01,-2,-1,-1,0.17,0.41,41,,,,,,,,,,,,,,,,,,,
3321,0,0.0495,2.61,2.21,,,-0.14,-0.07,0.01,-2,-1,-0,0.16,0.41,39,,,,,,,,,,,,,,,,,,,
3331,0,0.0496,2.61,2.21,1.38,12.86,-0.14,-0.07,0.02,-2,-1,-0,0.16,0.41,38,0,0,0,0.0,0.0,0.0,0.0,0,0,0.0,0,0.0,-1,0.0,0,0.0,0.0496,0.0,0.0
3341,0,0.0498,2.57,2.2,,,-0.14,-0.03,-0.0,-2,-2,-0,0.14,0.41,35,,,,,,,,,,,,,,,,,,,
3351,0,0.05,2.61,2.21,1.39,,-0.14,-0.06,-0.02,-2,-2,-0,0.15,0.41,37,,,,,,,,,,,,,,,,,,,
3361,0,0.0502,2.6,2.2,,,-0.14,-0.03,-0.03,-2,-2,-0,0.14,0.41,35,,,,,,,,,,,,,,,,,,,
3371,0,0.0503,2.55,2.17,1.36,,-0.15,-0.06,-0.02,-2,-2,-0,0.16,0.41,40,,0,0,,,,,,,,,,,,,,,,
3381,0,0.0505,2.59,2.21,,,-0.15,-0.05,0.0,-2,-1,0,0.15,0.41,38,,,,,,,,,,,,,,,,,,,
3391,0,0.0506,2.54,2.17,1.36,,-0.11,-0.05,0.01,-2,-2,0,0.12,0.41,29,,,,,,,,,,,,,,,,,,,
3401,0,0.0508,2.59,2.2,,,-0.11,-0.06,0.03,-2,-2,0,0.13,0.41,31,,,,,,,,,,,,,,,,,,,
3411,0,0.051,2.55,2.19,1.36,,-0.09,-0.03,0.02,-2,-2,0,0.1,0.41,24,,0,0,,,,,,,,,,,,,,,,
3421,0,0.0512,2.59,2.21,,,-0.11,-0.05,0.01,-2,-2,0,0.12,0.41,30,,,,,,,,,,,,,,,,,,,
3431,0,0.0513,2.55,2.18,1.37,,-0.13,-0.04,-0.02,-2,-2,0,0.14,0.41,34,,,,0.0,0.0,0.0,0.0,0,0,0.0,0,0.0,-1,0.0,0,0.0,0.0513,0.0,0.0
3441,0,0.0515,2.59,2.2,,,-0.12,-0.05,-0.05,-2,-1,0,0.14,0.41,33,,,,,,,,,,,,,,,,,,,
3451,0,0.0516,2.59,2.2,1.38,,-0.12,-0.03,-0.04,-2,-1,0,0.13,0.41,31,,0,0,,,,,,,,,,,,,,,,
3461,0,0.0518,2.57,2.2,,,-0.13,-0.04,-0.01,-2,-1,0,0.13,0.41,32,,,,,,,,,,,,,,,,,,,
3471,0,0.052,2.59,2.2,1.39,,-0.12,-0.04,0.03,-2,-1,0,0.13,0.41,32,,,,,,,,,,,,,,,,,,,
3481,0,0.0522,2.59,2.2,,,-0.1,-0.04,0.03,-2,-1,0,0.12,0.41,28,,,,,,,,,,,,,,,,,,,
3491,0,0.0523,2.59,2.2,1.38,,-0.1,-0.05,0.02,-2,-1,0,0.12,0.41,29,,0,0,,,,,,,,,,,,,,,,
3501,0,0.0525,2.58,2.17,,,-0.1,-0.02,-0.01,-2,-1,0,0.1,0.41,25,,,,,,,,,,,,,,,,,,,
3511,0,0.0526,2.56,2.15,1.34,,-0.12,-0.04,-0.01,-2,-1,0,0.13,0.41,31,,,,,,,,,,,,,,,,,,,
3521,0,0.0528,2.54,2.16,,,-0.13,-0.03,-0.01,-2,-1,0,0.13,0.41,33,,,,,,,,,,,,,,,,,,,
3531,0,0.053,2.56,2.18,1.37,,-0.1,-0.04,-0.01,-2,-1,0,0.11,0.41,26,,0,0,0.0,0.0,0.0,0.0,0,0,0.0,0,0.0,-1,0.0,0,0.0,0.053,0.0,0.0
3541,0,0.0532,2.57,2.15,,,-0.1,-0.04,0.02,-2,-1,0,0.11,0.41,27,,,,,,,,,,,,,,,,,,,
3551,0,0.0533,2.59,2.16,1.36,,-0.08,-0.04,0.03,-2,-1,-0,0.1,0.41,24,,,,,,,,,,,,,,,,,,,
3561,0,0.0535,2.57,2.19,,,-0.09,-0.04,0.05,-1,-1,-0,0.11,0.41,26,,,,,,,,,,,,,,,,,,,
3571,0,0.0536,2.55,2.17,1.37,,-0.08,-0.02,0.03,-1,-1,-0,0.09,0.41,21,,0,0,,,,,,,,,,,,,,,,
3581,0,0.0538,2.56,2.15,,,-0.09,-0.04,0.01,-1,-1,-1,0.1,0.41,25,,,,,,,,,,,,,,,,,,,
3591,0,0.054,2.6,2.19,1.39,,-0.1,-0.01,-0.0,-1,-0,-1,0.1,0.41,23,,,,,,,,,,,,,,,,,,,
3601,0,0.0542,2.57,2.15,,,-0.12,-0.05,-0.01,-1,-0,-1,0.13,0.41,31,,,,,,,,,,,,,,,,,,,
3611,0,0.0543,2.58,2.18,1.36,,-0.13,-0.05,0.01,-1,-0,-1,0.14,0.41,35,,0,0,,,,,,,,,,,,,,,,
3621,0,0.0545,2.61,2.17,,,-0.09,-0.07,0.04,-1,-0,-1,0.12,0.41,30,,,,,,,,,,,,,,,,,,,
3631,0,0.0546,2.61,2.2,1.39,,-0.09,-0.07,0.07,-1,-0,-1,0.14,0.41,34,,,,0.0,0.0,0.0,0.0,0,0,0.0,0,0.0,-1,0.0,0,0.0,0.0546,0.0,0.0
3641,0,0.0548,2.61,2.18,,,-0.06,-0.04,0.07,-1,-1,-1,0.1,0.41,25,,,,,,,,,,,,,,,,,,,
3651,0,0.055,2.57,2.16,1.36,,-0.09,-0.07,0.08,-1,-1,-1,0.14,0.41,33,,0,0,,,,,,,,,,,,,,,,
3661,0,0.0552,2.58,2.18,,,-0.09,-0.04,0.06,-1,-1,-1,0.12,0.41,28,,,,,,,,,,,,,,,,,,,
3671,0,0.0553,2.59,2.2,1.38,,-0.11,-0.06,0.01,-1,-0,-1,0.12,0.41,30,,,,,,,,,,,,,,,,,,,
3681,0,0.0555,2.55,2.17,,,-0.07,-0.02,-0.02,-1,-0,-1,0.07,0.41,18,,,,,,,,,,,,,,,,,,,
3691,0,0.0556,2.58,2.2,1.39,,-0.12,-0.02,-0.02,-1,-0,-1,0.13,0.41,31,,0,0,,,,,,,,,,,,,,,,
3701,0,0.0558,2.58,2.17,,,-0.15,-0.04,-0.02,-1,0,-1,0.15,0.41,37,,,,,,,,,,,,,,,,,,,
3711,0,0.056,2.6,2.2,1.39,,-0.15,-0.07,-0.05,-1,1,-1,0.18,0.41,43,,,,,,,,,,,,,,,,,,,
3721,0,0.0562,2.59,2.16,,,-0.12,-0.1,-0.05,-1,1,-1,0.17,0.41,40,,,,,,,,,,,,,,,,,,,
3731,0,0.0563,2.64,2.2,1.39,,-0.15,-0.1,-0.01,-1,1,-1,0.18,0.41,44,,0,0,0.0,0.0,0.0,0.0,0,0,0.0,0,0.0,-1,0.0,0,0.0,0.0563,0.0,0.0
3741,0,0.0565,2.65,2.21,,,-0.18,-0.14,0.01,-0,2,-1,0.22,0.41,54,,,,,,,,,,,,,,,,,,,
3751,0,0.0566,2.67,2.21,1.39,,-0.17,-0.17,-0.02,-0,2,-1,0.24,0.41,58,,,,,,,,,,,,,,,,,,,
3761,0,0.0568,2.67,2.21,,,-0.14,-0.15,-0.01,-0,2,-0,0.21,0.41,50,,,,,,,,,,,,,,,,,,,
3771,0,0.057,2.65,2.18,1.35,,-0.17,-0.14,0.02,0,2,-0,0.22,0.41,54,,0,0,,,,,,,,,,,,,,,,
3781,0,0.0572,2.67,2.22,,,-0.17,-0.14,0.04,0,2,-0,0.23,0.41,56,,,,,,,,,,,,,,,,,,,
3791,0,0.0573,2.67,2.23,1.38,,-0.16,-0.11,0.06,0,2,0,0.21,0.41,50,,,,,,,,,,,,,,,,,,,
3801,0,0.0575,2.63,2.22,,,-0.14,-0.13,0.08,0,3,0,0.21,0.41,50,,,,,,,,,,,,,,,,,,,
3811,0,0.0576,2.63,2.23,1.38,,-0.15,-0.11,0.06,0,3,0,0.19,0.41,46,,0,0,,,,,,,,,,,,,,,,
3821,0,0.0578,2.65,2.24,,,-0.17,-0.12,0.07,0,3,-0,0.22,0.41,53,,,,,,,,,,,,,,,,,,,
3831,0,0.058,2.62,2.19,1.34,,-0.16,-0.11,0.12,1,3,0,0.23,0.41,55,,,,0.0,0.0,0.0,0.0,0,0,0.0,0,0.0,-1,0.0,0,0.0,0.058,0.0,0.0
3841,0,0.0582,2.62,2.2,,,-0.13,-0.16,0.14,1,4,0,0.25,0.41,61,,,,,,,,,,,,,,,,,,,
3851,0,0.0583,2.65,2.21,1.38,,-0.14,-0.17,0.11,1,4,0,0.25,0.41,60,,0,0,,,,,,,,,,,,,,,,
3861,0,0.0585,2.59,2.17,,,-0.17,-0.2,0.12,1,4,0,0.29,0.41,70,,,,,,,,,,,,,,,,,,,
3871,0,0.0586,2.63,2.2,1.33,,-0.18,-0.18,0.13,1,5,1,0.29,0.41,70,,,,,,,,,,,,,,,,,,,
3881,0,0.0588,2.65,2.19,,,-0.15,-0.2,0.12,1,5,1,0.28,0.41,67,,,,,,,,,,,,,,,,,,,
3891,0,0.059,2.65,2.21,1.39,,-0.17,-0.22,0.07,1,5,1,0.29,0.41,70,,0,0,,,,,,,,,,,,,,,,
3901,0,0.0592,2.65,2.22,,,-0.21,-0.23,0.07,1,5,1,0.31,0.41,76,,,,,,,,,,,,,,,,,,,
3911,0,0.0593,2.66,2.22,1.38,,-0.21,-0.21,0.08,1,6,1,0.31,0.41,74,,,,,,,,,,,,,,,,,,,
3921,0,0.0595,2.64,2.21,,,-0.19,-0.23,0.07,1,6,2,0.3,0.41,74,,,,,,,,,,,,,,,,,,,
3931,0,0.0596,2.65,2.21,1.37,,-0.2,-0.22,0.05,1,6,2,0.3,0.41,72,,0,0,0.0,0.0,0.0,0.0,0,0,0.0,0,0.0,-1,0.0,0,0.0,0.0596,0.0,0.0
3941,0,0.0598,2.66,2.22,,,-0.21,-0.23,0.03,1,6,2,0.31,0.41,76,,,,,,,,,,,,,,,,,,,
3951,0,0.06,2.66,2.22,1.38,,-0.24,-0.2,0.02,1,6,2,0.32,0.41,77,,,,,,,,,,,,,,,,,,,
3961,0,0.0602,2.65,2.2,,,-0.21,-0.2,-0.0,1,7,2,0.29,0.41,71,,,,,,,,,,,,,,,,,,,
3971,0,0.0603,2.61,2.19,1.36,,-0.23,-0.2,-0.04,1,6,2,0.31,0.41,75,,0,0,,,,,,,,,,,,,,,,
3981,0,0.0605,2.65,2.23,,,-0.25,-0.23,-0.03,1,7,1,0.35,0.41,84,,,,,,,,,,,,,,,,,,,
3991,0,0.0606,2.65,2.22,1.38,,-0.27,-0.22,-0.02,1,7,2,0.35,0.41,85,,,,,,,,,,,,,,,,,,,
4001,0,0.0608,2.66,2.22,,,-0.26,-0.24,-0.02,1,7,2,0.35,0.41,86,,,,,,,,,,,,,,,,,,,
4011,0,0.061,2.65,2.21,1.37,,-0.27,-0.23,-0.03,0,7,2,0.36,0.41,88,,0,0,,,,,,,,,,,,,,,,
4021,0,0.0612,2.64,2.21,,,-0.3,-0.25,-0.04,0,6,2,0.39,0.41,95,,,,,,,,,,,,,,,,,,,
4031,0,0.0613,2.64,2.22,1.38,,-0.3,-0.24,-0.03,0,6,2,0.39,0.41,95,,,,0.0,0.0,0.0,0.0,0,0,0.0,0,0.0,-1,0.0,0,0.0,0.0613,0.0,0.0
4041,0,0.0615,2.65,2.22,,,-0.29,-0.22,-0.04,0,6,2,0.37,0.41,89,,,,,,,,,,,,,,,,,,,
4051,0,0.0616,2.64,2.21,1.37,,-0.32,-0.24,-0.04,0,6,2,0.4,0.41,98,,0,0,,,,,,,,,,,,,,,,
4061,0,0.0618,2.63,2.19,,,-0.34,-0.26,-0.06,0,5,2,0.43,0.43,100,,,,,,,,,,,,,,,,,,,
4071,0,0.062,2.6,2.19,1.36,,-0.36,-0.29,-0.06,-0,5,2,0.46,0.46,100,,,,,,,,,,,,,,,,,,,
4081,0,0.0622,2.65,2.18,,,-0.34,-0.22,-0.06,-0,5,2,0.41,0.46,88,,,,,,,,,,,,,,,,,,,
4091,0,0.0623,2.64,2.2,1.38,,-0.36,-0.24,-0.04,-0,4,2,0.43,0.46,92,,0,0,,,,,,,,,,,,,,,,
4101,0,0.0625,2.64,2.21,,,-0.36,-0.23,-0.05,-0,4,2,0.43,0.46,93,,,,,,,,,,,,,,,,,,,
4111,0,0.0626,2.64,2.21,1.38,,-0.36,-0.25,-0.08,-0,3,2,0.44,0.46,96,,,,,,,,,,,,,,,,,,,
4121,0,0.0628,2.62,2.2,,,-0.33,-0.23,-0.08,-0,3,2,0.41,0.46,89,,,,,,,,,,,,,,,,,,,
4131,0,0.063,2.6,2.18,1.34,,-0.35,-0.22,-0.06,-0,3,2,0.42,0.46,91,,0,0,0.0,0.0,0.0,0.0,0,0,0.0,0,0.0,-1,0.0,0,0.0,0.063,0.0,0.0
4141,0,0.0632,2.56,2.16,,,-0.36,-0.19,-0.06,-1,2,2,0.42,0.46,90,,,,,,,,,,,,,,,,,,,
4151,0,0.0633,2.62,2.2,1.38,,-0.37,-0.18,-0.08,-1,2,2,0.42,0.46,90,,,,,,,,,,,,,,,,,,,
4161,0,0.0635,2.61,2.21,,,-0.34,-0.16,-0.08,-1,1,2,0.38,0.46,83,,,,,,,,,,,,,,,,,,,
4171,0,0.0636,2.61,2.19,1.35,,-0.36,-0.16,-0.04,-1,1,2,0.4,0.46,86,,0,0,,,,,,,,,,,,,,,,
4181,0,0.0638,2.57,2.18,,,-0.37,-0.14,-0.04,-1,0,2,0.4,0.46,86,,,,,,,,,,,,,,,,,,,
4191,0,0.064,2.59,2.19,1.37,,-0.37,-0.16,-0.07,-1,-0,2,0.41,0.46,88,,,,,,,,,,,,,,,,,,,
4201,0,0.0642,2.61,2.21,,,-0.35,-0.13,-0.09,-1,-1,2,0.38,0.46,82,,,,,,,,,,,,,,,,,,,
4211,0,0.0643,2.62,2.21,1.38,,-0.37,-0.15,-0.08,-1,-1,2,0.41,0.46,88,,0,0,,,,,,,,,,,,,,,,
4221,0,0.0645,2.61,2.2,,,-0.36,-0.14,-0.07,-2,-1,2,0.39,0.46,85,,,,,,,,,,,,,,,,,,,
4231,0,0.0646,2.62,2.19,1.38,,-0.34,-0.18,-0.09,-2,-2,2,0.4,0.46,86,,,,0.0,0.0,0.0,0.0,0,0,0.0,0,0.0,-1,0.0,0,0.0,0.0646,0.0,0.0
4241,0,0.0648,2.57,2.12,,,-0.3,-0.21,-0.1,-2,-2,2,0.38,0.46,82,,,,,,,,,,,,,,,,,,,
4251,0,0.065,2.6,2.15,1.38,,-0.29,-0.23,-0.07,-2,-2,3,0.37,0.46,81,,0,0,,,,,,,,,,,,,,,,
4261,0,0.0652,2.61,2.13,,,-0.26,-0.24,-0.05,-2,-2,4,0.35,0.46,77,,,,,,,,,,,,,,,,,,,
4271,0,0.0653,2.6,2.1,1.37,,-0.21,-0.23,-0.08,-2,-2,5,0.32,0.46,70,,,,,,,,,,,,,,,,,,,
4281,0,0.0655,2.51,2.07,,,-0.14,-0.19,-0.08,-2,-2,5,0.25,0.46,54,,,,,,,,,,,,,,,,,,,
4291,0,0.0656,2.52,2.04,1.36,,-0.13,-0.11,-0.03,-2,-1,6,0.17,0.46,36,,0,0,,,,,,,,,,,,,,,,
4301,0,0.0658,2.45,2.03,,,-0.08,-0.03,-0.01,-2,-1,6,0.08,0.46,18,,,,,,,,,,,,,,,,,,,
4311,0,0.066,2.43,2.01,1.34,,-0.05,0.05,0.0,-2,0,6,0.07,0.46,14,,,,,,,,,,,,,,,,,,,
4321,0,0.0662,2.41,2.02,,,0.01,0.15,-0.01,-2,1,5,0.15,0.46,32,,,,,,,,,,,,,,,,,,,
4331,0,0.0663,2.42,2.05,1.39,12.85,0.0,0.19,0.01,-2,2,4,0.19,0.46,41,0,0,0,0.0,0.0,0.0,0.0,0,0,0.0,0,0.0,-1,0.0,0,0.0,0.0663,0.0,0.0
4341,0,0.0665,2.4,2.06,,,0.02,0.26,0.02,-2,4,3,0.26,0.46,56,,,,,,,,,,,,,,,,,,,
4351,0,0.0667,2.46,2.13,1.39,,0.01,0.27,-0.03,-2,5,2,0.27,0.46,59,,,,,,,,,,,,,,,,,,,
4361,0,0.0668,2.49,2.15,,,0.01,0.28,-0.06,-2,6,0,0.29,0.46,62,,,,,,,,,,,,,,,,,,,
4371,0,0.067,2.53,2.22,1.39,,-0.05,0.22,-0.06,-2,7,-1,0.24,0.46,51,,0,0,,,,,,,,,,,,,,,,
4381,0,0.0671,2.53,2.23,,,-0.08,0.22,-0.1,-2,8,-2,0.26,0.46,55,,,,,,,,,,,,,,,,,,,
4391,0,0.0673,2.62,2.31,1.38,,-0.1,0.24,-0.15,-2,9,-3,0.3,0.46,65,,,,,,,,,,,,,,,,,,,
4401,0,0.0675,2.65,2.34,,,-0.12,0.14,-0.08,-2,9,-4,0.2,0.46,44,,,,,,,,,,,,,,,,,,,
4411,0,0.0676,2.65,2.33,1.38,,-0.23,0.17,-0.16,-2,9,-4,0.32,0.46,69,,0,0,,,,,,,,,,,,,,,,
4421,0,0.0678,2.7,2.37,,,-0.29,0.04,-0.23,-2,8,-4,0.37,0.46,81,,,,,,,,,,,,,,,,,,,
4431,0,0.068,2.66,2.33,1.34,,-0.37,0.15,-0.24,-2,7,-4,0.47,0.47,100,,,,0.0,0.0,0.0,0.0,0,0,0.0,0,0.0,-1,0.0,0,0.0,0.068,0.0,0.0
4441,0,0.0682,2.67,2.35,,,-0.35,0.09,-0.26,-2,7,-4,0.44,0.47,94,,,,,,,,,,,,,,,,,,,
4451,0,0.0683,2.69,2.35,1.38,,-0.36,0.07,-0.23,-1,6,-4,0.43,0.47,93,,0,0,,,,,,,,,,,,,,,,
4461,0,0.0685,2.68,2.33,,,-0.39,0.13,-0.26,-1,5,-4,0.49,0.49,100,,,,,,,,,,,,,,,,,,,
4471,0,0.0686,2.64,2.25,1.3,,-0.34,0.07,-0.29,-0,5,-3,0.45,0.49,93,,,,,,,,,,,,,,,,,,,
4481,0,0.0688,2.63,2.3,,,-0.3,0.1,-0.3,-0,4,-3,0.44,0.49,90,,,,,,,,,,,,,,,,,,,
4491,0,0.069,2.64,2.31,1.37,,-0.3,0.06,-0.31,-0,3,-2,0.43,0.49,89,,0,0,,,,,,,,,,,,,,,,
4501,0,0.0692,2.69,2.32,,,-0.35,0.07,-0.38,0,3,-2,0.52,0.52,100,,,,,,,,,,,,,,,,,,,
4511,0,0.0693,2.65,2.28,1.35,,-0.36,0.06,-0.42,0,2,-1,0.56,0.56,100,,,,,,,,,,,,,,,,,,,
4521,0,0.0695,2.68,2.31,,,-0.39,0.11,-0.41,0,1,-1,0.57,0.57,100,,,,,,,,,,,,,,,,,,,
4531,0,0.0696,2.69,2.34,1.38,,-0.4,0.07,-0.41,0,1,-0,0.58,0.58,100,,0,0,0.0,0.0,0.0,0.0,0,0,0.0,0,0.0,-1,0.0,0,0.0,0.0696,0.0,0.0
4541,0,0.0698,2.69,2.33,,,-0.43,0.08,-0.42,0,-0,0,0.61,0.61,100,,,,,,,,,,,,,,,,,,,
4551,0,0.07,2.68,2.33,1.38,,-0.45,0.05,-0.42,0,-1,0,0.62,0.62,100,,,,,,,,,,,,,,,,,,,
4561,0,0.0702,2.66,2.29,,,-0.45,0.02,-0.41,-0,-3,1,0.61,0.62,98,,,,,,,,,,,,,,,,,,,
4571,0,0.0703,2.67,2.32,1.37,,-0.47,0.02,-0.39,-0,-4,2,0.61,0.62,98,,0,0,,,,,,,,,,,,,,,,
4581,0,0.0705,2.65,2.32,,,-0.5,0.0,-0.4,-1,-6,2,0.64,0.64,100,,,,,,,,,,,,,,,,,,,
4591,0,0.0706,2.67,2.31,1.36,,-0.54,0.0,-0.44,-1,-8,3,0.7,0.7,100,,,,,,,,,,,,,,,,,,,
4601,0,0.0708,2.66,2.31,,,-0.57,-0.02,-0.44,-1,-10,4,0.72,0.72,100,,,,,,,,,,,,,,,,,,,
4611,0,0.071,2.67,2.32,1.37,,-0.55,0.05,-0.41,-2,-12,4,0.69,0.72,95,,0,0,,,,,,,,,,,,,,,,
4621,0,0.0712,2.64,2.29,,,-0.53,0.12,-0.37,-2,-14,4,0.66,0.72,91,,,,,,,,,,,,,,,,,,,
4631,0,0.0713,2.6,2.26,1.38,,-0.53,0.13,-0.32,-2,-17,4,0.63,0.72,88,,,,0.0,0.0,0.0,0.0,0,0,0.0,0,0.0,-1,0.0,0,0.0,0.0713,0.0,0.0
4641,0,0.0715,2.54,2.19,,,-0.53,0.25,-0.27,-2,-19,3,0.64,0.72,89,,,,,,,,,,,,,,,,,,,
4651,0,0.0716,2.49,2.14,1.38,,-0.45,0.15,-0.23,-1,-21,2,0.53,0.72,73,,0,0,,,,,,,,,,,,,,,,
4661,0,0.0718,2.43,2.06,,,-0.38,0.27,-0.16,-1,-23,0,0.49,0.72,68,,,,,,,,,,,,,,,,,,,
4671,0,0.072,2.38,2.0,1.34,,-0.3,0.25,-0.18,-1,-24,-1,0.43,0.72,60,,,,,,,,,,,,,,,,,,,
4681,0,0.0722,2.42,2.01,,,-0.24,0.26,-0.18,-1,-25,-2,0.4,0.72,55,,,,,,,,,,,,,,,,,,,
4691,0,0.0723,2.44,1.99,1.38,,-0.11,0.24,-0.16,-1,-25,-4,0.3,0.72,42,,0,0,,,,,,,,,,,,,,,,
4701,0,0.0725,2.45,1.97,,,-0.02,0.11,-0.09,-1,-24,-4,0.15,0.72,20,,,,,,,,,,,,,,,,,,,
4711,0,0.0726,2.44,1.94,1.36,,0.03,-0.01,-0.22,-1,-24,-4,0.23,0.72,31,,,,,,,,,,,,,,,,,,,
4721,0,0.0728,2.44,1.94,,,0.1,0.11,-0.24,-1,-23,-4,0.28,0.72,39,,,,,,,,,,,,,,,,,,,
4731,0,0.073,2.45,1.94,1.38,,0.19,0.06,-0.16,-1,-21,-3,0.26,0.72,36,,0,0,0.0,0.0,0.0,0.0,0,0,0.0,0,0.0,-1,0.0,0,0.0,0.073,0.0,0.0
4741,0,0.0732,2.43,1.91,,,0.27,0.04,-0.13,-1,-19,-3,0.3,0.72,42,,,,,,,,,,,,,,,,,,,
4751,0,0.0733,2.44,1.96,1.39,,0.3,0.06,-0.1,-1,-17,-2,0.32,0.72,45,,,,,,,,,,,,,,,,,,,
4761,0,0.0735,2.42,1.96,,,0.33,0.02,-0.07,-1,-15,-2,0.34,0.72,46,,,,,,,,,,,,,,,,,,,
4771,0,0.0736,2.45,2.0,1.38,,0.39,0.02,-0.07,-1,-12,-1,0.39,0.72,54,,0,0,,,,,,,,,,,,,,,,
4781,0,0.0738,2.49,2.05,,,0.4,-0.01,-0.08,-1,-9,-1,0.41,0.72,56,,,,,,,,,,,,,,,,,,,
4791,0,0.074,2.5,2.05,1.35,,0.39,-0.04,-0.08,-1,-7,0,0.4,0.72,56,,,,,,,,,,,,,,,,,,,
4801,0,0.0742,2.53,2.12,,,0.36,-0.05,-0.1,-1,-5,1,0.38,0.72,52,,,,,,,,,,,,,,,,,,,
4811,0,0.0743,2.55,2.16,1.38,,0.36,-0.09,-0.13,-1,-2,2,0.39,0.72,54,,0,0,,,,,,,,,,,,,,,,
4821,0,0.0745,2.57,2.19,,,0.35,-0.06,-0.15,-1,0,3,0.38,0.72,53,,,,,,,,,,,,,,,,,,,
4831,0,0.0746,2.59,2.22,1.38,,0.3,-0.01,-0.14,-1,2,4,0.33,0.72,46,,,,0.0,0.0,0.0,0.0,0,0,0.0,0,0.0,-1,0.0,0,0.0,0.0746,0.0,0.0
4841,0,0.0748,2.59,2.24,,,0.26,0.01,-0.14,-1,4,4,0.29,0.72,41,,,,,,,,,,,,,,,,,,,
4851,0,0.075,2.61,2.23,1.35,,0.25,0.07,-0.14,-1,5,4,0.29,0.72,41,,0,0,,,,,,,,,,,,,,,,
4861,0,0.0752,2.63,2.28,,,0.2,0.13,-0.16,-1,7,4,0.28,0.72,39,,,,,,,,,,,,,,,,,,,
4871,0,0.0753,2.61,2.27,1.38,,0.18,0.14,-0.22,-1,7,3,0.32,0.72,44,,,,,,,,,,,,,,,,,,,
4881,0,0.0755,2.55,2.19,,,0.1,0.24,-0.23,-1,8,2,0.35,0.72,48,,,,,,,,,,,,,,,,,,,
4891,0,0.0756,2.62,2.27,1.36,,0.05,0.16,-0.25,-1,8,1,0.3,0.72,42,,0,0,,,,,,,,,,,,,,,,
4901,0,0.0758,2.65,2.29,,,0.04,0.2,-0.26,-1,9,1,0.33,0.72,46,,,,,,,,,,,,,,,,,,,
4911,0,0.076,2.66,2.29,1.39,,0.05,0.17,-0.27,-2,9,0,0.33,0.72,45,,,,,,,,,,,,,,,,,,,
4921,0,0.0762,2.67,2.29,,,-0.02,0.14,-0.27,-2,9,-0,0.3,0.72,42,,,,,,,,,,,,,,,,,,,
4931,0,0.0763,2.67,2.29,1.39,,-0.06,0.14,-0.25,-2,9,-1,0.29,0.72,41,,0,0,0.0,0.0,0.0,0.0,0,0,0.0,0,0.0,-1,0.0,0,0.0,0.0763,0.0,0.0
4941,0,0.0765,2.66,2.28,,,-0.04,0.13,-0.23,-2,9,-1,0.27,0.72,37,,,,,,,,,,,,,,,,,,,
4951,0,0.0766,2.67,2.29,1.39,,-0.03,0.09,-0.18,-3,8,-1,0.2,0.72,28,,,,,,,,,,,,,,,,,,,
4961,0,0.0768,2.63,2.28,,,-0.03,0.1,-0.2,-3,8,-1,0.22,0.72,31,,,,,,,,,,,,,,,,,,,
4971,0,0.077,2.66,2.28,1.38,,-0.07,0.05,-0.17,-3,8,-1,0.19,0.72,26,,0,0,,,,,,,,,,,,,,,,
4981,0,0.0772,2.63,2.25,,,-0.12,0.06,-0.16,-3,7,-1,0.21,0.72,29,,,,,,,,,,,,,,,,,,,
4991,0,0.0773,2.63,2.27,1.39,,-0.11,0.04,-0.21,-3,6,-2,0.25,0.72,34,,,,,,,,,,,,,,,,,,,
5001,0,0.0775,2.63,2.26,,,-0.09,-0.0,-0.25,-2,6,-1,0.26,0.72,36,,,,,,,,,,,,,,,,,,,
5011,0,0.0777,2.62,2.25,1.39,,-0.15,-0.02,-0.22,-2,5,-1,0.27,0.72,37,,0,0,,,,,,,,,,,,,,,,
5021,0,0.0778,2.62,2.22,,,-0.17,-0.05,-0.17,-2,5,-1,0.25,0.72,34,,,,,,,,,,,,,,,,,,,
5031,0,0.078,2.56,2.19,1.37,,-0.11,-0.07,-0.13,-2,4,-1,0.18,0.72,25,,,,0.0,0.0,0.0,0.0,0,0,0.0,0,0.0,-1,0.0,0,0.0,0.078,0.0,0.0
5041,0,0.0781,2.57,2.19,,,-0.09,-0.05,-0.12,-1,4,-0,0.15,0.72,21,,,,,,,,,,,,,,,,,,,
5051,0,0.0783,2.55,2.18,1.37,,-0.07,-0.05,-0.09,-1,4,-0,0.12,0.72,17,,0,0,,,,,,,,,,,,,,,,
5061,0,0.0785,2.57,2.2,,,-0.12,-0.01,-0.05,-0,3,-0,0.13,0.72,19,,,,,,,,,,,,,,,,,,,
5071,0,0.0786,2.56,2.19,1.38,,-0.14,0.03,-0.11,0,3,-1,0.18,0.72,24,,,,,,,,,,,,,,,,,,,
5081,0,0.0788,2.58,2.2,,,-0.12,0.0,-0.13,0,4,-1,0.17,0.72,24,,,,,,,,,,,,,,,,,,,
5091,0,0.079,2.59,2.2,1.39,,-0.1,0.0,-0.09,1,4,-1,0.14,0.72,19,,0,0,,,,,,,,,,,,,,,,
5101,0,0.0792,2.59,2.2,,,-0.16,0.0,-0.04,1,4,-1,0.16,0.72,22,,,,,,,,,,,,,,,,,,,
5111,0,0.0793,2.58,2.19,1.39,,-0.16,-0.03,-0.02,1,4,-2,0.17,0.72,23,,,,,,,,,,,,,,,,,,,
5121,0,0.0795,2.59,2.19,,,-0.14,0.02,-0.05,1,3,-2,0.15,0.72,20,,,,,,,,,,,,,,,,,,,
5131,0,0.0796,2.58,2.19,1.39,,-0.14,-0.01,-0.03,2,3,-2,0.15,0.72,20,,0,0,0.0,0.0,0.0,0.0,0,0,0.0,0,0.0,-1,0.0,0,0.0,0.0796,0.0,0.0
5141,0,0.0798,2.59,2.19,,,-0.12,0.02,-0.05,2,3,-2,0.13,0.72,18,,,,,,,,,,,,,,,,,,,
5151,0,0.08,2.61,2.15,1.36,,-0.18,0.01,-0.05,2,2,-2,0.19,0.72,26,,,,,,,,,,,,,,,,,,,
5161,0,0.0802,2.61,2.18,,,-0.21,0.01,-0.07,2,2,-3,0.22,0.72,30,,,,,,,,,,,,,,,,,,,
5171,0,0.0803,2.6,2.18,1.39,,-0.17,-0.04,-0.12,2,3,-3,0.21,0.72,29,,0,0,,,,,,,,,,,,,,,,
5181,0,0.0805,2.63,2.19,,,-0.15,-0.06,-0.1,3,3,-3,0.19,0.72,26,,,,,,,,,,,,,,,,,,,
5191,0,0.0806,2.65,2.19,1.39,,-0.18,-0.06,-0.09,3,3,-3,0.21,0.72,30,,,,,,,,,,,,,,,,,,,
5201,0,0.0808,2.66,2.19,,,-0.21,-0.08,-0.05,3,3,-3,0.24,0.72,33,,,,,,,,,,,,,,,,,,,
5211,0,0.081,2.66,2.21,1.35,,-0.18,-0.07,-0.04,3,2,-3,0.19,0.72,27,,0,0,,,,,,,,,,,,,,,,
5221,0,0.0812,2.64,2.22,,,-0.17,-0.09,-0.02,3,1,-3,0.2,0.72,27,,,,,,,,,,,,,,,,,,,
5231,0,0.0813,2.66,2.2,1.37,,-0.15,-0.05,-0.07,3,1,-3,0.18,0.72,25,,,,0.0,0.0,0.0,0.0,0,0,0.0,0,0.0,-1,0.0,0,0.0,0.0813,0.0,0.0
5241,0,0.0815,2.64,2.19,,,-0.2,-0.05,-0.09,3,0,-3,0.23,0.72,31,,,,,,,,,,,,,,,,,,,
5251,0,0.0816,2.66,2.23,1.39,,-0.22,-0.04,-0.1,4,0,-3,0.25,0.72,34,,0,0,,,,,,,,,,,,,,,,
5261,0,0.0818,2.63,2.2,,,-0.2,-0.05,-0.16,4,0,-3,0.27,0.72,37,,,,,,,,,,,,,,,,,,,
5271,0,0.082,2.65,2.2,1.38,,-0.17,-0.07,-0.18,4,-0,-3,0.26,0.72,35,,,,,,,,,,,,,,,,,,,
5281,0,0.0822,2.64,2.17,,,-0.18,-0.12,-0.14,4,-0,-3,0.26,0.72,36,,,,,,,,,,,,,,,,,,,
5291,0,0.0823,2.6,2.07,1.32,,-0.17,-0.19,-0.12,4,0,-3,0.28,0.72,39,,0,0,,,,,,,,,,,,,,,,
5301,0,0.0825,2.59,2.08,,,-0.11,-0.24,-0.09,4,1,-2,0.28,0.72,38,,,,,,,,,,,,,,,,,,,
5311,0,0.0826,2.57,2.07,1.36,,-0.03,-0.24,0.0,4,1,-1,0.24,0.72,34,,,,,,,,,,,,,,,,,,,
5321,0,0.0828,2.53,2.04,,,0.02,-0.2,0.05,3,2,0,0.21,0.72,29,,,,,,,,,,,,,,,,,,,
5331,0,0.083,2.48,2.03,1.38,12.76,0.07,-0.2,0.08,3,3,1,0.23,0.72,31,0,0,0,0.0,0.0,0.0,0.0,0,0,0.0,0,0.0,-1,0.0,0,0.0,0.083,0.0,0.0
5341,0,0.0832,2.42,2.0,,,0.14,-0.13,0.12,3,3,2,0.23,0.72,31,,,,,,,,,,,,,,,,,,,
5351,0,0.0833,2.32,1.93,1.35,,0.23,-0.09,0.15,4,4,2,0.29,0.72,40,,,,,,,,,,,,,,,,,,,
5361,0,0.0835,2.32,1.97,,,0.28,0.04,0.2,4,6,1,0.35,0.72,48,,,,,,,,,,,,,,,,,,,
5371,0,0.0836,2.3,1.94,1.34,,0.27,0.12,0.29,4,7,1,0.41,0.72,57,,0,0,,,,,,,,,,,,,,,,
5381,0,0.0838,2.36,2.02,,,0.28,0.22,0.32,4,9,-1,0.48,0.72,67,,,,,,,,,,,,,,,,,,,
5391,0,0.084,2.42,2.08,1.39,,0.27,0.3,0.25,4,11,-3,0.48,0.72,66,,,,,,,,,,,,,,,,,,,
5401,0,0.0842,2.45,2.08,,,0.24,0.25,0.19,4,13,-5,0.4,0.72,55,,,,,,,,,,,,,,,,,,,
5411,0,0.0843,2.55,2.13,1.34,,0.13,0.17,0.19,4,14,-7,0.28,0.72,39,,0,0,,,,,,,,,,,,,,,,
5421,0,0.0845,2.65,2.2,,,0.04,0.12,0.14,4,16,-7,0.19,0.72,26,,,,,,,,,,,,,,,,,,,
5431,0,0.0846,2.7,2.28,1.38,,-0.02,0.0,0.06,5,17,-7,0.07,0.72,9,,,,0.0,0.0,0.0,0.0,0,0,0.0,0,0.0,-1,0.0,0,0.0,0.0846,0.0,0.0
5441,0,0.0848,2.66,2.3,,,-0.13,-0.11,0.05,4,19,-7,0.18,0.72,26,,,,,,,,,,,,,,,,,,,
5451,0,0.085,2.73,2.36,1.38,,-0.24,-0.12,-0.03,4,18,-7,0.27,0.72,37,,0,0,,,,,,,,,,,,,,,,
5461,0,0.0852,2.72,2.35,,,-0.32,-0.22,-0.01,4,18,-7,0.39,0.72,55,,,,,,,,,,,,,,,,,,,
5471,0,0.0853,2.74,2.39,1.39,,-0.31,-0.15,-0.05,4,17,-6,0.35,0.72,48,,,,,,,,,,,,,,,,,,,
5481,0,0.0855,2.71,2.33,,,-0.29,-0.22,-0.03,4,17,-6,0.36,0.72,51,,,,,,,,,,,,,,,,,,,
5491,0,0.0856,2.7,2.33,1.34,,-0.3,-0.2,-0.05,4,17,-6,0.36,0.72,51,,0,0,,,,,,,,,,,,,,,,
5501,0,0.0858,2.72,2.33,,,-0.3,-0.18,-0.01,4,17,-5,0.35,0.72,48,,,,,,,,,,,,,,,,,,,
5511,0,0.086,2.73,2.31,1.38,,-0.29,-0.22,0.03,5,16,-4,0.37,0.72,51,,,,,,,,,,,,,,,,,,,
5521,0,0.0862,2.71,2.27,,,-0.23,-0.2,0.03,5,15,-4,0.3,0.72,42,,,,,,,,,,,,,,,,,,,
5531,0,0.0863,2.71,2.29,1.38,,-0.24,-0.21,-0.01,5,15,-3,0.31,0.72,43,,0,0,0.0,0.0,0.0,0.0,0,0,0.0,0,0.0,-1,0.0,0,0.0,0.0863,0.0,0.0
5541,0,0.0865,2.71,2.29,,,-0.24,-0.23,-0.05,5,14,-3,0.34,0.72,47,,,,,,,,,,,,,,,,,,,
5551,0,0.0866,2.68,2.26,1.38,,-0.27,-0.23,-0.08,5,14,-2,0.36,0.72,50,,,,,,,,,,,,,,,,,,,
5561,0,0.0868,2.71,2.32,,,-0.3,-0.23,-0.1,4,13,-1,0.39,0.72,54,,,,,,,,,,,,,,,,,,,
5571,0,0.087,2.68,2.31,1.37,,-0.33,-0.23,-0.12,4,12,-0,0.42,0.72,59,,0,0,,,,,,,,,,,,,,,,
5581,0,0.0872,2.69,2.31,,,-0.38,-0.23,-0.14,4,11,1,0.47,0.72,65,,,,,,,,,,,,,,,,,,,
5591,0,0.0873,2.71,2.35,1.38,,-0.42,-0.22,-0.15,3,10,2,0.5,0.72,69,,,,,,,,,,,,,,,,,,,
5601,0,0.0875,2.67,2.3,,,-0.44,-0.18,-0.2,3,7,2,0.52,0.72,72,,,,,,,,,,,,,,,,,,,
5611,0,0.0876,2.71,2.34,1.38,,-0.53,-0.18,-0.23,3,5,3,0.6,0.72,84,,0,0,,,,,,,,,,,,,,,,
5621,0,0.0878,2.71,2.3,,,-0.62,-0.18,-0.22,3,2,4,0.68,0.72,95,,,,,,,,,,,,,,,,,,,
5631,0,0.088,2.68,2.3,1.38,,-0.66,-0.16,-0.19,3,-1,4,0.71,0.72,98,,,,0.0,0.0,0.0,0.0,0,0,0.0,0,0.0,-1,0.0,0,0.0,0.088,0.0,0.0
5641,0,0.0882,2.72,2.27,,,-0.68,-0.03,-0.18,3,-5,4,0.7,0.72,97,,,,,,,,,,,,,,,,,,,
5651,0,0.0883,2.73,2.26,1.39,,-0.69,0.09,-0.2,3,-9,3,0.73,0.73,100,,0,0,,,,,,,,,,,,,,,,
5661,0,0.0885,2.73,2.23,,,-0.72,0.1,-0.28,3,-12,2,0.78,0.78,100,,,,,,,,,,,,,,,,,,,
5671,0,0.0887,2.7,2.21,1.36,,-0.71,0.16,-0.29,3,-15,1,0.79,0.79,100,,,,,,,,,,,,,,,,,,,
5681,0,0.0888,2.75,2.23,,,-0.71,0.17,-0.33,3,-19,0,0.8,0.8,100,,,,,,,,,,,,,,,,,,,
5691,0,0.089,2.79,2.22,1.36,,-0.59,0.18,-0.46,3,-24,-1,0.77,0.8,97,,0,0,,,,,,,,,,,,,,,,
5701,0,0.0891,2.72,2.22,,,-0.6,0.06,-0.42,2,-25,-1,0.73,0.8,92,,,,,,,,,,,,,,,,,,,
5711,0,0.0893,2.7,2.32,1.39,,-0.61,-0.06,-0.51,1,-28,-0,0.8,0.8,100,,,,,,,,,,,,,,,,,,,
5721,0,0.0895,2.64,2.31,,,-0.61,0.07,-0.5,1,-31,1,0.79,0.8,99,,,,,,,,,,,,,,,,,,,
5731,0,0.0896,2.67,2.36,1.39,,-0.57,0.12,-0.48,1,-33,1,0.75,0.8,94,,0,0,0.0,0.0,0.0,0.0,0,0,0.0,0,0.0,-1,0.0,0,0.0,0.0896,0.0,0.0
5741,0,0.0898,2.63,2.26,,,-0.47,0.03,-0.42,2,-35,0,0.63,0.8,78,,,,,,,,,,,,,,,,,,,
5751,0,0.09,2.65,2.23,1.35,,-0.37,0.1,-0.41,2,-37,-0,0.56,0.8,71,,,,,,,,,,,,,,,,,,,
5761,0,0.0902,2.62,2.15,,,-0.28,0.03,-0.39,2,-37,0,0.48,0.8,60,,,,,,,,,,,,,,,,,,,
5771,0,0.0903,2.57,2.09,1.39,,-0.14,0.02,-0.41,3,-38,0,0.43,0.8,54,,0,0,,,,,,,,,,,,,,,,
5781,0,0.0905,2.5,2.06,,,-0.01,-0.07,-0.32,3,-38,1,0.33,0.8,41,,,,,,,,,,,,,,,,,,,
5791,0,0.0906,2.44,2.05,1.39,,0.06,-0.03,-0.25,3,-38,1,0.26,0.8,32,,,,,,,,,,,,,,,,,,,
5801,0,0.0908,2.42,2.04,,,0.08,0.07,-0.21,3,-38,1,0.24,0.8,30,,,,,,,,,,,,,,,,,,,
5811,0,0.091,2.35,1.99,1.36,,0.15,0.05,-0.14,3,-37,0,0.21,0.8,27,,0,0,,,,,,,,,,,,,,,,
5821,0,0.0912,2.35,1.97,,,0.26,0.07,-0.11,4,-35,0,0.29,0.8,36,,,,,,,,,,,,,,,,,,,
5831,0,0.0913,2.39,1.98,1.39,,0.3,0.05,-0.09,4,-33,0,0.32,0.8,40,,,,0.0,0.0,0.0,0.0,0,0,0.0,0,0.0,-1,0.0,0,0.0,0.0913,0.0,0.0
5841,0,0.0915,2.43,1.95,,,0.35,0.05,-0.02,4,-31,0,0.35,0.8,44,,,,,,,,,,,,,,,,,,,
5851,0,0.0916,2.46,1.97,1.39,,0.41,0.07,0.0,4,-29,-0,0.41,0.8,52,,0,0,,,,,,,,,,,,,,,,
5861,0,0.0918,2.47,1.95,,,0.46,0.08,0.0,5,-27,-1,0.46,0.8,58,,,,,,,,,,,,,,,,,,,
5871,0,0.092,2.47,1.96,1.39,,0.52,0.11,0.01,5,-24,-1,0.53,0.8,66,,,,,,,,,,,,,,,,,,,
5881,0,0.0922,2.47,1.94,,,0.56,0.15,0.02,5,-21,-2,0.58,0.8,72,,,,,,,,,,,,,,,,,,,
5891,0,0.0923,2.45,1.95,1.36,,0.53,0.09,-0.02,5,-17,-2,0.53,0.8,67,,0,0,,,,,,,,,,,,,,,,
5901,0,0.0925,2.48,1.99,,,0.63,0.02,-0.1,5,-13,-2,0.63,0.8,79,,,,,,,,,,,,,,,,,,,
5911,0,0.0926,2.5,2.0,1.37,,0.61,-0.04,-0.11,5,-10,-2,0.63,0.8,78,,,,,,,,,,,,,,,,,,,
5921,0,0.0928,2.5,2.04,,,0.6,-0.12,-0.09,5,-6,-2,0.62,0.8,77,,,,,,,,,,,,,,,,,,,
5931,0,0.093,2.51,2.03,1.34,,0.58,-0.07,-0.14,5,-3,-1,0.6,0.8,75,,0,0,0.0,0.0,0.0,0.0,0,0,0.0,0,0.0,-1,0.0,0,0.0,0.093,0.0,0.0
5941,0,0.0932,2.58,2.11,,,0.55,-0.11,-0.17,5,0,-1,0.59,0.8,74,,,,,,,,,,,,,,,,,,,
5951,0,0.0933,2.61,2.13,1.39,,0.54,-0.14,-0.16,5,4,-0,0.58,0.8,72,,,,,,,,,,,,,,,,,,,
5961,0,0.0935,2.65,2.17,,,0.47,-0.12,-0.12,5,6,0,0.5,0.8,63,,,,,,,,,,,,,,,,,,,
5971,0,0.0936,2.68,2.2,1.38,,0.41,-0.15,-0.1,5,8,1,0.45,0.8,57,,0,0,,,,,,,,,,,,,,,,
5981,0,0.0938,2.69,2.23,,,0.36,-0.14,-0.14,5,10,1,0.41,0.8,51,,,,,,,,,,,,,,,,,,,
5991,0,0.094,2.65,2.19,1.34,,0.32,-0.14,-0.2,4,11,2,0.41,0.8,51,,,,,,,,,,,,,,,,,,,
6001,0,0.0942,2.66,2.21,,,0.29,-0.12,-0.25,4,12,2,0.4,0.8,50,,,,,,,,,,,,,,,,,,,
6011,0,0.0943,2.67,2.22,1.35,,0.18,-0.09,-0.29,4,13,2,0.35,0.8,44,,0,0,,,,,,,,,,,,,,,,
6021,0,0.0945,2.71,2.25,,,0.13,-0.15,-0.25,4,13,2,0.32,0.8,40,,,,,,,,,,,,,,,,,,,
6031,0,0.0946,2.71,2.22,1.35,,0.12,-0.14,-0.22,3,14,3,0.28,0.8,35,,,,0.0,0.0,0.0,0.0,0,0,0.0,0,0.0,-1,0.0,0,0.0,0.0946,0.0,0.0
6041,0,0.0948,2.68,2.22,,,0.09,-0.14,-0.21,3,14,3,0.26,0.8,33,,,,,,,,,,,,,,,,,,,
6051,0,0.095,2.69,2.25,1.38,,0.03,-0.17,-0.16,2,14,3,0.24,0.8,29,,0,0,,,,,,,,,,,,,,,,
6061,0,0.0952,2.68,2.26,,,-0.04,-0.14,-0.13,2,13,3,0.19,0.8,24,,,,,,,,,,,,,,,,,,,
6071,0,0.0953,2.69,2.25,1.37,,-0.1,-0.12,-0.18,1,13,4,0.24,0.8,30,,,,,,,,,,,,,,,,,,,
6081,0,0.0955,2.68,2.25,,,-0.12,-0.12,-0.23,1,13,3,0.29,0.8,36,,,,,,,,,,,,,,,,,,,
6091,0,0.0956,2.63,2.25,1.38,,-0.12,-0.09,-0.24,0,12,4,0.28,0.8,35,,0,0,,,,,,,,,,,,,,,,
6101,0,0.0958,2.69,2.25,,,-0.18,-0.12,-0.19,-0,11,3,0.29,0.8,37,,,,,,,,,,,,,,,,,,,
6111,0,0.096,2.68,2.25,1.39,,-0.21,-0.15,-0.15,-1,11,4,0.3,0.8,38,,,,,,,,,,,,,,,,,,,
6121,0,0.0962,2.65,2.2,,,-0.19,-0.11,-0.15,-1,10,4,0.27,0.8,33,,,,,,,,,,,,,,,,,,,
6131,0,0.0963,2.68,2.25,1.39,,-0.23,-0.13,-0.15,-1,9,4,0.31,0.8,39,,0,0,0.0,0.0,0.0,0.0,0,0,0.0,0,0.0,-1,0.0,0,0.0,0.0963,0.0,0.0
6141,0,0.0965,2.66,2.24,,,-0.22,-0.08,-0.14,-1,8,4,0.27,0.8,34,,,,,,,,,,,,,,,,,,,
6151,0,0.0966,2.65,2.24,1.35,,-0.27,-0.06,-0.1,-2,7,4,0.29,0.8,37,,,,,,,,,,,,,,,,,,,
6161,0,0.0968,2.62,2.2,,,-0.3,-0.06,-0.07,-2,7,3,0.32,0.8,40,,,,,,,,,,,,,,,,,,,
6171,0,0.097,2.56,2.21,1.35,,-0.23,0.02,-0.07,-2,6,3,0.24,0.8,30,,0,0,,,,,,,,,,,,,,,,
6181,0,0.0972,2.58,2.23,,,-0.26,0.01,-0.07,-2,5,2,0.27,0.8,34,,,,,,,,,,,,,,,,,,,
6191,0,0.0973,2.55,2.21,1.38,,-0.24,0.03,-0.08,-2,5,2,0.26,0.8,32,,,,,,,,,,,,,,,,,,,
6201,0,0.0975,2.56,2.18,,,-0.28,0.04,-0.06,-2,4,1,0.29,0.8,36,,,,,,,,,,,,,,,,,,,
6211,0,0.0976,2.52,2.14,1.37,,-0.2,-0.08,-0.0,-2,3,2,0.22,0.8,28,,0,0,,,,,,,,,,,,,,,,
6221,0,0.0978,2.53,2.1,,,-0.08,-0.1,-0.03,-2,2,1,0.13,0.8,17,,,,,,,,,,,,,,,,,,,
6231,0,0.098,2.46,2.04,1.39,,-0.08,-0.19,0.03,-2,2,2,0.21,0.8,26,,,,0.0,0.0,0.0,0.0,0,0,0.0,0,0.0,-1,0.0,0,0.0,0.098,0.0,0.0
6241,0,0.0982,2.44,1.94,,,0.01,-0.22,0.06,-2,2,2,0.23,0.8,28,,,,,,,,,,,,,,,,,,,
6251,0,0.0983,2.35,1.88,1.36,,0.08,-0.25,0.13,-3,2,3,0.29,0.8,37,,0,0,,,,,,,,,,,,,,,,
6261,0,0.0985,2.31,1.83,,,0.21,-0.33,0.21,-3,3,5,0.44,0.8,55,,,,,,,,,,,,,,,,,,,
6271,0,0.0986,2.27,1.81,1.39,,0.33,-0.38,0.3,-3,4,6,0.58,0.8,73,,,,,,,,,,,,,,,,,,,
6281,0,0.0988,2.25,1.8,,,0.43,-0.37,0.33,-4,6,8,0.66,0.8,82,,,,,,,,,,,,,,,,,,,
6291,0,0.099,2.23,1.82,1.39,,0.53,-0.25,0.36,-4,8,9,0.69,0.8,86,,0,0,,,,,,,,,,,,,,,,
6301,0,0.0992,2.25,1.88,,,0.5,-0.14,0.44,-4,11,10,0.68,0.8,85,,,,,,,,,,,,,,,,,,,
6311,0,0.0993,2.3,1.94,1.39,,0.46,-0.01,0.51,-4,15,8,0.69,0.8,86,,,,,,,,,,,,,,,,,,,
6321,0,0.0995,2.35,1.98,,,0.49,0.07,0.5,-4,18,7,0.7,0.8,88,,,,,,,,,,,,,,,,,,,
6331,0,0.0996,2.41,2.03,1.37,12.7,0.47,0.19,0.47,-4,22,5,0.69,0.8,87,0,0,0,0.0,0.0,0.0,0.0,0,0,0.0,0,0.0,-1,0.0,0,0.0,0.0996,0.0,0.0
6341,0,0.0998,2.52,2.1,,,0.42,0.18,0.43,-3,25,3,0.63,0.8,79,,,,,,,,,,,,,,,,,,,
6351,0,0.1,2.66,2.17,1.39,,0.38,0.2,0.45,-3,28,1,0.62,0.8,78,,,,,,,,,,,,,,,,,,,
6361,0,0.1001,2.73,2.18,,,0.38,0.16,0.34,-3,30,-1,0.53,0.8,67,,,,,,,,,,,,,,,,,,,
6371,0,0.1003,2.76,2.27,1.38,,0.28,0.04,0.18,-2,32,-2,0.34,0.8,42,,0,0,,,,,,,,,,,,,,,,
6381,0,0.1005,2.79,2.34,,,0.2,-0.08,0.03,-2,33,-2,0.21,0.8,27,,,,,,,,,,,,,,,,,,,
6391,0,0.1006,2.78,2.39,1.39,,0.07,-0.16,0.0,-2,35,-2,0.17,0.8,22,,,,,,,,,,,,,,,,,,,
6401,0,0.1008,2.77,2.41,,,0.08,-0.1,-0.03,-2,36,-1,0.13,0.8,16,,,,,,,,,,,,,,,,,,,
6411,0,0.101,2.73,2.36,1.34,,0.06,0.01,-0.13,-2,37,-1,0.14,0.8,18,,0,0,,,,,,,,,,,,,,,,
6421,0,0.1012,2.67,2.33,,,0.06,-0.02,-0.12,-2,37,-1,0.13,0.8,16,,,,,,,,,,,,,,,,,,,
6431,0,0.1013,2.68,2.36,1.39,,-0.01,0.02,-0.11,-1,38,-1,0.11,0.8,14,,,,0.0,0.0,0.0,0.0,0,0,0.0,0,0.0,-1,0.0,0,0.0,0.1013,0.0,0.0
6441,0,0.1015,2.66,2.3,,,0.0,-0.01,-0.09,-1,40,-2,0.09,0.8,11,,,,,,,,,,,,,,,,,,,
6451,0,0.1016,2.67,2.29,1.37,,0.05,-0.02,-0.08,-1,41,-2,0.1,0.8,12,,0,0,,,,,,,,,,,,,,,,
6461,0,0.1018,2.66,2.26,,,0.1,0.0,-0.1,-0,41,-3,0.14,0.8,18,,,,,,,,,,,,,,,,,,,
6471,0,0.102,2.67,2.26,1.39,,0.07,-0.01,-0.13,0,42,-3,0.15,0.8,19,,,,,,,,,,,,,,,,,,,
6481,0,0.1022,2.62,2.23,,,0.05,-0.03,-0.16,0,43,-3,0.16,0.8,21,,,,,,,,,,,,,,,,,,,
6491,0,0.1023,2.65,2.23,1.38,,0.02,-0.01,-0.2,0,43,-3,0.2,0.8,26,,0,0,,,,,,,,,,,,,,,,
6501,0,0.1025,2.68,2.29,,,-0.02,-0.05,-0.27,0,44,-3,0.27,0.8,34,,,,,,,,,,,,,,,,,,,
6511,0,0.1026,2.7,2.31,1.38,,-0.06,-0.1,-0.31,-0,44,-2,0.33,0.8,41,,,,,,,,,,,,,,,,,,,
6521,0,0.1028,2.65,2.28,,,-0.15,-0.16,-0.25,-0,45,-1,0.33,0.8,42,,,,,,,,,,,,,,,,,,,
6531,0,0.103,2.7,2.36,1.38,,-0.24,-0.27,-0.27,-1,44,0,0.45,0.8,56,,0,0,0.0,0.0,0.0,0.0,0,0,0.0,0,0.0,-1,0.0,0,0.0,0.103,0.0,0.0
6541,0,0.1032,2.65,2.33,,,-0.35,-0.25,-0.35,-1,42,3,0.55,0.8,69,,,,,,,,,,,,,,,,,,,
6551,0,0.1033,2.68,2.36,1.38,,-0.46,-0.12,-0.34,-2,40,4,0.58,0.8,73,,,,,,,,,,,,,,,,,,,
6561,0,0.1035,2.66,2.35,,,-0.55,-0.17,-0.33,-2,37,5,0.66,0.8,83,,,,,,,,,,,,,,,,,,,
6571,0,0.1036,2.67,2.33,1.38,,-0.6,-0.11,-0.36,-2,34,6,0.71,0.8,88,,0,0,,,,,,,,,,,,,,,,
6581,0,0.1038,2.63,2.28,,,-0.65,-0.08,-0.37,-3,31,7,0.75,0.8,94,,,,,,,,,,,,,,,,,,,
6591,0,0.104,2.67,2.25,1.35,,-0.69,-0.1,-0.34,-3,27,8,0.77,0.8,97,,,,,,,,,,,,,,,,,,,
6601,0,0.1042,2.68,2.25,,,-0.68,0.01,-0.27,-3,22,8,0.73,0.8,92,,,,,,,,,,,,,,,,,,,
6611,0,0.1043,2.7,2.25,1.38,,-0.66,0.14,-0.28,-3,18,8,0.73,0.8,92,,0,0,,,,,,,,,,,,,,,,
6621,0,0.1045,2.69,2.23,,,-0.63,0.08,-0.34,-3,15,8,0.72,0.8,90,,,,,,,,,,,,,,,,,,,
6631,0,0.1046,2.76,2.24,1.38,,-0.64,0.1,-0.38,-4,11,7,0.75,0.8,94,,,,0.0,0.0,0.0,0.0,0,0,0.0,0,0.0,-1,0.0,0,0.0,0.1046,0.0,0.0
6641,0,0.1048,2.75,2.25,,,-0.61,0.11,-0.4,-4,8,7,0.74,0.8,93,,,,,,,,,,,,,,,,,,,
6651,0,0.105,2.76,2.28,1.38,,-0.6,0.03,-0.41,-5,5,7,0.72,0.8,91,,0,0,,,,,,,,,,,,,,,,
6661,0,0.1052,2.74,2.29,,,-0.57,0.07,-0.5,-6,2,8,0.76,0.8,95,,,,,,,,,,,,,,,,,,,
6671,0,0.1053,2.71,2.29,1.32,,-0.57,0.2,-0.5,-7,-1,8,0.78,0.8,98,,,,,,,,,,,,,,,,,,,
6681,0,0.1055,2.69,2.3,,,-0.54,0.2,-0.47,-7,-5,8,0.74,0.8,93,,,,,,,,,,,,,,,,,,,
6691,0,0.1056,2.69,2.33,1.34,,-0.54,0.21,-0.53,-8,-8,7,0.79,0.8,99,,0,0,,,,,,,,,,,,,,,,
6701,0,0.1058,2.69,2.29,,,-0.5,0.19,-0.58,-9,-11,6,0.79,0.8,99,,,,,,,,,,,,,,,,,,,
6711,0,0.106,2.71,2.32,1.37,,-0.47,0.14,-0.56,-9,-14,6,0.75,0.8,93,,,,,,,,,,,,,,,,,,,
6721,0,0.1062,2.71,2.33,,,-0.47,0.11,-0.56,-10,-17,5,0.74,0.8,93,,,,,,,,,,,,,,,,,,,
6731,0,0.1063,2.67,2.28,1.35,,-0.42,0.11,-0.56,-10,-20,5,0.71,0.8,89,,0,0,0.0,0.0,0.0,0.0,0,0,0.0,0,0.0,-1,0.0,0,0.0,0.1063,0.0,0.0
6741,0,0.1065,2.71,2.31,,,-0.36,0.1,-0.59,-11,-23,5,0.7,0.8,88,,,,,,,,,,,,,,,,,,,
6751,0,0.1066,2.72,2.31,1.39,,-0.38,0.13,-0.61,-11,-25,5,0.73,0.8,91,,,,,,,,,,,,,,,,,,,
6761,0,0.1068,2.7,2.26,,,-0.34,0.11,-0.6,-12,-28,5,0.7,0.8,87,,,,,,,,,,,,,,,,,,,
6771,0,0.107,2.69,2.3,1.36,,-0.32,0.09,-0.66,-12,-30,5,0.74,0.8,93,,0,0,,,,,,,,,,,,,,,,
6781,0,0.1072,2.73,2.31,,,-0.31,0.11,-0.7,-13,-32,4,0.78,0.8,97,,,,,,,,,,,,,,,,,,,
6791,0,0.1073,2.74,2.31,1.37,,-0.29,0.09,-0.68,-13,-34,4,0.74,0.8,93,,,,,,,,,,,,,,,,,,,
6801,0,0.1075,2.75,2.33,,,-0.29,0.08,-0.73,-14,-36,4,0.79,0.8,99,,,,,,,,,,,,,,,,,,,
6811,0,0.1076,2.74,2.33,1.38,,-0.3,0.07,-0.78,-15,-38,4,0.84,0.84,100,,0,0,,,,,,,,,,,,,,,,
6821,0,0.1078,2.7,2.3,,,-0.29,0.09,-0.78,-15,-40,4,0.84,0.84,100,,,,,,,,,,,,,,,,,,,
6831,0,0.108,2.72,2.33,1.38,,-0.27,0.18,-0.79,-16,-42,4,0.86,0.86,100,,,,0.0,0.0,0.0,0.0,0,0,0.0,0,0.0,-1,0.0,0,0.0,0.108,0.0,0.0
6841,0,0.1082,2.74,2.31,,,-0.27,0.21,-0.82,-16,-44,4,0.89,0.89,100,,,,,,,,,,,,,,,,,,,
6851,0,0.1083,2.73,2.31,1.38,,-0.25,0.17,-0.81,-17,-45,3,0.87,0.89,98,,0,0,,,,,,,,,,,,,,,,
6861,0,0.1085,2.71,2.31,,,-0.23,0.15,-0.85,-17,-47,3,0.89,0.89,100,,,,,,,,,,,,,,,,,,,
6871,0,0.1086,2.71,2.29,1.34,,-0.24,0.13,-0.83,-18,-48,3,0.88,0.89,98,,,,,,,,,,,,,,,,,,,
6881,0,0.1088,2.73,2.32,,,-0.21,0.14,-0.83,-19,-50,3,0.87,0.89,97,,,,,,,,,,,,,,,,,,,
6891,0,0.109,2.72,2.3,1.38,,-0.23,0.18,-0.88,-19,-52,3,0.92,0.92,100,,0,0,,,,,,,,,,,,,,,,
6901,0,0.1092,2.71,2.29,,,-0.22,0.19,-0.86,-20,-53,2,0.91,0.92,98,,,,,,,,,,,,,,,,,,,
6911,0,0.1093,2.68,2.3,1.38,,-0.17,0.19,-0.86,-20,-54,2,0.9,0.92,97,,,,,,,,,,,,,,,,,,,
6921,0,0.1095,2.67,2.27,,,-0.1,0.27,-0.83,-21,-55,1,0.88,0.92,95,,,,,,,,,,,,,,,,,,,
6931,0,0.1096,2.61,2.21,1.38,,0.03,0.19,-0.77,-21,-55,-0,0.79,0.92,86,,0,0,0.0,0.0,0.0,0.0,0,0,0.0,0,0.0,-1,0.0,0,0.0,0.1096,0.0,0.0
6941,0,0.1098,2.51,2.11,,,0.16,0.11,-0.7,-21,-55,-1,0.73,0.92,79,,,,,,,,,,,,,,,,,,,
6951,0,0.11,2.39,2.03,1.38,,0.23,0.05,-0.6,-22,-55,-2,0.65,0.92,70,,,,,,,,,,,,,,,,,,,
6961,0,0.1102,2.3,1.95,,,0.35,0.11,-0.49,-22,-53,-2,0.61,0.92,67,,,,,,,,,,,,,,,,,,,
6971,0,0.1103,2.28,1.92,1.38,,0.47,0.16,-0.43,-22,-52,-3,0.65,0.92,71,,0,0,,,,,,,,,,,,,,,,
6981,0,0.1105,2.36,1.91,,,0.57,0.06,-0.44,-21,-50,-4,0.72,0.92,78,,,,,,,,,,,,,,,,,,,
6991,0,0.1106,2.36,1.87,1.37,,0.61,0.08,-0.36,-21,-47,-5,0.72,0.92,78,,,,,,,,,,,,,,,,,,,
7001,0,0.1108,2.4,1.84,,,0.67,-0.04,-0.49,-21,-43,-6,0.83,0.92,90,,,,,,,,,,,,,,,,,,,
7011,0,0.111,2.43,1.82,1.34,,0.78,-0.1,-0.38,-21,-39,-5,0.87,0.92,95,,0,0,,,,,,,,,,,,,,,,
7021,0,0.1112,2.43,1.81,,,0.88,-0.22,-0.28,-21,-35,-6,0.95,0.95,100,,,,,,,,,,,,,,,,,,,
