"Interval"|"ms"|0|0|1,"Utc"|"ms"|0|0|1,"ElapsedTime"|"Min"|0.0|0.0|10,"Analog1"|"Volts"|0.0|5.0|100,"Analog3"|"Volts"|0.0|5.0|100,"Analog4"|"Volts"|0.0|5.0|50,"Battery"|"Volts"|0.0|20.0|1,"AccelX"|"G"|-3.0|3.0|100,"AccelY"|"G"|-3.0|3.0|100,"AccelZ"|"G"|-3.0|3.0|100,"Yaw"|"Deg/Sec"|-120|120|100,"Pitch"|"Deg/Sec"|-120|120|100,"Roll"|"Deg/Sec"|-120|120|100,"Gsum"|"G"|0.0|3.0|100,"GsumMax"|"G"|0.0|3.0|100,"GsumPct"|"%"|0|100|100,"EngineTemp"|"C"|0|300|1,"RPM"|""|0|10000|25,"TPS"|"%"|0|100|25,"Latitude"|"Degrees"|-180.0|180.0|10,"Longitude"|"Degrees"|-180.0|180.0|10,"Speed"|"mph"|0.0|150.0|10,"Altitude"|"ft"|0.0|4000.0|10,"GPSSats"|""|0|20|10,"GPSQual"|""|0|5|10,"GPSDOP"|""|0.0|20.0|10,"LapCount"|""|0|0|10,"LapTime"|"Min"|0.0|0.0|10,"Sector"|""|0|0|10,"SectorTime"|"Min"|0.0|0.0|10,"CurrentLap"|""|0|0|10,"Distance"|"mi"|0.0|0.0|10,"SessionTime"|"Min"|0.0|0.0|10,"LapDelta"|"s"|0.0|0.0|10,"BestLap"|"Min"|0.0|0.0|10
448,0,0.0018,2.55,2.16,1.46,,0.11,-0.02,-0.09,0,-0,0,0.14,0.39,36,,0,0,,,,,,,,,,,,,,,,
368,0,0.0004,2.56,2.15,1.44,,0.29,-0.04,0.04,0,-0,1,0.3,0.39,77,,0,0,,,,,,,,,,,,,,,,
378,0,0.0006,2.55,2.16,,,0.2,-0.01,-0.01,0,-1,0,0.2,0.39,52,,,,,,,,,,,,,,,,,,,
388,0,0.0008,2.58,2.18,1.47,,0.2,-0.05,-0.03,0,-0,1,0.21,0.39,53,,,,,,,,,,,,,,,,,,,
398,0,0.0009,2.59,2.18,,,0.23,-0.03,-0.07,0,-0,1,0.24,0.39,62,,,,,,,,,,,,,,,,,,,
408,0,0.0011,2.56,2.17,1.47,,0.18,-0.02,-0.05,0,-0,0,0.19,0.39,49,,0,0,,,,,,,,,,,,,,,,
418,0,0.0012,2.55,2.14,,,0.16,-0.02,0.0,0,-0,0,0.16,0.39,41,,,,,,,,,,,,,,,,,,,
428,0,0.0014,2.59,2.19,1.48,,0.15,-0.02,-0.04,0,-0,0,0.15,0.39,40,,,,0.0,0.0,0.0,0.0,0,0,0.0,0,0.0,-1,0.0,0,0.0,0.0014,0.0,0.0
438,0,0.0016,2.58,2.17,,,0.18,-0.03,-0.04,0,-0,0,0.19,0.39,49,,,,,,,,,,,,,,,,,,,
448,0,0.0018,2.55,2.16,1.46,,0.11,-0.02,-0.09,0,-0,0,0.14,0.39,36,,0,0,,,,,,,,,,,,,,,,
458,0,0.0019,2.58,2.19,,,0.13,-0.04,-0.04,0,-0,0,0.14,0.39,37,,,,,,,,,,,,,,,,,,,
468,0,0.0021,2.59,2.19,1.48,,0.14,-0.03,-0.05,0,-0,0,0.15,0.39,39,,,,,,,,,,,,,,,,,,,
478,0,0.0022,2.58,2.19,,,0.13,-0.03,-0.04,0,-0,0,0.14,0.39,36,,,,,,,,,,,,,,,,,,,
488,0,0.0024,2.58,2.19,1.48,,0.09,-0.03,-0.03,0,-0,0,0.1,0.39,27,,0,0,,,,,,,,,,,,,,,,
498,0,0.0026,2.52,2.15,,,0.1,-0.04,-0.05,0,0,0,0.12,0.39,32,,,,,,,,,,,,,,,,,,,
508,0,0.0028,2.59,2.19,1.48,,0.13,-0.04,-0.04,0,-0,0,0.14,0.39,36,,,,,,,,,,,,,,,,,,,
518,0,0.0029,2.59,2.18,,,0.08,-0.04,-0.06,0,0,0,0.1,0.39,27,,,,,,,,,,,,,,,,,,,
528,0,0.0031,2.59,2.19,1.48,,0.1,-0.05,-0.03,0,0,0,0.12,0.39,30,,0,0,0.0,0.0,0.0,0.0,0,0,0.0,0,0.0,-1,0.0,0,0.0,0.0031,0.0,0.0
538,0,0.0032,2.59,2.19,,,0.09,-0.04,-0.04,0,0,0,0.1,0.39,26,,,,,,,,,,,,,,,,,,,
548,0,0.0034,2.59,2.19,1.48,,0.1,-0.04,-0.02,0,-0,0,0.11,0.39,28,,,,,,,,,,,,,,,,,,,
558,0,0.0036,2.59,2.16,,,0.08,-0.04,-0.02,0,-0,0,0.09,0.39,22,,,,,,,,,,,,,,,,,,,
568,0,0.0038,2.56,2.18,1.47,,0.08,-0.05,-0.02,0,0,0,0.1,0.39,26,,0,0,,,,,,,,,,,,,,,,
578,0,0.0039,2.59,2.19,,,0.09,-0.04,-0.03,0,0,0,0.11,0.39,27,,,,,,,,,,,,,,,,,,,
588,0,0.0041,2.59,2.19,1.48,,0.07,-0.04,-0.02,0,0,0,0.09,0.39,22,,,,,,,,,,,,,,,,,,,
598,0,0.0043,2.59,2.19,,,0.08,-0.04,-0.01,0,0,0,0.09,0.39,24,,,,,,,,,,,,,,,,,,,
608,0,0.0044,2.57,2.19,1.48,,0.07,-0.04,-0.02,0,0,0,0.08,0.39,22,,0,0,,,,,,,,,,,,,,,,
618,0,0.0046,2.56,2.17,,,0.08,-0.05,-0.01,0,0,0,0.1,0.39,25,,,,,,,,,,,,,,,,,,,
628,0,0.0048,2.58,2.19,1.48,,0.07,-0.04,-0.02,0,-0,0,0.08,0.39,22,,,,0.0,0.0,0.0,0.0,0,0,0.0,0,0.0,-1,0.0,0,0.0,0.0048,0.0,0.0
638,0,0.0049,2.55,2.18,,,0.08,-0.04,-0.02,0,0,0,0.09,0.39,24,,,,,,,,,,,,,,,,,,,
648,0,0.0051,2.59,2.2,1.48,,0.07,-0.04,-0.03,0,0,0,0.08,0.39,22,,0,0,,,,,,,,,,,,,,,,
658,0,0.0052,2.56,2.17,,,0.08,-0.04,-0.01,0,-0,0,0.09,0.39,23,,,,,,,,,,,,,,,,,,,
668,0,0.0054,2.55,2.16,1.45,,0.06,-0.04,-0.02,0,-0,0,0.07,0.39,19,,,,,,,,,,,,,,,,,,,
678,0,0.0056,2.58,2.18,,,0.07,-0.05,-0.01,0,-0,0,0.08,0.39,22,,,,,,,,,,,,,,,,,,,
688,0,0.0058,2.59,2.19,1.47,,0.08,-0.04,-0.03,0,-0,0,0.09,0.39,24,,0,0,,,,,,,,,,,,,,,,
698,0,0.0059,2.55,2.18,,,0.07,-0.04,-0.03,0,-0,0,0.09,0.39,22,,,,,,,,,,,,,,,,,,,
708,0,0.0061,2.59,2.2,1.48,,0.06,-0.04,-0.01,0,-0,0,0.07,0.39,19,,,,,,,,,,,,,,,,,,,
718,0,0.0062,2.55,2.16,,,0.07,-0.04,-0.03,0,-0,0,0.08,0.39,22,,,,,,,,,,,,,,,,,,,
728,0,0.0064,2.58,2.19,1.48,,0.08,-0.04,-0.03,0,-0,0,0.1,0.39,25,,0,0,0.0,0.0,0.0,0.0,0,0,0.0,0,0.0,-1,0.0,0,0.0,0.0064,0.0,0.0
738,0,0.0066,2.52,2.11,,,0.05,-0.04,-0.05,0,-0,0,0.08,0.39,20,,,,,,,,,,,,,,,,,,,
748,0,0.0068,2.59,2.19,1.48,,0.07,-0.04,-0.03,0,-0,0,0.08,0.39,22,,,,,,,,,,,,,,,,,,,
758,0,0.0069,2.59,2.19,,,0.07,-0.04,-0.03,0,-0,0,0.08,0.39,21,,,,,,,,,,,,,,,,,,,
768,0,0.0071,2.59,2.19,1.48,,0.07,-0.04,-0.02,0,-0,0,0.09,0.39,22,,0,0,,,,,,,,,,,,,,,,
778,0,0.0072,2.58,2.19,,,0.05,-0.04,-0.02,0,-0,0,0.07,0.39,18,,,,,,,,,,,,,,,,,,,
788,0,0.0074,2.57,2.16,1.45,,0.07,-0.04,-0.01,0,-0,0,0.08,0.39,22,,,,,,,,,,,,,,,,,,,
798,0,0.0076,2.56,2.17,,,0.08,-0.04,-0.0,0,-0,0,0.09,0.39,22,,,,,,,,,,,,,,,,,,,
808,0,0.0078,2.57,2.18,1.47,,0.06,-0.04,-0.0,0,0,0,0.07,0.39,19,,0,0,,,,,,,,,,,,,,,,
818,0,0.0079,2.59,2.19,,,0.07,-0.05,-0.01,0,0,0,0.08,0.39,22,,,,,,,,,,,,,,,,,,,
828,0,0.0081,2.59,2.16,1.46,,0.06,-0.04,-0.02,0,0,0,0.07,0.39,19,,,,0.0,0.0,0.0,0.0,0,0,0.0,0,0.0,-1,0.0,0,0.0,0.0081,0.0,0.0
838,0,0.0082,2.59,2.19,,,0.07,-0.04,-0.0,0,0,0,0.08,0.39,22,,,,,,,,,,,,,,,,,,,
848,0,0.0084,2.58,2.19,1.48,,0.05,-0.04,0.0,0,0,0,0.07,0.39,17,,0,0,,,,,,,,,,,,,,,,
858,0,0.0086,2.58,2.18,,,0.07,-0.05,0.0,0,0,0,0.08,0.39,21,,,,,,,,,,,,,,,,,,,
868,0,0.0088,2.55,2.17,1.46,,0.06,-0.04,-0.01,0,-0,0,0.07,0.39,19,,,,,,,,,,,,,,,,,,,
878,0,0.0089,2.58,2.19,,,0.06,-0.04,0.01,0,-0,0,0.07,0.39,19,,,,,,,,,,,,,,,,,,,
888,0,0.0091,2.56,2.15,1.47,,0.06,-0.04,0.0,0,-0,0,0.07,0.39,18,,0,0,,,,,,,,,,,,,,,,
898,0,0.0092,2.58,2.18,,,0.06,-0.04,-0.0,0,-0,0,0.07,0.39,19,,,,,,,,,,,,,,,,,,,
908,0,0.0094,2.57,2.17,1.46,,0.08,-0.04,-0.02,0,-0,1,0.09,0.39,23,,,,,,,,,,,,,,,,,,,
918,0,0.0096,2.57,2.18,,,0.07,-0.03,-0.02,0,-0,0,0.08,0.39,20,,,,,,,,,,,,,,,,,,,
928,0,0.0098,2.59,2.18,1.48,,0.07,-0.03,0.0,0,-0,0,0.08,0.39,20,,0,0,0.0,0.0,0.0,0.0,0,0,0.0,0,0.0,-1,0.0,0,0.0,0.0098,0.0,0.0
938,0,0.0099,2.58,2.17,,,0.07,-0.03,-0.0,0,-0,0,0.07,0.39,19,,,,,,,,,,,,,,,,,,,
948,0,0.0101,2.58,2.19,1.48,,0.08,-0.04,0.01,0,-0,0,0.09,0.39,23,,,,,,,,,,,,,,,,,,,
958,0,0.0102,2.55,2.18,,,0.05,-0.03,-0.01,0,-0,0,0.06,0.39,16,,,,,,,,,,,,,,,,,,,
968,0,0.0104,2.58,2.18,1.48,,0.07,-0.04,-0.01,0,-0,0,0.08,0.39,20,,0,0,,,,,,,,,,,,,,,,
978,0,0.0106,2.55,2.16,,,0.07,-0.03,-0.01,0,-0,0,0.08,0.39,20,,,,,,,,,,,,,,,,,,,
988,0,0.0108,2.59,2.18,1.48,,0.07,-0.03,-0.0,0,-0,0,0.07,0.39,19,,,,,,,,,,,,,,,,,,,
998,0,0.0109,2.55,2.17,,,0.05,-0.03,0.0,0,-0,0,0.06,0.39,16,,,,,,,,,,,,,,,,,,,
1008,0,0.0111,2.58,2.19,1.48,,0.06,-0.04,-0.01,0,-0,0,0.07,0.39,18,,0,0,,,,,,,,,,,,,,,,
1018,0,0.0113,2.56,2.15,,,0.07,-0.04,-0.01,0,-0,0,0.08,0.39,21,,,,,,,,,,,,,,,,,,,
1028,0,0.0114,2.59,2.18,1.47,,0.04,-0.03,-0.02,0,-0,0,0.06,0.39,15,,,,0.0,0.0,0.0,0.0,0,0,0.0,0,0.0,-1,0.0,0,0.0,0.0114,0.0,0.0
1038,0,0.0116,2.55,2.18,,,0.06,-0.04,-0.01,0,-0,0,0.07,0.39,18,,,,,,,,,,,,,,,,,,,
1048,0,0.0117,2.59,2.19,1.48,,0.05,-0.03,-0.01,0,-0,0,0.06,0.39,15,,0,0,,,,,,,,,,,,,,,,
1058,0,0.0119,2.59,2.19,,,0.06,-0.04,0.01,-0,-0,0,0.07,0.39,18,,,,,,,,,,,,,,,,,,,
1068,0,0.0121,2.6,2.2,1.48,,0.04,-0.04,0.0,0,-0,0,0.06,0.39,14,,,,,,,,,,,,,,,,,,,
1078,0,0.0122,2.59,2.19,,,0.06,-0.04,-0.01,0,-0,0,0.07,0.39,19,,,,,,,,,,,,,,,,,,,
1088,0,0.0124,2.56,2.17,1.46,,0.06,-0.04,-0.0,0,-0,0,0.07,0.39,18,,0,0,,,,,,,,,,,,,,,,
1098,0,0.0126,2.55,2.18,,,0.04,-0.04,0.01,-0,-0,0,0.06,0.39,16,,,,,,,,,,,,,,,,,,,
1108,0,0.0128,2.57,2.18,1.47,,0.05,-0.04,0.01,0,-0,0,0.07,0.39,18,,,,,,,,,,,,,,,,,,,
1118,0,0.0129,2.56,2.18,,,0.04,-0.04,-0.0,0,-0,0,0.06,0.39,15,,,,,,,,,,,,,,,,,,,
1128,0,0.0131,2.56,2.16,1.45,,0.06,-0.04,0.01,0,-0,0,0.08,0.39,19,,0,0,0.0,0.0,0.0,0.0,0,0,0.0,0,0.0,-1,0.0,0,0.0,0.0131,0.0,0.0
1138,0,0.0132,2.57,2.18,,,0.04,-0.04,-0.0,0,-0,0,0.06,0.39,15,,,,,,,,,,,,,,,,,,,
1148,0,0.0134,2.59,2.19,1.48,,0.06,-0.04,0.0,0,0,1,0.07,0.39,19,,,,,,,,,,,,,,,,,,,
1158,0,0.0136,2.59,2.19,,,0.05,-0.04,-0.01,0,0,0,0.07,0.39,17,,,,,,,,,,,,,,,,,,,
1168,0,0.0138,2.59,2.19,1.48,,0.06,-0.04,0.01,0,-0,0,0.07,0.39,19,,0,0,,,,,,,,,,,,,,,,
1178,0,0.0139,2.59,2.19,,,0.05,-0.04,0.0,0,-0,1,0.06,0.39,16,,,,,,,,,,,,,,,,,,,
1188,0,0.0141,2.59,2.2,1.48,,0.05,-0.05,-0.01,0,0,1,0.07,0.39,18,,,,,,,,,,,,,,,,,,,
1198,0,0.0142,2.59,2.19,,,0.07,-0.04,-0.01,0,0,1,0.08,0.39,21,,,,,,,,,,,,,,,,,,,
1208,0,0.0144,2.59,2.2,1.48,,0.05,-0.04,-0.01,0,-0,0,0.07,0.39,18,,0,0,,,,,,,,,,,,,,,,
1218,0,0.0146,2.59,2.19,,,0.06,-0.04,-0.0,0,0,0,0.07,0.39,18,,,,,,,,,,,,,,,,,,,
1228,0,0.0148,2.58,2.16,1.45,,0.05,-0.04,-0.01,0,0,0,0.07,0.39,17,,,,0.0,0.0,0.0,0.0,0,0,0.0,0,0.0,-1,0.0,0,0.0,0.0148,0.0,0.0
1238,0,0.0149,2.59,2.18,,,0.07,-0.04,-0.0,0,-0,0,0.08,0.39,21,,,,,,,,,,,,,,,,,,,
1248,0,0.0151,2.56,2.18,1.47,,0.05,-0.03,-0.02,0,-0,0,0.06,0.39,15,,0,0,,,,,,,,,,,,,,,,
1258,0,0.0152,2.58,2.18,,,0.06,-0.04,-0.0,0,-0,0,0.07,0.39,19,,,,,,,,,,,,,,,,,,,
1268,0,0.0154,2.59,2.19,1.47,,0.07,-0.04,-0.01,0,-0,0,0.08,0.39,20,,,,,,,,,,,,,,,,,,,
1278,0,0.0156,2.59,2.18,,,0.06,-0.04,-0.01,0,-0,0,0.07,0.39,19,,,,,,,,,,,,,,,,,,,
1288,0,0.0158,2.59,2.19,1.48,,0.05,-0.04,-0.01,0,0,0,0.06,0.39,16,,0,0,,,,,,,,,,,,,,,,
1298,0,0.0159,2.59,2.16,,,0.06,-0.04,-0.01,0,0,0,0.07,0.39,18,,,,,,,,,,,,,,,,,,,
1308,0,0.0161,2.59,2.19,1.48,,0.07,-0.04,-0.01,0,0,0,0.08,0.39,21,,,,,,,,,,,,,,,,,,,
1318,0,0.0162,2.59,2.19,,,0.04,-0.04,-0.02,0,0,0,0.06,0.39,15,,,,,,,,,,,,,,,,,,,
1328,0,0.0164,2.55,2.16,1.46,12.89,0.06,-0.04,-0.01,0,0,0,0.07,0.39,19,0,0,0,0.0,0.0,0.0,0.0,0,0,0.0,0,0.0,-1,0.0,0,0.0,0.0164,0.0,0.0
1338,0,0.0166,2.56,2.18,,,0.05,-0.04,-0.01,0,0,0,0.07,0.39,17,,,,,,,,,,,,,,,,,,,
1348,0,0.0168,2.57,2.17,1.45,,0.06,-0.04,0.0,0,-0,0,0.07,0.39,19,,,,,,,,,,,,,,,,,,,
1358,0,0.0169,2.57,2.18,,,0.04,-0.04,-0.0,0,-0,0,0.06,0.39,15,,,,,,,,,,,,,,,,,,,
1368,0,0.0171,2.58,2.17,1.48,,0.06,-0.04,-0.0,0,0,0,0.08,0.39,19,,0,0,,,,,,,,,,,,,,,,
1378,0,0.0172,2.55,2.16,,,0.06,-0.04,0.01,0,0,0,0.07,0.39,18,,,,,,,,,,,,,,,,,,,
1388,0,0.0174,2.59,2.19,1.48,,0.04,-0.04,0.02,0,0,0,0.06,0.39,16,,,,,,,,,,,,,,,,,,,
1398,0,0.0176,2.58,2.18,,,0.05,-0.04,0.02,0,0,0,0.07,0.39,18,,,,,,,,,,,,,,,,,,,
1408,0,0.0178,2.56,2.15,1.44,,0.04,-0.04,0.0,0,0,0,0.06,0.39,15,,0,0,,,,,,,,,,,,,,,,
1418,0,0.0179,2.59,2.19,,,0.06,-0.04,0.01,0,0,0,0.07,0.39,18,,,,,,,,,,,,,,,,,,,
1428,0,0.0181,2.58,2.19,1.48,,0.04,-0.04,0.0,0,0,0,0.06,0.39,15,,,,0.0,0.0,0.0,0.0,0,0,0.0,0,0.0,-1,0.0,0,0.0,0.0181,0.0,0.0
1438,0,0.0182,2.56,2.16,,,0.05,-0.04,0.01,0,0,0,0.07,0.39,18,,,,,,,,,,,,,,,,,,,
1448,0,0.0184,2.55,2.17,1.46,,0.05,-0.04,-0.01,0,0,0,0.06,0.39,17,,0,0,,,,,,,,,,,,,,,,
1458,0,0.0186,2.56,2.17,,,0.05,-0.04,0.01,0,-0,0,0.07,0.39,17,,,,,,,,,,,,,,,,,,,
1468,0,0.0188,2.55,2.17,1.46,,0.05,-0.04,0.01,0,-0,0,0.06,0.39,15,,,,,,,,,,,,,,,,,,,
1478,0,0.0189,2.56,2.17,,,0.05,-0.04,-0.0,0,-0,0,0.07,0.39,17,,,,,,,,,,,,,,,,,,,
1488,0,0.0191,2.55,2.15,1.47,,0.07,-0.04,-0.01,0,-0,1,0.08,0.39,21,,0,0,,,,,,,,,,,,,,,,
1498,0,0.0192,2.58,2.18,,,0.06,-0.03,-0.01,0,-0,0,0.07,0.39,17,,,,,,,,,,,,,,,,,,,
1508,0,0.0194,2.59,2.16,1.46,,0.05,-0.03,0.01,0,0,0,0.06,0.39,16,,,,,,,,,,,,,,,,,,,
1518,0,0.0196,2.56,2.17,,,0.05,-0.03,-0.0,0,0,0,0.06,0.39,17,,,,,,,,,,,,,,,,,,,
1528,0,0.0198,2.56,2.17,1.47,,0.07,-0.04,-0.0,0,-0,0,0.08,0.39,21,,0,0,0.0,0.0,0.0,0.0,0,0,0.0,0,0.0,-1,0.0,0,0.0,0.0198,0.0,0.0
1538,0,0.0199,2.56,2.17,,,0.04,-0.03,-0.02,0,-0,0,0.06,0.39,15,,,,,,,,,,,,,,,,,,,
1548,0,0.0201,2.55,2.15,1.45,,0.05,-0.04,-0.0,0,-0,0,0.07,0.39,18,,,,,,,,,,,,,,,,,,,
1558,0,0.0202,2.58,2.18,,,0.06,-0.03,-0.01,0,-0,0,0.07,0.39,18,,,,,,,,,,,,,,,,,,,
1568,0,0.0204,2.59,2.16,1.46,,0.06,-0.04,-0.0,0,-0,0,0.07,0.39,18,,0,0,,,,,,,,,,,,,,,,
1578,0,0.0206,2.58,2.18,,,0.05,-0.04,0.0,0,-0,0,0.06,0.39,15,,,,,,,,,,,,,,,,,,,
1588,0,0.0207,2.57,2.18,1.48,,0.06,-0.04,-0.01,0,0,0,0.07,0.39,18,,,,,,,,,,,,,,,,,,,
1598,0,0.0209,2.56,2.15,,,0.07,-0.04,-0.0,0,-0,0,0.08,0.39,21,,,,,,,,,,,,,,,,,,,
1608,0,0.0211,2.58,2.19,1.48,,0.05,-0.04,-0.01,0,-0,1,0.06,0.39,16,,0,0,,,,,,,,,,,,,,,,
1618,0,0.0212,2.53,2.14,,,0.06,-0.04,-0.0,0,0,0,0.08,0.39,20,,,,,,,,,,,,,,,,,,,
1628,0,0.0214,2.58,2.18,1.47,,0.05,-0.04,-0.0,0,0,0,0.06,0.39,16,,,,0.0,0.0,0.0,0.0,0,0,0.0,0,0.0,-1,0.0,0,0.0,0.0214,0.0,0.0
1638,0,0.0216,2.58,2.17,,,0.06,-0.04,0.01,-0,0,0,0.08,0.39,20,,,,,,,,,,,,,,,,,,,
1648,0,0.0218,2.58,2.18,1.47,,0.05,-0.04,0.01,0,-0,0,0.06,0.39,16,,0,0,,,,,,,,,,,,,,,,
1658,0,0.0219,2.58,2.18,,,0.06,-0.04,0.01,0,0,0,0.08,0.39,20,,,,,,,,,,,,,,,,,,,
1668,0,0.0221,2.59,2.18,1.48,,0.06,-0.04,0.01,0,-0,0,0.07,0.39,17,,,,,,,,,,,,,,,,,,,
1678,0,0.0222,2.57,2.19,,,0.05,-0.04,0.03,-0,-0,0,0.07,0.39,19,,,,,,,,,,,,,,,,,,,
1688,0,0.0224,2.59,2.19,1.46,,0.05,-0.04,0.02,0,-0,0,0.07,0.39,17,,0,0,,,,,,,,,,,,,,,,
1698,0,0.0226,2.58,2.19,,,0.05,-0.05,0.01,0,-0,0,0.07,0.39,18,,,,,,,,,,,,,,,,,,,
1708,0,0.0228,2.59,2.19,1.48,,0.07,-0.04,0.01,0,-0,0,0.08,0.39,20,,,,,,,,,,,,,,,,,,,
1718,0,0.0229,2.59,2.19,,,0.05,-0.05,0.01,0,-0,0,0.07,0.39,18,,,,,,,,,,,,,,,,,,,
1728,0,0.0231,2.57,2.17,1.45,,0.05,-0.05,0.02,0,-0,0,0.07,0.39,19,,0,0,0.0,0.0,0.0,0.0,0,0,0.0,0,0.0,-1,0.0,0,0.0,0.0231,0.0,0.0
1738,0,0.0232,2.56,2.18,,,0.05,-0.05,0.0,0,-0,0,0.07,0.39,18,,,,,,,,,,,,,,,,,,,
1748,0,0.0234,2.58,2.19,1.48,,0.06,-0.05,0.01,0,-0,0,0.08,0.39,20,,,,,,,,,,,,,,,,,,,
1758,0,0.0236,2.58,2.17,,,0.04,-0.05,0.01,0,-0,0,0.06,0.39,16,,,,,,,,,,,,,,,,,,,
1768,0,0.0238,2.58,2.19,1.48,,0.06,-0.05,0.02,0,-0,0,0.08,0.39,20,,0,0,,,,,,,,,,,,,,,,
1778,0,0.0239,2.57,2.16,,,0.07,-0.04,-0.01,0,-0,0,0.08,0.39,20,,,,,,,,,,,,,,,,,,,
1788,0,0.0241,2.57,2.18,1.48,,0.05,-0.04,-0.02,0,-0,0,0.07,0.39,17,,,,,,,,,,,,,,,,,,,
1798,0,0.0242,2.59,2.19,,,0.02,-0.04,-0.01,0,0,0,0.05,0.39,12,,,,,,,,,,,,,,,,,,,
1808,0,0.0244,2.59,2.19,1.48,,0.03,-0.04,-0.02,-0,0,0,0.06,0.39,15,,0,0,,,,,,,,,,,,,,,,
1818,0,0.0246,2.58,2.18,,,0.05,-0.04,-0.02,-0,1,0,0.07,0.39,18,,,,,,,,,,,,,,,,,,,
1828,0,0.0248,2.57,2.17,1.48,,0.01,-0.04,-0.02,-0,1,0,0.05,0.39,13,,,,0.0,0.0,0.0,0.0,0,0,0.0,0,0.0,-1,0.0,0,0.0,0.0248,0.0,0.0
1838,0,0.0249,2.6,2.17,,,0.02,-0.03,-0.01,-0,1,0,0.04,0.39,10,,,,,,,,,,,,,,,,,,,
1848,0,0.0251,2.6,2.2,1.48,,0.01,-0.03,-0.02,-0,1,0,0.04,0.39,11,,0,0,,,,,,,,,,,,,,,,
1858,0,0.0253,2.55,2.12,,,0.02,-0.04,-0.01,-0,1,0,0.05,0.39,12,,,,,,,,,,,,,,,,,,,
1868,0,0.0254,2.59,2.19,1.48,,-0.01,-0.04,-0.01,-0,1,0,0.04,0.39,11,,,,,,,,,,,,,,,,,,,
1878,0,0.0256,2.58,2.17,,,0.01,-0.05,-0.0,-1,1,0,0.05,0.39,12,,,,,,,,,,,,,,,,,,,
1888,0,0.0258,2.56,2.17,1.46,,0.01,-0.04,0.0,-0,1,0,0.05,0.39,12,,0,0,,,,,,,,,,,,,,,,
1898,0,0.0259,2.59,2.19,,,0.0,-0.06,0.02,-0,1,0,0.06,0.39,15,,,,,,,,,,,,,,,,,,,
1908,0,0.0261,2.6,2.19,1.48,,0.01,-0.05,0.01,-0,1,0,0.05,0.39,14,,,,,,,,,,,,,,,,,,,
1918,0,0.0262,2.59,2.18,,,0.0,-0.05,-0.01,-0,1,0,0.05,0.39,14,,,,,,,,,,,,,,,,,,,
1928,0,0.0264,2.56,2.16,1.46,,0.02,-0.05,0.0,-0,1,0,0.06,0.39,15,,0,0,0.0,0.0,0.0,0.0,0,0,0.0,0,0.0,-1,0.0,0,0.0,0.0264,0.0,0.0
1938,0,0.0266,2.6,2.19,,,-0.01,-0.04,-0.01,-0,1,0,0.04,0.39,11,,,,,,,,,,,,,,,,,,,
1948,0,0.0268,2.6,2.19,1.48,,0.02,-0.05,-0.0,-0,1,0,0.06,0.39,14,,,,,,,,,,,,,,,,,,,
1958,0,0.0269,2.57,2.16,,,0.01,-0.04,0.02,-0,1,0,0.05,0.39,12,,,,,,,,,,,,,,,,,,,
1968,0,0.0271,2.6,2.2,1.49,,0.01,-0.05,0.05,-0,0,0,0.07,0.39,19,,0,0,,,,,,,,,,,,,,,,
1978,0,0.0272,2.59,2.19,,,0.01,-0.04,0.04,-0,0,0,0.06,0.39,14,,,,,,,,,,,,,,,,,,,
1988,0,0.0274,2.59,2.19,1.47,,0.01,-0.05,0.03,-0,1,0,0.06,0.39,15,,,,,,,,,,,,,,,,,,,
1998,0,0.0276,2.56,2.17,,,0.04,-0.05,0.01,-0,1,0,0.06,0.39,17,,,,,,,,,,,,,,,,,,,
2008,0,0.0278,2.59,2.18,1.46,,0.06,-0.05,0.03,-0,0,0,0.08,0.39,21,,0,0,,,,,,,,,,,,,,,,
2018,0,0.0279,2.59,2.18,,,0.03,-0.05,0.05,-0,0,0,0.08,0.39,19,,,,,,,,,,,,,,,,,,,
2028,0,0.0281,2.59,2.19,1.46,,0.05,-0.06,-0.01,-0,1,0,0.08,0.39,19,,,,0.0,0.0,0.0,0.0,0,0,0.0,0,0.0,-1,0.0,0,0.0,0.0281,0.0,0.0
2038,0,0.0282,2.56,2.18,,,0.04,-0.07,0.01,-0,1,0,0.08,0.39,21,,,,,,,,,,,,,,,,,,,
2048,0,0.0284,2.59,2.19,1.48,,0.01,-0.06,0.01,-0,1,0,0.06,0.39,16,,0,0,,,,,,,,,,,,,,,,
2058,0,0.0286,2.58,2.17,,,0.02,-0.06,-0.01,-0,1,0,0.06,0.39,16,,,,,,,,,,,,,,,,,,,
2068,0,0.0288,2.59,2.18,1.47,,0.05,-0.07,-0.02,-0,1,0,0.09,0.39,23,,,,,,,,,,,,,,,,,,,
2078,0,0.0289,2.58,2.18,,,-0.01,-0.05,-0.05,-0,1,0,0.07,0.39,18,,,,,,,,,,,,,,,,,,,
2088,0,0.0291,2.59,2.19,1.47,,0.03,-0.04,-0.03,-0,1,0,0.06,0.39,15,,0,0,,,,,,,,,,,,,,,,
2098,0,0.0292,2.57,2.15,,,0.03,-0.05,0.06,-0,1,0,0.09,0.39,22,,,,,,,,,,,,,,,,,,,
2108,0,0.0294,2.59,2.18,1.47,,0.03,-0.06,0.08,-0,1,0,0.1,0.39,26,,,,,,,,,,,,,,,,,,,
2118,0,0.0296,2.58,2.17,,,0.02,-0.05,0.03,-0,0,0,0.06,0.39,16,,,,,,,,,,,,,,,,,,,
2128,0,0.0298,2.56,2.15,1.45,,0.06,-0.08,0.1,-0,0,0,0.14,0.39,35,,0,0,0.0,0.0,0.0,0.0,0,0,0.0,0,0.0,-1,0.0,0,0.0,0.0298,0.0,0.0
2138,0,0.0299,2.59,2.19,,,0.03,-0.06,0.11,-0,0,0,0.13,0.39,35,,,,,,,,,,,,,,,,,,,
2148,0,0.0301,2.59,2.18,1.47,,0.05,-0.06,0.06,-0,0,0,0.1,0.39,25,,,,,,,,,,,,,,,,,,,
2158,0,0.0302,2.6,2.19,,,0.02,-0.05,0.06,-0,1,0,0.08,0.39,22,,,,,,,,,,,,,,,,,,,
2168,0,0.0304,2.57,2.14,1.45,,0.0,-0.03,0.08,-0,1,0,0.08,0.39,21,,0,0,,,,,,,,,,,,,,,,
2178,0,0.0306,2.57,2.16,,,0.06,-0.07,0.1,-0,1,0,0.14,0.39,35,,,,,,,,,,,,,,,,,,,
2188,0,0.0308,2.6,2.18,1.48,,0.03,-0.05,0.07,-0,1,0,0.09,0.39,24,,,,,,,,,,,,,,,,,,,
2198,0,0.0309,2.6,2.19,,,0.04,-0.04,0.03,-0,2,0,0.06,0.39,16,,,,,,,,,,,,,,,,,,,
2208,0,0.0311,2.62,2.19,1.49,,0.02,-0.05,0.04,-0,2,0,0.07,0.39,17,,0,0,,,,,,,,,,,,,,,,
2218,0,0.0312,2.62,2.19,,,-0.01,-0.02,0.04,-0,2,-0,0.05,0.39,12,,,,,,,,,,,,,,,,,,,
2228,0,0.0314,2.6,2.18,1.46,,-0.02,-0.08,0.03,-0,2,-0,0.09,0.39,22,,,,0.0,0.0,0.0,0.0,0,0,0.0,0,0.0,-1,0.0,0,0.0,0.0314,0.0,0.0
2238,0,0.0316,2.59,2.18,,,-0.02,-0.06,0.03,-0,3,-1,0.07,0.39,18,,,,,,,,,,,,,,,,,,,
2248,0,0.0318,2.63,2.19,1.48,,-0.06,-0.08,0.02,-0,3,-1,0.1,0.39,27,,0,0,,,,,,,,,,,,,,,,
2258,0,0.0319,2.6,2.17,,,-0.06,-0.1,0.02,-0,3,-1,0.12,0.39,30,,,,,,,,,,,,,,,,,,,
2268,0,0.0321,2.63,2.19,1.48,,-0.04,-0.08,0.04,-0,3,-1,0.1,0.39,25,,,,,,,,,,,,,,,,,,,
2278,0,0.0322,2.6,2.17,,,-0.03,-0.1,0.06,0,3,-0,0.12,0.39,31,,,,,,,,,,,,,,,,,,,
2288,0,0.0324,2.63,2.19,1.47,,-0.04,-0.08,0.03,0,3,-0,0.09,0.39,23,,0,0,,,,,,,,,,,,,,,,
2298,0,0.0326,2.64,2.2,,,-0.06,-0.09,0.05,0,3,-0,0.12,0.39,30,,,,,,,,,,,,,,,,,,,
2308,0,0.0328,2.64,2.17,1.45,,-0.09,-0.06,0.05,0,3,-0,0.12,0.39,30,,,,,,,,,,,,,,,,,,,
2318,0,0.0329,2.64,2.2,,,-0.09,-0.08,-0.03,0,4,-0,0.12,0.39,31,,,,,,,,,,,,,,,,,,,
2328,0,0.0331,2.61,2.18,1.46,12.84,-0.07,-0.04,-0.05,0,4,0,0.09,0.39,24,0,0,0,0.0,0.0,0.0,0.0,0,0,0.0,0,0.0,-1,0.0,0,0.0,0.0331,0.0,0.0
2338,0,0.0332,2.64,2.2,,,-0.12,-0.05,-0.02,0,4,0,0.13,0.39,34,,,,,,,,,,,,,,,,,,,
2348,0,0.0334,2.65,2.21,1.48,,-0.15,-0.04,-0.05,0,4,-0,0.16,0.39,42,,,,,,,,,,,,,,,,,,,
2358,0,0.0336,2.62,2.19,,,-0.14,-0.08,-0.05,-0,5,0,0.17,0.39,44,,,,,,,,,,,,,,,,,,,
2368,0,0.0338,2.65,2.22,1.48,,-0.14,-0.07,0.01,-0,5,-0,0.16,0.39,42,,0,0,,,,,,,,,,,,,,,,
2378,0,0.0339,2.61,2.2,,,-0.19,-0.07,0.01,-0,5,-0,0.2,0.39,51,,,,,,,,,,,,,,,,,,,
2388,0,0.0341,2.64,2.22,1.48,,-0.23,-0.09,0.03,-0,6,-0,0.25,0.39,65,,,,,,,,,,,,,,,,,,,
2398,0,0.0342,2.67,2.24,,,-0.18,-0.08,0.04,-0,6,-0,0.2,0.39,52,,,,,,,,,,,,,,,,,,,
2408,0,0.0344,2.66,2.24,1.49,,-0.18,-0.11,0.07,0,6,-0,0.22,0.39,57,,0,0,,,,,,,,,,,,,,,,
2418,0,0.0346,2.64,2.21,,,-0.19,-0.1,0.04,0,7,0,0.22,0.39,57,,,,,,,,,,,,,,,,,,,
2428,0,0.0348,2.68,2.25,1.46,,-0.22,-0.12,0.08,0,7,0,0.26,0.39,68,,,,0.0,0.0,0.0,0.0,0,0,0.0,0,0.0,-1,0.0,0,0.0,0.0348,0.0,0.0
2438,0,0.0349,2.68,2.24,,,-0.2,-0.07,0.15,0,6,0,0.26,0.39,68,,,,,,,,,,,,,,,,,,,
2448,0,0.0351,2.65,2.22,1.47,,-0.2,-0.1,0.11,0,7,0,0.24,0.39,63,,0,0,,,,,,,,,,,,,,,,
2458,0,0.0352,2.65,2.23,,,-0.2,-0.05,0.04,1,7,0,0.21,0.39,54,,,,,,,,,,,,,,,,,,,
2468,0,0.0354,2.68,2.25,1.48,,-0.23,-0.06,0.1,1,7,0,0.26,0.39,66,,,,,,,,,,,,,,,,,,,
2478,0,0.0356,2.68,2.24,,,-0.23,-0.03,0.09,1,6,0,0.25,0.39,65,,,,,,,,,,,,,,,,,,,
2488,0,0.0358,2.68,2.25,1.48,,-0.23,-0.01,0.02,1,7,0,0.23,0.39,60,,0,0,,,,,,,,,,,,,,,,
2498,0,0.0359,2.68,2.26,,,-0.2,-0.01,-0.0,1,7,-0,0.2,0.39,52,,,,,,,,,,,,,,,,,,,
2508,0,0.0361,2.69,2.24,1.47,,-0.24,0.01,0.07,1,6,-0,0.25,0.39,64,,,,,,,,,,,,,,,,,,,
2518,0,0.0362,2.69,2.26,,,-0.27,0.04,0.07,1,6,-0,0.28,0.39,73,,,,,,,,,,,,,,,,,,,
2528,0,0.0364,2.69,2.27,1.49,,-0.28,0.02,0.0,1,6,-1,0.28,0.39,72,,0,0,0.0,0.0,0.0,0.0,0,0,0.0,0,0.0,-1,0.0,0,0.0,0.0364,0.0,0.0
2538,0,0.0366,2.67,2.24,,,-0.23,0.07,0.0,1,5,-1,0.24,0.39,62,,,,,,,,,,,,,,,,,,,
2548,0,0.0368,2.67,2.24,1.46,,-0.26,0.01,0.06,1,5,-1,0.27,0.39,70,,,,,,,,,,,,,,,,,,,
2558,0,0.0369,2.65,2.23,,,-0.28,0.05,0.03,1,5,-1,0.28,0.39,73,,,,,,,,,,,,,,,,,,,
2568,0,0.0371,2.67,2.23,1.45,,-0.26,0.0,0.0,1,5,-1,0.26,0.39,68,,0,0,,,,,,,,,,,,,,,,
2578,0,0.0372,2.68,2.22,,,-0.23,0.04,0.01,1,4,-1,0.23,0.39,60,,,,,,,,,,,,,,,,,,,
2588,0,0.0374,2.67,2.21,1.45,,-0.25,0.03,0.07,1,4,-1,0.26,0.39,66,,,,,,,,,,,,,,,,,,,
2598,0,0.0376,2.67,2.25,,,-0.26,0.06,0.11,1,4,-1,0.29,0.39,75,,,,,,,,,,,,,,,,,,,
2608,0,0.0377,2.67,2.24,1.48,,-0.26,0.03,0.11,1,4,-1,0.28,0.39,73,,0,0,,,,,,,,,,,,,,,,
2618,0,0.0379,2.68,2.24,,,-0.22,0.06,0.1,1,3,-1,0.25,0.39,66,,,,,,,,,,,,,,,,,,,
2628,0,0.0381,2.68,2.24,1.48,,-0.22,0.04,0.17,1,3,-1,0.28,0.39,73,,,,0.0,0.0,0.0,0.0,0,0,0.0,0,0.0,-1,0.0,0,0.0,0.0381,0.0,0.0
2638,0,0.0382,2.63,2.23,,,-0.24,0.08,0.21,1,3,-1,0.33,0.39,85,,,,,,,,,,,,,,,,,,,
2648,0,0.0384,2.68,2.25,1.48,,-0.25,0.04,0.18,1,2,-1,0.31,0.39,79,,0,0,,,,,,,,,,,,,,,,
2658,0,0.0386,2.64,2.19,,,-0.22,0.07,0.18,1,2,-1,0.29,0.39,75,,,,,,,,,,,,,,,,,,,
2668,0,0.0388,2.68,2.24,1.48,,-0.23,0.04,0.25,1,2,-1,0.34,0.39,87,,,,,,,,,,,,,,,,,,,
2678,0,0.0389,2.64,2.2,,,-0.23,0.08,0.3,1,2,-1,0.38,0.39,99,,,,,,,,,,,,,,,,,,,
2688,0,0.0391,2.69,2.24,1.48,,-0.22,0.03,0.25,1,2,-1,0.33,0.39,86,,0,0,,,,,,,,,,,,,,,,
2698,0,0.0392,2.65,2.19,,,-0.21,0.06,0.21,2,2,-1,0.3,0.39,78,,,,,,,,,,,,,,,,,,,
2708,0,0.0394,2.69,2.23,1.48,,-0.2,0.03,0.28,2,2,-1,0.35,0.39,89,,,,,,,,,,,,,,,,,,,
2718,0,0.0396,2.69,2.24,,,-0.21,0.08,0.35,2,1,-1,0.41,0.41,100,,,,,,,,,,,,,,,,,,,
2728,0,0.0398,2.67,2.21,1.45,,-0.18,0.06,0.31,2,1,-1,0.37,0.41,88,,0,0,0.0,0.0,0.0,0.0,0,0,0.0,0,0.0,-1,0.0,0,0.0,0.0398,0.0,0.0
2738,0,0.0399,2.69,2.24,,,-0.18,0.09,0.27,2,1,-1,0.34,0.41,81,,,,,,,,,,,,,,,,,,,
2748,0,0.0401,2.66,2.22,1.47,,-0.18,0.05,0.32,2,2,-1,0.38,0.41,91,,,,,,,,,,,,,,,,,,,
2758,0,0.0402,2.69,2.23,,,-0.18,0.1,0.37,2,1,-1,0.43,0.43,100,,,,,,,,,,,,,,,,,,,
2768,0,0.0404,2.69,2.24,1.44,,-0.16,0.06,0.37,2,2,-1,0.41,0.43,96,,0,0,,,,,,,,,,,,,,,,
2778,0,0.0406,2.66,2.22,,,-0.16,0.07,0.31,2,2,-1,0.36,0.43,85,,,,,,,,,,,,,,,,,,,
2788,0,0.0408,2.7,2.24,1.48,,-0.17,0.06,0.3,2,2,-1,0.35,0.43,83,,,,,,,,,,,,,,,,,,,
2798,0,0.0409,2.67,2.2,,,-0.17,0.06,0.36,2,2,-1,0.4,0.43,94,,,,,,,,,,,,,,,,,,,
2808,0,0.0411,2.69,2.24,1.48,,-0.13,0.03,0.33,2,2,-1,0.35,0.43,83,,0,0,,,,,,,,,,,,,,,,
2818,0,0.0413,2.69,2.23,,,-0.18,0.02,0.27,1,2,-1,0.33,0.43,77,,,,,,,,,,,,,,,,,,,
2828,0,0.0414,2.66,2.22,1.47,,-0.2,0.01,0.23,1,2,-1,0.3,0.43,71,,,,0.0,0.0,0.0,0.0,0,0,0.0,0,0.0,-1,0.0,0,0.0,0.0414,0.0,0.0
2838,0,0.0416,2.67,2.22,,,-0.23,-0.01,0.2,1,3,-1,0.3,0.43,71,,,,,,,,,,,,,,,,,,,
2848,0,0.0418,2.68,2.24,1.48,,-0.18,-0.02,0.19,1,3,-1,0.26,0.43,62,,0,0,,,,,,,,,,,,,,,,
2858,0,0.0419,2.69,2.23,,,-0.2,-0.02,0.16,1,3,-1,0.26,0.43,62,,,,,,,,,,,,,,,,,,,
2868,0,0.0421,2.69,2.24,1.48,,-0.23,-0.02,0.11,1,3,-1,0.26,0.43,61,,,,,,,,,,,,,,,,,,,
2878,0,0.0422,2.69,2.24,,,-0.26,-0.03,0.09,1,2,-1,0.27,0.43,64,,,,,,,,,,,,,,,,,,,
2888,0,0.0424,2.68,2.23,1.47,,-0.22,-0.01,0.1,1,2,-1,0.24,0.43,57,,0,0,,,,,,,,,,,,,,,,
2898,0,0.0426,2.69,2.23,,,-0.23,-0.02,0.13,1,1,-1,0.27,0.43,63,,,,,,,,,,,,,,,,,,,
2908,0,0.0428,2.69,2.22,1.47,,-0.23,0.01,0.13,1,1,-1,0.26,0.43,62,,,,,,,,,,,,,,,,,,,
2918,0,0.0429,2.68,2.21,,,-0.22,-0.02,0.1,1,0,-1,0.24,0.43,56,,,,,,,,,,,,,,,,,,,
2928,0,0.0431,2.66,2.2,1.44,,-0.23,0.01,0.08,1,0,-1,0.25,0.43,58,,0,0,0.0,0.0,0.0,0.0,0,0,0.0,0,0.0,-1,0.0,0,0.0,0.0431,0.0,0.0
2938,0,0.0432,2.67,2.21,,,-0.23,-0.01,0.16,1,-0,-1,0.28,0.43,67,,,,,,,,,,,,,,,,,,,
2948,0,0.0434,2.68,2.23,1.47,,-0.27,0.01,0.19,1,-0,-1,0.33,0.43,77,,,,,,,,,,,,,,,,,,,
2958,0,0.0436,2.68,2.23,,,-0.2,-0.01,0.14,1,0,-1,0.25,0.43,59,,,,,,,,,,,,,,,,,,,
2968,0,0.0438,2.64,2.2,1.46,,-0.24,-0.01,0.08,1,0,-1,0.25,0.43,60,,0,0,,,,,,,,,,,,,,,,
2978,0,0.0439,2.68,2.23,,,-0.23,-0.03,0.06,1,1,-1,0.24,0.43,56,,,,,,,,,,,,,,,,,,,
2988,0,0.0441,2.62,2.17,1.43,,-0.28,-0.02,0.07,1,1,-1,0.29,0.43,67,,,,,,,,,,,,,,,,,,,
2998,0,0.0442,2.66,2.19,,,-0.22,-0.03,0.05,1,1,-1,0.23,0.43,53,,,,,,,,,,,,,,,,,,,
3008,0,0.0444,2.68,2.22,1.47,,-0.25,-0.04,0.06,0,1,-1,0.26,0.43,61,,0,0,,,,,,,,,,,,,,,,
3018,0,0.0446,2.66,2.2,,,-0.24,-0.03,0.05,0,0,-1,0.24,0.43,57,,,,,,,,,,,,,,,,,,,
3028,0,0.0448,2.67,2.23,1.49,,-0.26,-0.05,0.05,0,0,-1,0.27,0.43,62,,,,0.0,0.0,0.0,0.0,0,0,0.0,0,0.0,-1,0.0,0,0.0,0.0448,0.0,0.0
3038,0,0.0449,2.68,2.23,,,-0.25,-0.02,0.04,-0,0,-1,0.25,0.43,59,,,,,,,,,,,,,,,,,,,
3048,0,0.0451,2.67,2.23,1.48,,-0.24,-0.04,0.09,-0,-0,-1,0.26,0.43,61,,0,0,,,,,,,,,,,,,,,,
3058,0,0.0452,2.67,2.22,,,-0.3,-0.02,0.08,-0,-0,-1,0.31,0.43,72,,,,,,,,,,,,,,,,,,,
3068,0,0.0454,2.66,2.2,1.46,,-0.2,-0.06,0.04,-0,0,-1,0.21,0.43,50,,,,,,,,,,,,,,,,,,,
3078,0,0.0456,2.65,2.22,,,-0.26,-0.04,0.02,-0,0,-1,0.26,0.43,61,,,,,,,,,,,,,,,,,,,
3088,0,0.0458,2.67,2.21,1.48,,-0.23,-0.05,-0.01,-0,0,-1,0.23,0.43,55,,0,0,,,,,,,,,,,,,,,,
3098,0,0.0459,2.66,2.2,,,-0.29,-0.02,0.02,-0,0,-1,0.29,0.43,69,,,,,,,,,,,,,,,,,,,
3108,0,0.0461,2.65,2.2,1.48,,-0.23,-0.04,0.02,-0,-0,-1,0.24,0.43,56,,,,,,,,,,,,,,,,,,,
3118,0,0.0462,2.62,2.19,,,-0.23,-0.06,0.1,-1,-1,-1,0.26,0.43,61,,,,,,,,,,,,,,,,,,,
3128,0,0.0464,2.65,2.2,1.49,,-0.26,-0.06,0.1,-1,-1,-0,0.28,0.43,67,,0,0,0.0,0.0,0.0,0.0,0,0,0.0,0,0.0,-1,0.0,0,0.0,0.0464,0.0,0.0
3138,0,0.0466,2.66,2.2,,,-0.23,-0.09,0.05,-1,-1,-0,0.25,0.43,58,,,,,,,,,,,,,,,,,,,
3148,0,0.0468,2.65,2.19,1.46,,-0.27,-0.06,-0.01,-1,-1,0,0.27,0.43,65,,,,,,,,,,,,,,,,,,,
3158,0,0.0469,2.62,2.16,,,-0.24,-0.1,-0.02,-1,-1,0,0.26,0.43,61,,,,,,,,,,,,,,,,,,,
3168,0,0.0471,2.63,2.18,1.46,,-0.3,-0.05,-0.01,-1,-1,0,0.3,0.43,71,,0,0,,,,,,,,,,,,,,,,
3178,0,0.0472,2.65,2.19,,,-0.21,-0.05,-0.03,-1,-1,1,0.22,0.43,52,,,,,,,,,,,,,,,,,,,
3188,0,0.0474,2.66,2.2,1.48,,-0.25,-0.03,0.02,-1,-2,1,0.26,0.43,60,,,,,,,,,,,,,,,,,,,
3198,0,0.0476,2.64,2.18,,,-0.24,-0.01,0.04,-1,-2,1,0.25,0.43,58,,,,,,,,,,,,,,,,,,,
3208,0,0.0478,2.62,2.19,1.47,,-0.21,-0.01,0.02,-1,-2,1,0.22,0.43,51,,0,0,,,,,,,,,,,,,,,,
3218,0,0.0479,2.66,2.21,,,-0.23,-0.0,-0.03,-2,-2,1,0.23,0.43,54,,,,,,,,,,,,,,,,,,,
3228,0,0.0481,2.62,2.18,1.46,,-0.21,-0.03,-0.04,-2,-2,1,0.22,0.43,51,,,,0.0,0.0,0.0,0.0,0,0,0.0,0,0.0,-1,0.0,0,0.0,0.0481,0.0,0.0
3238,0,0.0482,2.66,2.19,,,-0.29,-0.01,-0.03,-2,-2,0,0.29,0.43,69,,,,,,,,,,,,,,,,,,,
3248,0,0.0484,2.63,2.19,1.45,,-0.2,-0.02,-0.03,-2,-2,1,0.21,0.43,48,,0,0,,,,,,,,,,,,,,,,
3258,0,0.0486,2.65,2.21,,,-0.23,0.0,-0.01,-2,-2,1,0.23,0.43,54,,,,,,,,,,,,,,,,,,,
3268,0,0.0487,2.65,2.21,1.48,,-0.2,-0.01,-0.02,-2,-2,0,0.2,0.43,48,,,,,,,,,,,,,,,,,,,
3278,0,0.0489,2.64,2.19,,,-0.22,-0.01,-0.02,-2,-2,0,0.22,0.43,53,,,,,,,,,,,,,,,,,,,
3288,0,0.0491,2.65,2.21,1.48,,-0.24,-0.02,-0.03,-2,-2,0,0.25,0.43,58,,0,0,,,,,,,,,,,,,,,,
3298,0,0.0492,2.63,2.18,,,-0.22,-0.03,-0.03,-2,-2,0,0.22,0.43,53,,,,,,,,,,,,,,,,,,,
3308,0,0.0494,2.65,2.21,1.48,,-0.27,-0.03,-0.05,-2,-2,0,0.27,0.43,65,,,,,,,,,,,,,,,,,,,
3318,0,0.0496,2.65,2.21,,,-0.18,-0.03,-0.06,-2,-2,0,0.19,0.43,45,,,,,,,,,,,,,,,,,,,
3328,0,0.0498,2.63,2.19,1.47,12.84,-0.25,-0.01,0.0,-2,-2,-0,0.25,0.43,59,0,0,0,0.0,0.0,0.0,0.0,0,0,0.0,0,0.0,-1,0.0,0,0.0,0.0498,0.0,0.0
3338,0,0.0499,2.65,2.2,,,-0.22,-0.02,0.02,-2,-3,-0,0.22,0.43,52,,,,,,,,,,,,,,,,,,,
3348,0,0.0501,2.64,2.19,1.47,,-0.2,-0.02,0.04,-2,-3,-0,0.21,0.43,49,,,,,,,,,,,,,,,,,,,
3358,0,0.0502,2.62,2.18,,,-0.21,-0.03,0.01,-1,-2,-0,0.21,0.43,50,,,,,,,,,,,,,,,,,,,
3368,0,0.0504,2.65,2.19,1.47,,-0.2,-0.06,0.02,-1,-2,-0,0.21,0.43,48,,0,0,,,,,,,,,,,,,,,,
3378,0,0.0506,2.64,2.19,,,-0.28,-0.04,0.02,-1,-1,-0,0.28,0.43,66,,,,,,,,,,,,,,,,,,,
3388,0,0.0508,2.64,2.15,1.45,,-0.18,-0.05,0.01,-1,-1,-0,0.19,0.43,45,,,,,,,,,,,,,,,,,,,
3398,0,0.0509,2.65,2.19,,,-0.21,-0.03,0.02,-1,-1,0,0.22,0.43,51,,,,,,,,,,,,,,,,,,,
3408,0,0.0511,2.63,2.16,1.44,,-0.19,0.01,0.01,-1,-2,-0,0.19,0.43,45,,0,0,,,,,,,,,,,,,,,,
3418,0,0.0512,2.61,2.16,,,-0.21,-0.02,0.03,-1,-2,-0,0.21,0.43,50,,,,,,,,,,,,,,,,,,,
3428,0,0.0514,2.65,2.19,1.48,,-0.21,0.0,0.0,-1,-2,-0,0.21,0.43,50,,,,0.0,0.0,0.0,0.0,0,0,0.0,0,0.0,-1,0.0,0,0.0,0.0514,0.0,0.0
3438,0,0.0516,2.64,2.18,,,-0.2,-0.03,0.01,-1,-2,-1,0.2,0.43,48,,,,,,,,,,,,,,,,,,,
3448,0,0.0518,2.64,2.19,1.48,,-0.28,-0.02,0.02,-1,-1,-1,0.28,0.43,66,,0,0,,,,,,,,,,,,,,,,
3458,0,0.0519,2.62,2.14,,,-0.21,-0.02,0.01,-1,-1,-1,0.21,0.43,50,,,,,,,,,,,,,,,,,,,
3468,0,0.0521,2.65,2.19,1.48,,-0.26,-0.03,0.02,-0,-1,-1,0.26,0.43,62,,,,,,,,,,,,,,,,,,,
3478,0,0.0522,2.66,2.19,,,-0.21,-0.05,-0.0,-0,-1,-1,0.22,0.43,51,,,,,,,,,,,,,,,,,,,
3488,0,0.0524,2.66,2.19,1.47,,-0.24,-0.05,0.0,-0,-2,-1,0.25,0.43,58,,0,0,,,,,,,,,,,,,,,,
3498,0,0.0526,2.63,2.15,,,-0.24,-0.06,0.01,0,-2,-1,0.25,0.43,59,,,,,,,,,,,,,,,,,,,
3508,0,0.0528,2.62,2.16,1.46,,-0.25,-0.11,0.02,0,-2,-1,0.27,0.43,64,,,,,,,,,,,,,,,,,,,
3518,0,0.0529,2.66,2.18,,,-0.3,-0.09,-0.02,0,-1,-1,0.31,0.43,74,,,,,,,,,,,,,,,,,,,
3528,0,0.0531,2.67,2.19,1.47,,-0.22,-0.1,-0.04,1,-1,-0,0.24,0.43,57,,0,0,0.0,0.0,0.0,0.0,0,0,0.0,0,0.0,-1,0.0,0,0.0,0.0531,0.0,0.0
3538,0,0.0532,2.67,2.18,,,-0.27,-0.08,-0.05,1,-0,-0,0.28,0.43,67,,,,,,,,,,,,,,,,,,,
3548,0,0.0534,2.67,2.18,1.47,,-0.23,-0.07,-0.09,1,-1,-0,0.26,0.43,60,,,,,,,,,,,,,,,,,,,
3558,0,0.0536,2.67,2.18,,,-0.26,-0.07,-0.07,1,-1,-0,0.28,0.43,65,,,,,,,,,,,,,,,,,,,
3568,0,0.0538,2.63,2.15,1.45,,-0.23,-0.07,-0.04,2,-1,-0,0.25,0.43,58,,0,0,,,,,,,,,,,,,,,,
3578,0,0.0539,2.64,2.18,,,-0.23,-0.06,0.04,2,-1,-0,0.25,0.43,58,,,,,,,,,,,,,,,,,,,
3588,0,0.0541,2.66,2.19,1.48,,-0.25,-0.07,0.06,1,-1,-0,0.27,0.43,63,,,,,,,,,,,,,,,,,,,
3598,0,0.0542,2.66,2.18,,,-0.2,-0.08,0.03,1,-1,-0,0.22,0.43,51,,,,,,,,,,,,,,,,,,,
3608,0,0.0544,2.64,2.16,1.46,,-0.26,-0.09,-0.03,1,-0,-0,0.28,0.43,66,,0,0,,,,,,,,,,,,,,,,
3618,0,0.0546,2.65,2.17,,,-0.22,-0.09,-0.08,1,-0,-0,0.25,0.43,59,,,,,,,,,,,,,,,,,,,
3628,0,0.0548,2.64,2.16,1.46,,-0.27,-0.08,-0.09,1,0,-0,0.3,0.43,70,,,,0.0,0.0,0.0,0.0,0,0,0.0,0,0.0,-1,0.0,0,0.0,0.0548,0.0,0.0
3638,0,0.0549,2.63,2.14,,,-0.23,-0.08,-0.09,2,0,-0,0.25,0.43,60,,,,,,,,,,,,,,,,,,,
3648,0,0.0551,2.67,2.19,1.48,,-0.26,-0.09,-0.03,2,0,-0,0.28,0.43,66,,0,0,,,,,,,,,,,,,,,,
3658,0,0.0552,2.68,2.19,,,-0.25,-0.1,0.01,2,-1,-0,0.27,0.43,64,,,,,,,,,,,,,,,,,,,
3668,0,0.0554,2.69,2.19,1.48,,-0.25,-0.12,0.01,2,-0,0,0.27,0.43,64,,,,,,,,,,,,,,,,,,,
3678,0,0.0556,2.69,2.19,,,-0.27,-0.12,-0.04,2,-0,0,0.3,0.43,70,,,,,,,,,,,,,,,,,,,
3688,0,0.0558,2.68,2.18,1.46,,-0.26,-0.13,-0.02,2,-0,0,0.3,0.43,70,,0,0,,,,,,,,,,,,,,,,
3698,0,0.0559,2.65,2.15,,,-0.32,-0.12,-0.01,1,0,0,0.34,0.43,81,,,,,,,,,,,,,,,,,,,
3708,0,0.0561,2.65,2.18,1.46,,-0.25,-0.12,-0.06,2,0,0,0.29,0.43,67,,,,,,,,,,,,,,,,,,,
3718,0,0.0562,2.69,2.16,,,-0.3,-0.1,-0.05,2,-0,0,0.32,0.43,76,,,,,,,,,,,,,,,,,,,
3728,0,0.0564,2.66,2.18,1.47,,-0.28,-0.09,-0.05,2,-1,0,0.3,0.43,71,,0,0,0.0,0.0,0.0,0.0,0,0,0.0,0,0.0,-1,0.0,0,0.0,0.0564,0.0,0.0
3738,0,0.0566,2.69,2.2,,,-0.3,-0.09,-0.06,2,-1,0,0.32,0.43,75,,,,,,,,,,,,,,,,,,,
3748,0,0.0568,2.67,2.19,1.47,,-0.3,-0.06,-0.06,2,-2,1,0.31,0.43,73,,,,,,,,,,,,,,,,,,,
3758,0,0.0569,2.69,2.2,,,-0.28,-0.08,-0.03,2,-2,1,0.29,0.43,69,,,,,,,,,,,,,,,,,,,
3768,0,0.0571,2.69,2.19,1.48,,-0.32,-0.09,-0.0,1,-1,1,0.33,0.43,78,,0,0,,,,,,,,,,,,,,,,
3778,0,0.0572,2.68,2.2,,,-0.26,-0.12,-0.0,1,-1,1,0.29,0.43,68,,,,,,,,,,,,,,,,,,,
3788,0,0.0574,2.65,2.19,1.47,,-0.31,-0.09,-0.03,1,-1,1,0.32,0.43,76,,,,,,,,,,,,,,,,,,,
3798,0,0.0576,2.64,2.16,,,-0.28,-0.11,-0.06,1,-1,1,0.3,0.43,72,,,,,,,,,,,,,,,,,,,
3808,0,0.0578,2.68,2.19,1.47,,-0.34,-0.13,-0.07,1,-1,1,0.37,0.43,86,,0,0,,,,,,,,,,,,,,,,
3818,0,0.0579,2.68,2.19,,,-0.29,-0.12,-0.05,1,-2,1,0.31,0.43,74,,,,,,,,,,,,,,,,,,,
3828,0,0.0581,2.67,2.19,1.47,,-0.29,-0.11,0.03,1,-2,1,0.32,0.43,74,,,,0.0,0.0,0.0,0.0,0,0,0.0,0,0.0,-1,0.0,0,0.0,0.0581,0.0,0.0
3838,0,0.0582,2.64,2.18,,,-0.27,-0.12,0.06,1,-3,1,0.3,0.43,71,,,,,,,,,,,,,,,,,,,
3848,0,0.0584,2.64,2.14,1.42,,-0.25,-0.11,0.04,0,-3,1,0.28,0.43,66,,0,0,,,,,,,,,,,,,,,,
3858,0,0.0586,2.58,2.07,,,-0.27,-0.11,-0.02,0,-2,2,0.29,0.43,69,,,,,,,,,,,,,,,,,,,
3868,0,0.0588,2.62,2.13,1.43,,-0.26,-0.15,-0.04,0,-2,2,0.3,0.43,71,,,,,,,,,,,,,,,,,,,
3878,0,0.0589,2.67,2.18,,,-0.3,-0.12,-0.02,-0,-2,2,0.33,0.43,77,,,,,,,,,,,,,,,,,,,
3888,0,0.0591,2.67,2.18,1.47,,-0.22,-0.13,-0.04,-0,-2,2,0.26,0.43,61,,0,0,,,,,,,,,,,,,,,,
3898,0,0.0592,2.65,2.18,,,-0.25,-0.18,-0.04,-0,-2,2,0.31,0.43,72,,,,,,,,,,,,,,,,,,,
3908,0,0.0594,2.67,2.19,1.45,,-0.2,-0.18,-0.03,-0,-2,3,0.27,0.43,64,,,,,,,,,,,,,,,,,,,
3918,0,0.0596,2.66,2.16,,,-0.2,-0.2,-0.02,-0,-3,4,0.29,0.43,67,,,,,,,,,,,,,,,,,,,
3928,0,0.0598,2.65,2.12,1.47,,-0.14,-0.21,0.01,-0,-3,4,0.26,0.43,61,,0,0,0.0,0.0,0.0,0.0,0,0,0.0,0,0.0,-1,0.0,0,0.0,0.0598,0.0,0.0
3938,0,0.0599,2.6,2.07,,,-0.12,-0.23,0.06,-0,-2,5,0.27,0.43,62,,,,,,,,,,,,,,,,,,,
3948,0,0.0601,2.53,2.01,1.45,,-0.1,-0.22,0.08,-1,-2,6,0.26,0.43,61,,,,,,,,,,,,,,,,,,,
3958,0,0.0602,2.49,1.99,,,-0.01,-0.25,0.09,-1,-1,7,0.27,0.43,63,,,,,,,,,,,,,,,,,,,
3968,0,0.0604,2.43,1.99,1.47,,0.0,-0.23,0.1,-1,0,7,0.25,0.43,58,,0,0,,,,,,,,,,,,,,,,
3978,0,0.0606,2.33,1.99,,,0.04,-0.15,0.09,-1,2,8,0.19,0.43,44,,,,,,,,,,,,,,,,,,,
3988,0,0.0608,2.36,2.04,1.47,,-0.0,-0.03,-0.01,-1,4,6,0.03,0.43,7,,,,,,,,,,,,,,,,,,,
3998,0,0.0609,2.36,2.07,,,0.09,0.0,-0.0,-1,5,6,0.09,0.43,21,,,,,,,,,,,,,,,,,,,
4008,0,0.0611,2.41,2.1,1.47,,0.03,0.13,-0.1,-1,6,4,0.16,0.43,38,,0,0,,,,,,,,,,,,,,,,
4018,0,0.0612,2.47,2.12,,,0.08,0.06,-0.12,-2,7,2,0.15,0.43,36,,,,,,,,,,,,,,,,,,,
4028,0,0.0614,2.56,2.12,1.44,,0.01,0.03,-0.13,-1,8,-0,0.13,0.43,30,,,,0.0,0.0,0.0,0.0,0,0,0.0,0,0.0,-1,0.0,0,0.0,0.0614,0.0,0.0
4038,0,0.0616,2.62,2.14,,,0.01,0.01,-0.23,-1,10,-2,0.23,0.43,54,,,,,,,,,,,,,,,,,,,
4048,0,0.0618,2.68,2.18,1.43,,-0.05,-0.09,-0.25,-1,11,-3,0.27,0.43,64,,0,0,,,,,,,,,,,,,,,,
4058,0,0.0619,2.83,2.26,,,-0.14,-0.2,-0.25,-0,11,-3,0.35,0.43,82,,,,,,,,,,,,,,,,,,,
4068,0,0.0621,2.86,2.3,1.47,,-0.16,-0.32,-0.33,-0,11,-3,0.49,0.49,100,,,,,,,,,,,,,,,,,,,
4078,0,0.0622,2.88,2.35,,,-0.27,-0.33,-0.37,-0,11,-1,0.56,0.56,100,,,,,,,,,,,,,,,,,,,
4088,0,0.0624,2.85,2.4,1.47,,-0.3,-0.37,-0.35,-1,11,0,0.59,0.59,100,,0,0,,,,,,,,,,,,,,,,
4098,0,0.0626,2.82,2.42,,,-0.34,-0.23,-0.42,-1,10,1,0.59,0.59,100,,,,,,,,,,,,,,,,,,,
4108,0,0.0627,2.78,2.41,1.43,,-0.3,-0.18,-0.47,-1,9,2,0.58,0.59,98,,,,,,,,,,,,,,,,,,,
4118,0,0.0629,2.75,2.35,,,-0.38,-0.16,-0.42,-1,8,2,0.59,0.59,100,,,,,,,,,,,,,,,,,,,
4128,0,0.0631,2.7,2.34,1.42,,-0.32,-0.1,-0.47,-1,7,3,0.58,0.59,97,,0,0,0.0,0.0,0.0,0.0,0,0,0.0,0,0.0,-1,0.0,0,0.0,0.0631,0.0,0.0
4138,0,0.0632,2.68,2.31,,,-0.28,-0.09,-0.53,-0,6,3,0.61,0.61,100,,,,,,,,,,,,,,,,,,,
4148,0,0.0634,2.68,2.27,1.42,,-0.28,-0.04,-0.51,-0,6,2,0.58,0.61,95,,,,,,,,,,,,,,,,,,,
4158,0,0.0636,2.72,2.26,,,-0.29,-0.04,-0.42,-0,5,2,0.51,0.61,85,,,,,,,,,,,,,,,,,,,
4168,0,0.0638,2.71,2.23,1.47,,-0.34,-0.11,-0.43,-0,4,2,0.56,0.61,92,,0,0,,,,,,,,,,,,,,,,
4178,0,0.0639,2.71,2.22,,,-0.28,-0.17,-0.45,-1,3,2,0.55,0.61,91,,,,,,,,,,,,,,,,,,,
4188,0,0.0641,2.72,2.17,1.45,,-0.35,-0.21,-0.43,-1,2,2,0.59,0.61,98,,,,,,,,,,,,,,,,,,,
4198,0,0.0642,2.7,2.18,,,-0.37,-0.3,-0.43,-1,-0,3,0.64,0.64,100,,,,,,,,,,,,,,,,,,,
4208,0,0.0644,2.7,2.16,1.45,,-0.46,-0.26,-0.42,-1,-2,4,0.67,0.67,100,,0,0,,,,,,,,,,,,,,,,
4218,0,0.0646,2.71,2.16,,,-0.41,-0.26,-0.44,-2,-4,5,0.65,0.67,97,,,,,,,,,,,,,,,,,,,
4228,0,0.0648,2.71,2.18,1.46,,-0.5,-0.19,-0.44,-1,-6,5,0.69,0.69,100,,,,0.0,0.0,0.0,0.0,0,0,0.0,0,0.0,-1,0.0,0,0.0,0.0648,0.0,0.0
4238,0,0.0649,2.62,2.15,,,-0.49,-0.14,-0.47,-2,-8,5,0.69,0.69,100,,,,,,,,,,,,,,,,,,,
4248,0,0.0651,2.61,2.14,1.43,,-0.52,-0.01,-0.51,-2,-10,4,0.72,0.72,100,,0,0,,,,,,,,,,,,,,,,
4258,0,0.0652,2.53,2.13,,,-0.43,0.12,-0.54,-2,-12,2,0.7,0.72,97,,,,,,,,,,,,,,,,,,,
4268,0,0.0654,2.49,2.06,1.47,,-0.43,0.1,-0.52,-2,-15,-0,0.69,0.72,95,,,,,,,,,,,,,,,,,,,
4278,0,0.0656,2.45,1.98,,,-0.35,0.22,-0.53,-2,-17,-3,0.67,0.72,93,,,,,,,,,,,,,,,,,,,
4288,0,0.0658,2.45,1.87,1.46,,-0.21,0.11,-0.6,-1,-19,-7,0.64,0.72,89,,0,0,,,,,,,,,,,,,,,,
4298,0,0.0659,2.41,1.75,,,-0.14,-0.01,-0.49,-2,-20,-8,0.51,0.72,70,,,,,,,,,,,,,,,,,,,
4308,0,0.0661,2.45,1.71,1.47,,-0.08,-0.11,-0.47,-1,-21,-9,0.49,0.72,68,,,,,,,,,,,,,,,,,,,
4318,0,0.0662,2.43,1.73,,,-0.0,0.01,-0.47,-1,-22,-9,0.47,0.72,65,,,,,,,,,,,,,,,,,,,
4328,0,0.0664,2.49,1.73,1.47,12.78,0.1,-0.04,-0.4,-1,-22,-10,0.42,0.72,58,0,0,0,0.0,0.0,0.0,0.0,0,0,0.0,0,0.0,-1,0.0,0,0.0,0.0664,0.0,0.0
4338,0,0.0666,2.49,1.74,,,0.09,-0.05,-0.35,-1,-21,-11,0.36,0.72,50,,,,,,,,,,,,,,,,,,,
4348,0,0.0668,2.49,1.75,1.47,,0.12,-0.09,-0.31,-1,-20,-11,0.35,0.72,48,,,,,,,,,,,,,,,,,,,
4358,0,0.0669,2.48,1.76,,,0.13,-0.21,-0.25,-1,-19,-10,0.35,0.72,48,,,,,,,,,,,,,,,,,,,
4368,0,0.0671,2.42,1.72,1.44,,0.25,-0.29,-0.2,-0,-18,-9,0.43,0.72,60,,0,0,,,,,,,,,,,,,,,,
4378,0,0.0672,2.42,1.72,,,0.25,-0.31,-0.21,-0,-16,-8,0.45,0.72,62,,,,,,,,,,,,,,,,,,,
4388,0,0.0674,2.43,1.71,1.44,,0.32,-0.34,-0.21,0,-14,-6,0.51,0.72,71,,,,,,,,,,,,,,,,,,,
4398,0,0.0676,2.39,1.73,,,0.28,-0.39,-0.18,1,-12,-5,0.52,0.72,72,,,,,,,,,,,,,,,,,,,
4408,0,0.0678,2.43,1.75,1.43,,0.36,-0.38,-0.19,1,-10,-4,0.56,0.72,77,,0,0,,,,,,,,,,,,,,,,
4418,0,0.0679,2.45,1.78,,,0.33,-0.29,-0.12,2,-7,-2,0.45,0.72,63,,,,,,,,,,,,,,,,,,,
4428,0,0.0681,2.45,1.82,1.46,,0.37,-0.24,-0.12,3,-5,-2,0.46,0.72,64,,,,0.0,0.0,0.0,0.0,0,0,0.0,0,0.0,-1,0.0,0,0.0,0.0681,0.0,0.0
4438,0,0.0682,2.44,1.81,,,0.37,-0.12,-0.09,3,-3,-1,0.4,0.72,55,,,,,,,,,,,,,,,,,,,
4448,0,0.0684,2.49,1.86,1.47,,0.35,-0.11,-0.08,4,-1,-2,0.37,0.72,52,,0,0,,,,,,,,,,,,,,,,
4458,0,0.0686,2.49,1.88,,,0.28,-0.07,0.01,5,1,-1,0.29,0.72,40,,,,,,,,,,,,,,,,,,,
4468,0,0.0688,2.48,1.88,1.45,,0.19,-0.01,0.06,5,4,-2,0.2,0.72,28,,,,,,,,,,,,,,,,,,,
4478,0,0.0689,2.49,1.88,,,0.24,-0.01,0.08,5,6,-3,0.25,0.72,34,,,,,,,,,,,,,,,,,,,
4488,0,0.0691,2.55,1.93,1.46,,0.13,0.01,0.09,5,8,-4,0.16,0.72,22,,0,0,,,,,,,,,,,,,,,,
4498,0,0.0692,2.55,1.95,,,0.08,-0.01,0.11,6,10,-5,0.14,0.72,19,,,,,,,,,,,,,,,,,,,
4508,0,0.0694,2.6,1.97,1.46,,-0.01,-0.01,0.06,6,11,-6,0.06,0.72,8,,,,,,,,,,,,,,,,,,,
4518,0,0.0696,2.57,1.96,,,0.02,-0.04,-0.02,6,11,-7,0.05,0.72,7,,,,,,,,,,,,,,,,,,,
4528,0,0.0698,2.61,1.95,1.46,,-0.05,-0.11,0.01,7,12,-8,0.12,0.72,16,,0,0,0.0,0.0,0.0,0.0,0,0,0.0,0,0.0,-1,0.0,0,0.0,0.0698,0.0,0.0
4538,0,0.0699,2.67,1.97,,,-0.1,-0.14,-0.02,7,12,-8,0.17,0.72,24,,,,,,,,,,,,,,,,,,,
4548,0,0.0701,2.68,1.97,1.47,,-0.16,-0.2,-0.05,7,13,-8,0.26,0.72,36,,,,,,,,,,,,,,,,,,,
4558,0,0.0702,2.7,1.96,,,-0.15,-0.19,-0.09,7,13,-8,0.26,0.72,35,,,,,,,,,,,,,,,,,,,
4568,0,0.0704,2.7,1.94,1.43,,-0.22,-0.23,-0.08,8,13,-8,0.33,0.72,46,,0,0,,,,,,,,,,,,,,,,
4578,0,0.0706,2.7,1.94,,,-0.27,-0.23,-0.07,8,12,-8,0.36,0.72,50,,,,,,,,,,,,,,,,,,,
4588,0,0.0708,2.71,1.97,1.46,,-0.29,-0.23,-0.06,8,12,-7,0.38,0.72,52,,,,,,,,,,,,,,,,,,,
4598,0,0.0709,2.73,1.97,,,-0.29,-0.21,-0.08,8,11,-7,0.37,0.72,51,,,,,,,,,,,,,,,,,,,
4608,0,0.0711,2.71,1.95,1.43,,-0.32,-0.2,-0.08,8,10,-7,0.39,0.72,54,,0,0,,,,,,,,,,,,,,,,
4618,0,0.0712,2.72,1.96,,,-0.34,-0.18,-0.04,8,9,-7,0.39,0.72,54,,,,,,,,,,,,,,,,,,,
4628,0,0.0714,2.72,1.97,1.46,,-0.34,-0.16,-0.06,8,7,-7,0.38,0.72,52,,,,0.0,0.0,0.0,0.0,0,0,0.0,0,0.0,-1,0.0,0,0.0,0.0714,0.0,0.0
4638,0,0.0716,2.71,1.96,,,-0.36,-0.16,-0.1,8,6,-7,0.4,0.72,56,,,,,,,,,,,,,,,,,,,
4648,0,0.0718,2.71,1.97,1.46,,-0.34,-0.11,-0.14,8,5,-7,0.38,0.72,53,,0,0,,,,,,,,,,,,,,,,
4658,0,0.0719,2.72,1.97,,,-0.39,-0.12,-0.12,8,4,-8,0.43,0.72,59,,,,,,,,,,,,,,,,,,,
4668,0,0.0721,2.71,1.94,1.44,,-0.42,-0.12,-0.11,8,3,-8,0.45,0.72,62,,,,,,,,,,,,,,,,,,,
4678,0,0.0722,2.67,1.92,,,-0.4,-0.17,-0.16,8,2,-8,0.47,0.72,64,,,,,,,,,,,,,,,,,,,
4688,0,0.0724,2.67,1.91,1.44,,-0.38,-0.23,-0.15,8,2,-8,0.47,0.72,65,,0,0,,,,,,,,,,,,,,,,
4698,0,0.0726,2.67,1.91,,,-0.41,-0.22,-0.1,7,1,-8,0.48,0.72,66,,,,,,,,,,,,,,,,,,,
4708,0,0.0728,2.69,1.88,1.46,,-0.41,-0.25,-0.09,7,-0,-8,0.49,0.72,68,,,,,,,,,,,,,,,,,,,
4718,0,0.0729,2.66,1.9,,,-0.35,-0.24,-0.07,8,-2,-8,0.43,0.72,60,,,,,,,,,,,,,,,,,,,
4728,0,0.0731,2.68,1.89,1.46,,-0.31,-0.25,-0.04,7,-3,-8,0.4,0.72,55,,0,0,0.0,0.0,0.0,0.0,0,0,0.0,0,0.0,-1,0.0,0,0.0,0.0731,0.0,0.0
4738,0,0.0733,2.67,1.86,,,-0.27,-0.26,-0.06,7,-4,-7,0.38,0.72,53,,,,,,,,,,,,,,,,,,,
4748,0,0.0734,2.61,1.8,1.45,,-0.29,-0.3,-0.05,7,-5,-7,0.42,0.72,59,,,,,,,,,,,,,,,,,,,
4758,0,0.0736,2.56,1.74,,,-0.26,-0.35,-0.06,7,-5,-6,0.44,0.72,61,,,,,,,,,,,,,,,,,,,
4768,0,0.0737,2.52,1.69,1.46,,-0.18,-0.38,-0.1,7,-5,-5,0.43,0.72,60,,0,0,,,,,,,,,,,,,,,,
4778,0,0.0739,2.44,1.62,,,-0.05,-0.42,-0.04,7,-5,-3,0.42,0.72,58,,,,,,,,,,,,,,,,,,,
4788,0,0.0741,2.36,1.58,1.46,,0.0,-0.45,0.06,6,-4,-2,0.45,0.72,62,,,,,,,,,,,,,,,,,,,
4798,0,0.0742,2.3,1.57,,,0.1,-0.45,0.15,6,-3,-1,0.49,0.72,68,,,,,,,,,,,,,,,,,,,
4808,0,0.0744,2.26,1.58,1.45,,0.17,-0.34,0.22,7,-2,-1,0.44,0.72,61,,0,0,,,,,,,,,,,,,,,,
4818,0,0.0746,2.21,1.61,,,0.27,-0.23,0.31,7,0,-1,0.47,0.72,65,,,,,,,,,,,,,,,,,,,
4828,0,0.0748,2.22,1.72,1.43,,0.29,-0.12,0.31,8,2,-2,0.44,0.72,61,,,,0.0,0.0,0.0,0.0,0,0,0.0,0,0.0,-1,0.0,0,0.0,0.0748,0.0,0.0
4838,0,0.0749,2.3,1.86,,,0.25,-0.02,0.36,8,4,-3,0.44,0.72,61,,,,,,,,,,,,,,,,,,,
4848,0,0.0751,2.37,1.91,1.45,,0.2,0.02,0.38,8,7,-5,0.44,0.72,60,,0,0,,,,,,,,,,,,,,,,
4858,0,0.0752,2.54,2.03,,,0.2,0.08,0.25,8,9,-6,0.32,0.72,45,,,,,,,,,,,,,,,,,,,
4868,0,0.0754,2.6,2.12,1.44,,0.18,0.06,0.21,8,10,-8,0.28,0.72,38,,,,,,,,,,,,,,,,,,,
4878,0,0.0756,2.76,2.24,,,0.05,-0.06,0.26,8,11,-9,0.27,0.72,37,,,,,,,,,,,,,,,,,,,
4888,0,0.0758,2.86,2.36,1.46,,-0.01,-0.18,0.24,8,13,-9,0.3,0.72,41,,0,0,,,,,,,,,,,,,,,,
4898,0,0.0759,2.88,2.39,,,-0.13,-0.29,0.08,9,13,-8,0.33,0.72,45,,,,,,,,,,,,,,,,,,,
4908,0,0.0761,2.89,2.46,1.46,,-0.16,-0.16,0.04,8,12,-7,0.23,0.72,32,,,,,,,,,,,,,,,,,,,
4918,0,0.0762,2.85,2.41,,,-0.21,-0.27,0.08,8,13,-6,0.35,0.72,48,,,,,,,,,,,,,,,,,,,
4928,0,0.0764,2.79,2.41,1.46,,-0.2,-0.18,0.03,8,11,-5,0.28,0.72,38,,0,0,0.0,0.0,0.0,0.0,0,0,0.0,0,0.0,-1,0.0,0,0.0,0.0764,0.0,0.0
4938,0,0.0766,2.77,2.37,,,-0.28,-0.22,0.01,8,11,-3,0.36,0.72,50,,,,,,,,,,,,,,,,,,,
4948,0,0.0768,2.71,2.33,1.45,,-0.26,-0.23,-0.0,8,11,-2,0.35,0.72,48,,,,,,,,,,,,,,,,,,,
4958,0,0.0769,2.66,2.3,,,-0.26,-0.19,0.04,8,10,-1,0.33,0.72,45,,,,,,,,,,,,,,,,,,,
4968,0,0.0771,2.62,2.24,1.45,,-0.22,-0.23,0.09,8,10,0,0.33,0.72,46,,0,0,,,,,,,,,,,,,,,,
4978,0,0.0772,2.6,2.19,,,-0.28,-0.25,0.15,7,9,1,0.4,0.72,56,,,,,,,,,,,,,,,,,,,
4988,0,0.0774,2.61,2.18,1.46,,-0.24,-0.23,0.15,6,8,2,0.36,0.72,50,,,,,,,,,,,,,,,,,,,
4998,0,0.0776,2.59,2.16,,,-0.33,-0.24,0.16,6,6,3,0.44,0.72,61,,,,,,,,,,,,,,,,,,,
5008,0,0.0778,2.56,2.1,1.43,,-0.39,-0.26,0.13,6,4,4,0.48,0.72,66,,0,0,,,,,,,,,,,,,,,,
5018,0,0.0779,2.62,2.1,,,-0.39,-0.2,0.12,5,1,5,0.46,0.72,63,,,,,,,,,,,,,,,,,,,
5028,0,0.0781,2.65,2.08,1.46,,-0.33,-0.21,0.13,5,-3,5,0.41,0.72,56,,,,0.0,0.0,0.0,0.0,0,0,0.0,0,0.0,-1,0.0,0,0.0,0.0781,0.0,0.0
5038,0,0.0782,2.66,2.05,,,-0.38,-0.08,0.02,5,-6,4,0.39,0.72,54,,,,,,,,,,,,,,,,,,,
5048,0,0.0784,2.68,1.99,1.43,,-0.45,0.05,-0.03,5,-10,3,0.46,0.72,63,,0,0,,,,,,,,,,,,,,,,
5058,0,0.0786,2.73,1.95,,,-0.46,0.07,-0.05,5,-13,1,0.47,0.72,65,,,,,,,,,,,,,,,,,,,
5068,0,0.0788,2.85,1.91,1.46,,-0.45,0.18,-0.13,4,-15,-1,0.5,0.72,69,,,,,,,,,,,,,,,,,,,
5078,0,0.0789,2.86,1.9,,,-0.37,0.18,-0.22,4,-18,-3,0.46,0.72,64,,,,,,,,,,,,,,,,,,,
5088,0,0.0791,2.85,1.89,1.45,,-0.29,0.13,-0.2,3,-22,-5,0.38,0.72,52,,0,0,,,,,,,,,,,,,,,,
5098,0,0.0792,2.81,1.93,,,-0.25,0.01,-0.18,2,-23,-6,0.31,0.72,43,,,,,,,,,,,,,,,,,,,
5108,0,0.0794,2.71,1.94,1.43,,-0.29,-0.11,-0.16,0,-24,-5,0.34,0.72,47,,,,,,,,,,,,,,,,,,,
5118,0,0.0796,2.67,2.03,,,-0.15,0.02,-0.12,0,-25,-4,0.19,0.72,27,,,,,,,,,,,,,,,,,,,
5128,0,0.0798,2.58,2.01,1.44,,-0.17,0.13,-0.21,-0,-25,-4,0.3,0.72,41,,0,0,0.0,0.0,0.0,0.0,0,0,0.0,0,0.0,-1,0.0,0,0.0,0.0798,0.0,0.0
5138,0,0.0799,2.5,1.95,,,-0.13,0.07,-0.18,-1,-26,-4,0.23,0.72,32,,,,,,,,,,,,,,,,,,,
5148,0,0.0801,2.48,1.86,1.41,,-0.1,0.09,-0.11,-1,-26,-5,0.18,0.72,24,,,,,,,,,,,,,,,,,,,
5158,0,0.0802,2.46,1.76,,,0.0,0.11,-0.15,-1,-26,-5,0.19,0.72,26,,,,,,,,,,,,,,,,,,,
5168,0,0.0804,2.45,1.71,1.43,,0.06,-0.01,-0.14,-1,-26,-5,0.15,0.72,21,,0,0,,,,,,,,,,,,,,,,
5178,0,0.0806,2.52,1.71,,,0.15,-0.04,-0.08,-1,-26,-4,0.17,0.72,23,,,,,,,,,,,,,,,,,,,
5188,0,0.0808,2.52,1.67,1.42,,0.16,-0.08,-0.13,-1,-25,-4,0.22,0.72,30,,,,,,,,,,,,,,,,,,,
5198,0,0.0809,2.53,1.69,,,0.28,-0.04,-0.16,-1,-25,-3,0.33,0.72,45,,,,,,,,,,,,,,,,,,,
5208,0,0.0811,2.51,1.69,1.41,,0.29,-0.03,-0.19,-1,-24,-3,0.35,0.72,48,,0,0,,,,,,,,,,,,,,,,
5218,0,0.0812,2.5,1.72,,,0.32,-0.01,-0.18,-1,-23,-2,0.37,0.72,51,,,,,,,,,,,,,,,,,,,
5228,0,0.0814,2.47,1.74,1.46,,0.3,-0.04,-0.18,-1,-22,-2,0.35,0.72,49,,,,0.0,0.0,0.0,0.0,0,0,0.0,0,0.0,-1,0.0,0,0.0,0.0814,0.0,0.0
5238,0,0.0816,2.44,1.73,,,0.41,-0.05,-0.12,-1,-20,-2,0.43,0.72,59,,,,,,,,,,,,,,,,,,,
5248,0,0.0818,2.4,1.69,1.46,,0.46,-0.07,-0.03,-1,-17,-1,0.46,0.72,64,,0,0,,,,,,,,,,,,,,,,
5258,0,0.0819,2.39,1.72,,,0.51,-0.07,0.0,-0,-15,-0,0.52,0.72,71,,,,,,,,,,,,,,,,,,,
5268,0,0.0821,2.44,1.73,1.46,,0.51,-0.09,-0.01,0,-13,1,0.52,0.72,72,,,,,,,,,,,,,,,,,,,
5278,0,0.0822,2.42,1.7,,,0.53,-0.09,-0.01,1,-10,2,0.54,0.72,75,,,,,,,,,,,,,,,,,,,
5288,0,0.0824,2.44,1.71,1.42,,0.53,-0.1,0.03,2,-7,2,0.54,0.72,74,,0,0,,,,,,,,,,,,,,,,
5298,0,0.0826,2.46,1.73,,,0.51,-0.07,0.03,2,-5,3,0.52,0.72,72,,,,,,,,,,,,,,,,,,,
5308,0,0.0828,2.5,1.73,1.43,,0.55,-0.06,0.05,3,-2,3,0.56,0.72,77,,,,,,,,,,,,,,,,,,,
5318,0,0.0829,2.49,1.73,,,0.52,-0.06,0.05,4,0,4,0.52,0.72,73,,,,,,,,,,,,,,,,,,,
5328,0,0.0831,2.51,1.79,1.46,12.77,0.46,-0.02,0.11,4,3,4,0.47,0.72,65,0,0,0,0.0,0.0,0.0,0.0,0,0,0.0,0,0.0,-1,0.0,0,0.0,0.0831,0.0,0.0
5338,0,0.0832,2.52,1.81,,,0.42,0.02,0.17,4,6,4,0.45,0.72,62,,,,,,,,,,,,,,,,,,,
5348,0,0.0834,2.55,1.83,1.46,,0.42,0.01,0.13,5,8,3,0.44,0.72,61,,,,,,,,,,,,,,,,,,,
5358,0,0.0836,2.56,1.85,,,0.36,0.06,0.1,5,10,3,0.38,0.72,52,,,,,,,,,,,,,,,,,,,
5368,0,0.0838,2.59,1.89,1.45,,0.3,0.06,0.15,5,12,2,0.34,0.72,47,,0,0,,,,,,,,,,,,,,,,
5378,0,0.0839,2.58,1.86,,,0.27,0.06,0.16,6,13,2,0.32,0.72,44,,,,,,,,,,,,,,,,,,,
5388,0,0.0841,2.63,1.94,1.46,,0.24,0.02,0.16,6,15,2,0.29,0.72,41,,,,,,,,,,,,,,,,,,,
5398,0,0.0843,2.67,1.92,,,0.2,0.03,0.13,7,15,1,0.24,0.72,34,,,,,,,,,,,,,,,,,,,
5408,0,0.0844,2.66,1.93,1.43,,0.11,-0.0,0.11,7,16,1,0.16,0.72,22,,0,0,,,,,,,,,,,,,,,,
5418,0,0.0846,2.72,1.97,,,0.02,0.03,0.09,8,16,1,0.09,0.72,13,,,,,,,,,,,,,,,,,,,
5428,0,0.0847,2.74,1.99,1.46,,-0.05,0.03,0.04,7,16,1,0.07,0.72,10,,,,0.0,0.0,0.0,0.0,0,0,0.0,0,0.0,-1,0.0,0,0.0,0.0847,0.0,0.0
5438,0,0.0849,2.74,1.98,,,-0.07,0.07,-0.05,8,15,1,0.11,0.72,15,,,,,,,,,,,,,,,,,,,
5448,0,0.0851,2.69,1.97,1.43,,-0.16,0.11,-0.06,7,15,0,0.2,0.72,27,,0,0,,,,,,,,,,,,,,,,
5458,0,0.0852,2.7,1.96,,,-0.23,0.11,-0.03,7,15,0,0.26,0.72,35,,,,,,,,,,,,,,,,,,,
5468,0,0.0854,2.66,1.95,1.46,,-0.21,0.09,0.03,7,14,-0,0.23,0.72,32,,,,,,,,,,,,,,,,,,,
5478,0,0.0856,2.58,1.81,,,-0.23,0.05,0.01,6,14,-0,0.24,0.72,33,,,,,,,,,,,,,,,,,,,
5488,0,0.0858,2.52,1.7,1.44,,-0.2,-0.02,-0.03,6,13,-0,0.2,0.72,28,,0,0,,,,,,,,,,,,,,,,
5498,0,0.0859,2.45,1.56,,,-0.17,-0.06,-0.04,5,12,0,0.18,0.72,25,,,,,,,,,,,,,,,,,,,
5508,0,0.0861,2.39,1.46,1.45,,-0.08,-0.18,0.06,4,11,2,0.2,0.72,28,,,,,,,,,,,,,,,,,,,
5518,0,0.0862,2.33,1.41,,,0.04,-0.29,0.13,4,11,4,0.32,0.72,45,,,,,,,,,,,,,,,,,,,
5528,0,0.0864,2.24,1.44,1.44,,0.17,-0.16,0.09,3,12,7,0.25,0.72,34,,0,0,0.0,0.0,0.0,0.0,0,0,0.0,0,0.0,-1,0.0,0,0.0,0.0864,0.0,0.0
5538,0,0.0866,2.26,1.52,,,0.19,-0.06,0.19,2,14,8,0.27,0.72,38,,,,,,,,,,,,,,,,,,,
5548,0,0.0868,2.22,1.61,1.44,,0.07,0.04,0.28,2,16,9,0.29,0.72,40,,,,,,,,,,,,,,,,,,,
5558,0,0.0869,2.24,1.72,,,0.04,0.16,0.16,2,18,7,0.23,0.72,31,,,,,,,,,,,,,,,,,,,
5568,0,0.0871,2.3,1.83,1.42,,0.02,0.04,0.15,2,20,6,0.15,0.72,21,,0,0,,,,,,,,,,,,,,,,
5578,0,0.0872,2.35,1.92,,,0.01,0.16,0.19,2,22,4,0.25,0.72,34,,,,,,,,,,,,,,,,,,,
5588,0,0.0874,2.46,2.06,1.46,,-0.07,0.13,0.19,1,23,1,0.24,0.72,33,,,,,,,,,,,,,,,,,,,
5598,0,0.0876,2.54,2.15,,,-0.11,0.15,0.23,1,24,-1,0.3,0.72,41,,,,,,,,,,,,,,,,,,,
5608,0,0.0878,2.55,2.21,1.43,,-0.05,0.18,0.21,1,24,-3,0.28,0.72,39,,0,0,,,,,,,,,,,,,,,,
5618,0,0.0879,2.63,2.32,,,-0.07,0.16,0.17,1,25,-5,0.24,0.72,34,,,,,,,,,,,,,,,,,,,
5628,0,0.0881,2.7,2.41,1.46,,-0.1,0.13,0.08,0,26,-7,0.18,0.72,25,,,,0.0,0.0,0.0,0.0,0,0,0.0,0,0.0,-1,0.0,0,0.0,0.0881,0.0,0.0
5638,0,0.0882,2.77,2.45,,,-0.21,0.04,-0.02,-0,26,-8,0.22,0.72,30,,,,,,,,,,,,,,,,,,,
5648,0,0.0884,2.85,2.47,1.46,,-0.27,0.1,-0.05,0,25,-10,0.29,0.72,40,,0,0,,,,,,,,,,,,,,,,
5658,0,0.0886,2.87,2.45,,,-0.34,-0.02,-0.08,1,24,-11,0.35,0.72,48,,,,,,,,,,,,,,,,,,,
5668,0,0.0888,2.76,2.39,1.42,,-0.36,-0.14,-0.06,1,23,-11,0.39,0.72,54,,,,,,,,,,,,,,,,,,,
5678,0,0.0889,2.83,2.36,,,-0.38,-0.13,0.04,1,22,-10,0.4,0.72,55,,,,,,,,,,,,,,,,,,,
5688,0,0.0891,2.77,2.32,1.43,,-0.37,-0.24,0.03,1,20,-9,0.44,0.72,61,,0,0,,,,,,,,,,,,,,,,
5698,0,0.0892,2.71,2.3,,,-0.38,-0.31,-0.05,-0,17,-6,0.49,0.72,68,,,,,,,,,,,,,,,,,,,
5708,0,0.0894,2.69,2.33,1.45,,-0.44,-0.42,-0.16,-2,15,-3,0.62,0.72,86,,,,,,,,,,,,,,,,,,,
5718,0,0.0896,2.6,2.37,,,-0.48,-0.52,-0.13,-4,12,3,0.72,0.72,100,,,,,,,,,,,,,,,,,,,
5728,0,0.0898,2.53,2.38,1.44,,-0.49,-0.43,-0.18,-5,8,8,0.68,0.72,94,,0,0,0.0,0.0,0.0,0.0,0,0,0.0,0,0.0,-1,0.0,0,0.0,0.0898,0.0,0.0
5738,0,0.0899,2.46,2.39,,,-0.59,-0.3,-0.27,-5,4,12,0.72,0.72,99,,,,,,,,,,,,,,,,,,,
5748,0,0.0901,2.42,2.38,1.45,,-0.61,-0.16,-0.26,-5,-0,14,0.68,0.72,95,,,,,,,,,,,,,,,,,,,
5758,0,0.0902,2.37,2.3,,,-0.58,-0.04,-0.15,-5,-3,14,0.6,0.72,83,,,,,,,,,,,,,,,,,,,
5768,0,0.0904,2.49,2.26,1.45,,-0.62,0.09,-0.07,-5,-7,12,0.63,0.72,87,,0,0,,,,,,,,,,,,,,,,
5778,0,0.0906,2.55,2.17,,,-0.62,0.12,-0.1,-6,-11,11,0.64,0.72,88,,,,,,,,,,,,,,,,,,,
5788,0,0.0908,2.67,2.1,1.42,,-0.69,0.24,-0.15,-6,-15,8,0.74,0.74,100,,,,,,,,,,,,,,,,,,,
5798,0,0.0909,2.8,2.07,,,-0.62,0.2,-0.07,-6,-18,6,0.66,0.74,89,,,,,,,,,,,,,,,,,,,
5808,0,0.0911,2.89,2.04,1.45,,-0.48,0.08,-0.22,-5,-23,5,0.53,0.74,71,,0,0,,,,,,,,,,,,,,,,
5818,0,0.0912,2.88,2.01,,,-0.58,-0.05,-0.13,-7,-27,6,0.6,0.74,81,,,,,,,,,,,,,,,,,,,
5828,0,0.0914,2.83,2.0,1.42,,-0.56,0.01,-0.13,-8,-31,8,0.57,0.74,77,,,,0.0,0.0,0.0,0.0,0,0,0.0,0,0.0,-1,0.0,0,0.0,0.0914,0.0,0.0
5838,0,0.0916,2.8,2.04,,,-0.47,0.13,-0.23,-9,-34,10,0.54,0.74,73,,,,,,,,,,,,,,,,,,,
5848,0,0.0918,2.76,2.03,1.45,,-0.42,0.09,-0.17,-10,-37,11,0.46,0.74,62,,0,0,,,,,,,,,,,,,,,,
5858,0,0.0919,2.66,2.02,,,-0.38,0.2,-0.07,-11,-40,12,0.44,0.74,59,,,,,,,,,,,,,,,,,,,
5868,0,0.0921,2.55,2.07,1.45,,-0.33,0.17,-0.21,-12,-42,11,0.42,0.74,57,,,,,,,,,,,,,,,,,,,
5878,0,0.0922,2.53,2.08,,,-0.28,0.08,-0.27,-13,-45,12,0.39,0.74,53,,,,,,,,,,,,,,,,,,,
5888,0,0.0924,2.47,2.09,1.43,,-0.29,0.09,-0.17,-13,-46,12,0.35,0.74,47,,0,0,,,,,,,,,,,,,,,,
5898,0,0.0926,2.41,2.08,,,-0.22,0.18,-0.14,-14,-48,11,0.32,0.74,43,,,,,,,,,,,,,,,,,,,
5908,0,0.0928,2.4,2.13,1.45,,-0.2,0.24,-0.17,-14,-49,11,0.36,0.74,48,,,,,,,,,,,,,,,,,,,
5918,0,0.0929,2.36,2.12,,,-0.14,0.28,-0.22,-14,-50,10,0.38,0.74,52,,,,,,,,,,,,,,,,,,,
5928,0,0.0931,2.4,2.13,1.46,,-0.08,0.31,-0.23,-15,-52,8,0.4,0.74,54,,0,0,0.0,0.0,0.0,0.0,0,0,0.0,0,0.0,-1,0.0,0,0.0,0.0931,0.0,0.0
5938,0,0.0932,2.37,2.05,,,-0.03,0.29,-0.28,-15,-53,7,0.4,0.74,54,,,,,,,,,,,,,,,,,,,
5948,0,0.0934,2.39,2.03,1.45,,0.0,0.3,-0.25,-15,-53,5,0.39,0.74,53,,,,,,,,,,,,,,,,,,,
5958,0,0.0936,2.35,1.92,,,0.05,0.39,-0.24,-15,-54,3,0.46,0.74,62,,,,,,,,,,,,,,,,,,,
5968,0,0.0938,2.35,1.83,1.45,,0.11,0.44,-0.21,-15,-54,1,0.5,0.74,67,,0,0,,,,,,,,,,,,,,,,
5978,0,0.0939,2.32,1.72,,,0.16,0.51,-0.26,-15,-55,-2,0.59,0.74,80,,,,,,,,,,,,,,,,,,,
5988,0,0.0941,2.32,1.62,1.45,,0.25,0.54,-0.23,-16,-54,-5,0.64,0.74,86,,,,,,,,,,,,,,,,,,,
5998,0,0.0942,2.29,1.5,,,0.28,0.57,-0.17,-16,-54,-8,0.66,0.74,89,,,,,,,,,,,,,,,,,,,
6008,0,0.0944,2.34,1.45,1.45,,0.35,0.54,-0.19,-16,-53,-11,0.67,0.74,90,,0,0,,,,,,,,,,,,,,,,
6018,0,0.0946,2.35,1.4,,,0.41,0.45,-0.18,-16,-52,-13,0.63,0.74,85,,,,,,,,,,,,,,,,,,,
6028,0,0.0948,2.39,1.4,1.46,,0.48,0.48,-0.14,-16,-50,-16,0.7,0.74,94,,,,0.0,0.0,0.0,0.0,0,0,0.0,0,0.0,-1,0.0,0,0.0,0.0948,0.0,0.0
6038,0,0.0949,2.39,1.4,,,0.54,0.48,-0.14,-17,-48,-19,0.74,0.74,100,,,,,,,,,,,,,,,,,,,
6048,0,0.0951,2.41,1.43,1.46,,0.55,0.56,-0.13,-17,-46,-22,0.8,0.8,100,,0,0,,,,,,,,,,,,,,,,
6058,0,0.0952,2.43,1.41,,,0.63,0.63,-0.21,-17,-43,-25,0.91,0.91,100,,,,,,,,,,,,,,,,,,,
6068,0,0.0954,2.45,1.39,1.42,,0.63,0.6,-0.24,-17,-41,-27,0.91,0.91,99,,,,,,,,,,,,,,,,,,,
6078,0,0.0956,2.42,1.38,,,0.69,0.47,-0.29,-17,-38,-30,0.88,0.91,96,,,,,,,,,,,,,,,,,,,
6088,0,0.0957,2.45,1.35,1.42,,0.67,0.33,-0.22,-17,-34,-32,0.78,0.91,86,,0,0,,,,,,,,,,,,,,,,
6098,0,0.0959,2.49,1.33,,,0.78,0.3,-0.22,-17,-31,-33,0.86,0.91,94,,,,,,,,,,,,,,,,,,,
6108,0,0.0961,2.58,1.37,1.46,,0.82,0.19,-0.24,-17,-27,-34,0.87,0.91,96,,,,,,,,,,,,,,,,,,,
6118,0,0.0962,2.6,1.36,,,0.83,0.18,-0.23,-17,-23,-35,0.88,0.91,97,,,,,,,,,,,,,,,,,,,
6128,0,0.0964,2.67,1.38,1.46,,0.78,0.18,-0.18,-17,-19,-36,0.82,0.91,90,,0,0,0.0,0.0,0.0,0.0,0,0,0.0,0,0.0,-1,0.0,0,0.0,0.0964,0.0,0.0
6138,0,0.0966,2.7,1.38,,,0.88,0.09,-0.21,-17,-15,-36,0.91,0.91,100,,,,,,,,,,,,,,,,,,,
6148,0,0.0968,2.73,1.36,1.41,,0.82,-0.02,-0.26,-17,-11,-36,0.86,0.91,94,,,,,,,,,,,,,,,,,,,
6158,0,0.0969,2.79,1.41,,,0.84,-0.14,-0.25,-17,-8,-36,0.89,0.91,97,,,,,,,,,,,,,,,,,,,
6168,0,0.0971,2.81,1.41,1.46,,0.73,-0.24,-0.18,-17,-4,-35,0.79,0.91,87,,0,0,,,,,,,,,,,,,,,,
6178,0,0.0972,2.81,1.43,,,0.71,-0.35,-0.16,-17,-0,-33,0.81,0.91,88,,,,,,,,,,,,,,,,,,,
6188,0,0.0974,2.81,1.45,1.44,,0.66,-0.45,-0.2,-17,3,-31,0.83,0.91,90,,,,,,,,,,,,,,,,,,,
6198,0,0.0976,2.71,1.44,,,0.59,-0.56,-0.16,-17,7,-28,0.83,0.91,91,,,,,,,,,,,,,,,,,,,
6208,0,0.0978,2.76,1.49,1.44,,0.66,-0.66,-0.18,-16,9,-24,0.95,0.95,100,,0,0,,,,,,,,,,,,,,,,
6218,0,0.0979,2.69,1.5,,,0.58,-0.62,-0.23,-15,12,-20,0.88,0.95,92,,,,,,,,,,,,,,,,,,,
6228,0,0.0981,2.6,1.56,1.44,,0.59,-0.65,-0.29,-15,16,-16,0.93,0.95,97,,,,0.0,0.0,0.0,0.0,0,0,0.0,0,0.0,-1,0.0,0,0.0,0.0981,0.0,0.0
6238,0,0.0982,2.51,1.63,,,0.56,-0.65,-0.28,-14,19,-12,0.9,0.95,95,,,,,,,,,,,,,,,,,,,
6248,0,0.0984,2.37,1.67,1.45,,0.61,-0.53,-0.25,-14,22,-8,0.84,0.95,88,,0,0,,,,,,,,,,,,,,,,
6258,0,0.0986,2.24,1.72,,,0.56,-0.39,-0.23,-13,24,-6,0.71,0.95,75,,,,,,,,,,,,,,,,,,,
6268,0,0.0988,2.16,1.77,1.46,,0.59,-0.25,-0.24,-12,27,-5,0.68,0.95,72,,,,,,,,,,,,,,,,,,,
6278,0,0.0989,2.12,1.8,,,0.59,-0.12,-0.13,-11,30,-5,0.62,0.95,65,,,,,,,,,,,,,,,,,,,
6288,0,0.0991,2.14,1.81,1.46,,0.6,-0.11,-0.15,-9,34,-6,0.63,0.95,66,,0,0,,,,,,,,,,,,,,,,
6298,0,0.0993,2.21,1.81,,,0.52,-0.07,-0.24,-8,37,-7,0.58,0.95,61,,,,,,,,,,,,,,,,,,,
6308,0,0.0994,2.33,1.74,1.45,,0.44,-0.08,-0.31,-6,40,-9,0.54,0.95,57,,,,,,,,,,,,,,,,,,,
6318,0,0.0996,2.44,1.62,,,0.34,-0.2,-0.26,-4,41,-10,0.47,0.95,50,,,,,,,,,,,,,,,,,,,
6328,0,0.0998,2.59,1.49,1.46,12.72,0.25,-0.31,-0.2,-3,42,-10,0.45,0.95,47,0,0,0,0.0,0.0,0.0,0.0,0,0,0.0,0,0.0,-1,0.0,0,0.0,0.0998,0.0,0.0
6338,0,0.0999,2.69,1.38,,,0.22,-0.42,-0.2,-1,43,-8,0.51,0.95,54,,,,,,,,,,,,,,,,,,,
6348,0,0.1001,2.8,1.33,1.46,,0.24,-0.52,-0.21,1,44,-4,0.61,0.95,64,,,,,,,,,,,,,,,,,,,
6358,0,0.1002,2.87,1.36,,,0.27,-0.63,-0.29,2,47,2,0.74,0.95,78,,,,,,,,,,,,,,,,,,,
6368,0,0.1004,2.9,1.44,1.45,,0.15,-0.73,-0.43,4,48,7,0.85,0.95,90,,0,0,,,,,,,,,,,,,,,,
6378,0,0.1006,2.85,1.47,,,0.02,-0.58,-0.32,5,48,14,0.66,0.95,70,,,,,,,,,,,,,,,,,,,
6388,0,0.1008,2.85,1.56,1.46,,-0.05,-0.44,-0.46,5,47,19,0.64,0.95,67,,,,,,,,,,,,,,,,,,,
6398,0,0.1009,2.83,1.6,,,-0.1,-0.3,-0.55,5,47,23,0.64,0.95,67,,,,,,,,,,,,,,,,,,,
6408,0,0.1011,2.78,1.63,1.46,,-0.18,-0.17,-0.44,5,46,25,0.5,0.95,53,,0,0,,,,,,,,,,,,,,,,
6418,0,0.1012,2.71,1.6,,,-0.21,-0.04,-0.33,6,43,26,0.39,0.95,41,,,,,,,,,,,,,,,,,,,
6428,0,0.1014,2.75,1.65,1.46,,-0.32,0.09,-0.46,6,42,23,0.57,0.95,60,,,,0.0,0.0,0.0,0.0,0,0,0.0,0,0.0,-1,0.0,0,0.0,0.1014,0.0,0.0
6438,0,0.1016,2.79,1.64,,,-0.29,0.09,-0.51,5,40,20,0.59,0.95,63,,,,,,,,,,,,,,,,,,,
6448,0,0.1018,2.85,1.63,1.45,,-0.32,0.21,-0.4,6,36,17,0.55,0.95,58,,0,0,,,,,,,,,,,,,,,,
6458,0,0.1019,2.86,1.57,,,-0.43,0.33,-0.42,7,32,13,0.68,0.95,72,,,,,,,,,,,,,,,,,,,
6468,0,0.1021,2.85,1.5,1.44,,-0.45,0.32,-0.45,7,29,9,0.71,0.95,74,,,,,,,,,,,,,,,,,,,
6478,0,0.1022,2.81,1.45,,,-0.45,0.39,-0.48,7,25,4,0.76,0.95,80,,,,,,,,,,,,,,,,,,,
6488,0,0.1024,2.79,1.39,1.42,,-0.49,0.26,-0.39,8,21,-0,0.68,0.95,71,,0,0,,,,,,,,,,,,,,,,
6498,0,0.1026,2.79,1.35,,,-0.56,0.21,-0.34,8,16,-4,0.69,0.95,72,,,,,,,,,,,,,,,,,,,
6508,0,0.1028,2.72,1.33,1.43,,-0.56,0.09,-0.39,9,11,-7,0.69,0.95,72,,,,,,,,,,,,,,,,,,,
6518,0,0.1029,2.68,1.34,,,-0.49,0.04,-0.41,9,5,-10,0.64,0.95,67,,,,,,,,,,,,,,,,,,,
6528,0,0.1031,2.68,1.36,1.41,,-0.51,-0.04,-0.47,9,1,-13,0.7,0.95,73,,0,0,0.0,0.0,0.0,0.0,0,0,0.0,0,0.0,-1,0.0,0,0.0,0.1031,0.0,0.0
6538,0,0.1032,2.66,1.45,,,-0.53,-0.02,-0.49,10,-5,-15,0.72,0.95,76,,,,,,,,,,,,,,,,,,,
6548,0,0.1034,2.68,1.49,1.44,,-0.49,-0.14,-0.58,10,-11,-15,0.78,0.95,82,,,,,,,,,,,,,,,,,,,
6558,0,0.1036,2.62,1.55,,,-0.42,-0.25,-0.68,8,-13,-15,0.84,0.95,88,,,,,,,,,,,,,,,,,,,
6568,0,0.1038,2.59,1.67,1.45,,-0.47,-0.36,-0.68,7,-17,-13,0.91,0.95,95,,0,0,,,,,,,,,,,,,,,,
6578,0,0.1039,2.53,1.75,,,-0.46,-0.23,-0.69,7,-20,-11,0.86,0.95,90,,,,,,,,,,,,,,,,,,,
6588,0,0.1041,2.54,1.89,1.41,,-0.36,-0.11,-0.77,7,-25,-10,0.86,0.95,90,,,,,,,,,,,,,,,,,,,
6598,0,0.1042,2.57,1.99,,,-0.39,-0.12,-0.76,8,-29,-8,0.86,0.95,90,,,,,,,,,,,,,,,,,,,
6608,0,0.1044,2.54,2.01,1.36,,-0.41,0.01,-0.72,8,-32,-7,0.83,0.95,87,,0,0,,,,,,,,,,,,,,,,
6618,0,0.1046,2.67,2.15,,,-0.33,0.08,-0.8,8,-36,-7,0.87,0.95,91,,,,,,,,,,,,,,,,,,,
6628,0,0.1048,2.73,2.14,1.44,,-0.28,-0.0,-0.87,9,-39,-7,0.91,0.95,96,,,,0.0,0.0,0.0,0.0,0,0,0.0,0,0.0,-1,0.0,0,0.0,0.1048,0.0,0.0
6638,0,0.1049,2.78,2.05,,,-0.2,0.04,-0.9,9,-41,-7,0.92,0.95,97,,,,,,,,,,,,,,,,,,,
6648,0,0.1051,2.84,1.91,1.43,,-0.21,0.09,-0.91,10,-44,-7,0.93,0.95,98,,0,0,,,,,,,,,,,,,,,,
6658,0,0.1052,2.81,1.81,,,-0.26,0.1,-0.88,10,-47,-8,0.92,0.95,97,,,,,,,,,,,,,,,,,,,
6668,0,0.1054,2.77,1.67,1.45,,-0.15,0.22,-0.81,10,-50,-8,0.85,0.95,90,,,,,,,,,,,,,,,,,,,
6678,0,0.1056,2.67,1.49,,,-0.09,0.14,-0.79,10,-52,-9,0.8,0.95,84,,,,,,,,,,,,,,,,,,,
6688,0,0.1058,2.57,1.42,1.45,,-0.09,0.26,-0.75,9,-54,-8,0.8,0.95,84,,0,0,,,,,,,,,,,,,,,,
6698,0,0.1059,2.48,1.33,,,-0.01,0.14,-0.63,9,-56,-9,0.65,0.95,68,,,,,,,,,,,,,,,,,,,
6708,0,0.1061,2.42,1.27,1.42,,0.11,0.2,-0.54,10,-57,-9,0.59,0.95,62,,,,,,,,,,,,,,,,,,,
6718,0,0.1062,2.43,1.31,,,0.21,0.17,-0.62,10,-58,-9,0.68,0.95,71,,,,,,,,,,,,,,,,,,,
6728,0,0.1064,2.37,1.33,1.45,,0.32,0.24,-0.61,11,-58,-9,0.73,0.95,77,,0,0,0.0,0.0,0.0,0.0,0,0,0.0,0,0.0,-1,0.0,0,0.0,0.1064,0.0,0.0
6738,0,0.1066,2.46,1.4,,,0.26,0.28,-0.58,11,-58,-9,0.69,0.95,73,,,,,,,,,,,,,,,,,,,
6748,0,0.1068,2.47,1.42,1.43,,0.24,0.32,-0.58,11,-58,-10,0.7,0.95,74,,,,,,,,,,,,,,,,,,,
6758,0,0.1069,2.55,1.4,,,0.21,0.32,-0.56,12,-59,-11,0.68,0.95,71,,,,,,,,,,,,,,,,,,,
6768,0,0.1071,2.61,1.38,1.46,,0.29,0.38,-0.56,12,-58,-12,0.74,0.95,77,,0,0,,,,,,,,,,,,,,,,
6778,0,0.1072,2.59,1.31,,,0.31,0.33,-0.56,13,-59,-13,0.72,0.95,76,,,,,,,,,,,,,,,,,,,
6788,0,0.1074,2.62,1.28,1.45,,0.38,0.2,-0.5,13,-59,-14,0.66,0.95,70,,,,,,,,,,,,,,,,,,,
6798,0,0.1076,2.61,1.27,,,0.49,0.14,-0.48,14,-59,-15,0.7,0.95,74,,,,,,,,,,,,,,,,,,,
6808,0,0.1078,2.58,1.22,1.41,,0.59,0.18,-0.44,15,-59,-15,0.76,0.95,80,,0,0,,,,,,,,,,,,,,,,
6818,0,0.1079,2.57,1.27,,,0.61,0.16,-0.41,17,-58,-17,0.75,0.95,79,,,,,,,,,,,,,,,,,,,
6828,0,0.1081,2.55,1.25,1.44,,0.67,0.06,-0.34,18,-57,-17,0.76,0.95,79,,,,0.0,0.0,0.0,0.0,0,0,0.0,0,0.0,-1,0.0,0,0.0,0.1081,0.0,0.0
6838,0,0.1082,2.53,1.25,,,0.71,-0.01,-0.25,19,-56,-18,0.75,0.95,79,,,,,,,,,,,,,,,,,,,
6848,0,0.1084,2.57,1.26,1.46,,0.78,-0.07,-0.22,20,-55,-18,0.82,0.95,86,,0,0,,,,,,,,,,,,,,,,
6858,0,0.1086,2.54,1.22,,,0.78,-0.13,-0.21,21,-53,-18,0.82,0.95,86,,,,,,,,,,,,,,,,,,,
6868,0,0.1088,2.62,1.25,1.46,,0.87,-0.11,-0.13,21,-50,-18,0.88,0.95,93,,,,,,,,,,,,,,,,,,,
6878,0,0.1089,2.63,1.22,,,0.86,-0.17,-0.03,22,-48,-18,0.88,0.95,92,,,,,,,,,,,,,,,,,,,
6888,0,0.1091,2.69,1.25,1.45,,0.92,-0.19,-0.08,24,-45,-18,0.94,0.95,99,,0,0,,,,,,,,,,,,,,,,
6898,0,0.1092,2.71,1.26,,,0.93,-0.22,-0.11,25,-43,-18,0.96,0.96,100,,,,,,,,,,,,,,,,,,,
6908,0,0.1094,2.76,1.27,1.46,,0.96,-0.26,-0.16,26,-40,-18,1.01,1.01,100,,,,,,,,,,,,,,,,,,,
6918,0,0.1096,2.77,1.27,,,0.93,-0.32,-0.16,27,-37,-17,1.0,1.01,99,,,,,,,,,,,,,,,,,,,
6928,0,0.1098,2.82,1.29,1.46,,0.99,-0.34,-0.14,29,-34,-17,1.06,1.06,100,,0,0,0.0,0.0,0.0,0.0,0,0,0.0,0,0.0,-1,0.0,0,0.0,0.1098,0.0,0.0
6938,0,0.1099,2.81,1.29,,,0.95,-0.38,-0.15,30,-31,-16,1.04,1.06,98,,,,,,,,,,,,,,,,,,,
6948,0,0.1101,2.83,1.28,1.44,,0.97,-0.42,-0.17,32,-29,-15,1.07,1.07,100,,,,,,,,,,,,,,,,,,,
6958,0,0.1102,2.82,1.29,,,0.89,-0.41,-0.15,33,-26,-15,0.99,1.07,92,,,,,,,,,,,,,,,,,,,
6968,0,0.1104,2.79,1.29,1.45,,0.96,-0.38,-0.15,35,-23,-14,1.05,1.07,98,,0,0,,,,,,,,,,,,,,,,
6978,0,0.1106,2.79,1.3,,,0.96,-0.38,-0.17,36,-20,-13,1.04,1.07,97,,,,,,,,,,,,,,,,,,,
