"Interval"|"ms"|0|0|1,"Utc"|"ms"|0|0|1,"ElapsedTime"|"Min"|0.0|0.0|10,"Analog1"|"Volts"|0.0|5.0|100,"Analog3"|"Volts"|0.0|5.0|100,"Analog4"|"Volts"|0.0|5.0|50,"Battery"|"Volts"|0.0|20.0|1,"AccelX"|"G"|-3.0|3.0|100,"AccelY"|"G"|-3.0|3.0|100,"AccelZ"|"G"|-3.0|3.0|100,"Yaw"|"Deg/Sec"|-120|120|100,"Pitch"|"Deg/Sec"|-120|120|100,"Roll"|"Deg/Sec"|-120|120|100,"Gsum"|"G"|0.0|3.0|100,"GsumMax"|"G"|0.0|3.0|100,"GsumPct"|"%"|0|100|100,"EngineTemp"|"C"|0|300|1,"RPM"|""|0|10000|25,"TPS"|"%"|0|100|25,"Latitude"|"Degrees"|-180.0|180.0|10,"Longitude"|"Degrees"|-180.0|180.0|10,"Speed"|"mph"|0.0|150.0|10,"Altitude"|"ft"|0.0|4000.0|10,"GPSSats"|""|0|20|10,"GPSQual"|""|0|5|10,"GPSDOP"|""|0.0|20.0|10,"LapCount"|""|0|0|10,"LapTime"|"Min"|0.0|0.0|10,"Sector"|""|0|0|10,"SectorTime"|"Min"|0.0|0.0|10,"CurrentLap"|""|0|0|10,"Distance"|"mi"|0.0|0.0|10,"SessionTime"|"Min"|0.0|0.0|10,"LapDelta"|"s"|0.0|0.0|10,"BestLap"|"Min"|0.0|0.0|10
367,0,0.0002,2.67,2.12,,,-0.09,-0.07,-0.04,-0,-1,1,0.12,0.12,100,,,,,,,,,,,,,,,,,,,
377,0,0.0003,2.71,2.15,1.39,,-0.2,-0.07,-0.1,0,-1,1,0.23,0.23,100,,0,0,,,,,,,,,,,,,,,,
387,0,0.0005,2.69,2.15,,,-0.09,-0.06,-0.05,-0,-1,1,0.12,0.23,53,,,,,,,,,,,,,,,,,,,
397,0,0.0006,2.67,2.14,1.38,,-0.08,-0.05,-0.07,-0,-0,1,0.12,0.23,52,,,,,,,,,,,,,,,,,,,
407,0,0.0008,2.67,2.13,,,-0.06,-0.06,-0.04,-0,-1,1,0.09,0.23,39,,,,,,,,,,,,,,,,,,,
417,0,0.001,2.7,2.15,1.39,,-0.07,-0.06,-0.01,-0,-1,1,0.09,0.23,40,,0,0,,,,,,,,,,,,,,,,
427,0,0.0012,2.66,2.11,,,-0.07,-0.06,-0.03,-0,-0,0,0.1,0.23,43,,,,,,,,,,,,,,,,,,,
437,0,0.0013,2.7,2.15,1.39,,-0.02,-0.06,-0.01,-0,-0,1,0.06,0.23,27,,,,0.0,0.0,0.0,0.0,0,0,0.0,0,0.0,-1,0.0,0,0.0,0.0013,0.0,0.0
447,0,0.0015,2.7,2.14,,,-0.08,-0.06,-0.01,-0,-1,1,0.1,0.23,44,,,,,,,,,,,,,,,,,,,
457,0,0.0016,2.7,2.14,1.38,,-0.04,-0.05,0.03,-0,-1,1,0.07,0.23,30,,0,0,,,,,,,,,,,,,,,,
467,0,0.0018,2.68,2.13,,,-0.03,-0.05,0.0,-0,-1,1,0.06,0.23,26,,,,,,,,,,,,,,,,,,,
477,0,0.002,2.71,2.16,1.39,,-0.03,-0.06,0.01,-0,-1,0,0.06,0.23,28,,,,,,,,,,,,,,,,,,,
487,0,0.0022,2.69,2.15,,,-0.03,-0.06,0.03,-0,-1,1,0.07,0.23,31,,,,,,,,,,,,,,,,,,,
497,0,0.0023,2.68,2.12,1.36,,-0.03,-0.06,0.02,-0,-1,0,0.07,0.23,30,,0,0,,,,,,,,,,,,,,,,
507,0,0.0025,2.7,2.16,,,0.01,-0.06,0.04,-0,-1,1,0.07,0.23,30,,,,,,,,,,,,,,,,,,,
517,0,0.0026,2.69,2.13,1.38,,-0.03,-0.06,0.01,-0,-1,1,0.06,0.23,27,,,,,,,,,,,,,,,,,,,
527,0,0.0028,2.7,2.15,,,-0.0,-0.05,0.04,-0,-1,1,0.06,0.23,28,,,,,,,,,,,,,,,,,,,
537,0,0.003,2.69,2.13,1.37,,0.0,-0.05,0.02,-0,-1,1,0.05,0.23,23,,0,0,0.0,0.0,0.0,0.0,0,0,0.0,0,0.0,-1,0.0,0,0.0,0.003,0.0,0.0
547,0,0.0032,2.7,2.15,,,0.01,-0.05,0.02,-0,-1,1,0.06,0.23,24,,,,,,,,,,,,,,,,,,,
557,0,0.0033,2.71,2.15,1.39,,-0.0,-0.05,0.02,-0,-1,1,0.06,0.23,25,,,,,,,,,,,,,,,,,,,
567,0,0.0035,2.7,2.15,,,-0.01,-0.05,0.01,-0,-0,0,0.05,0.23,23,,,,,,,,,,,,,,,,,,,
577,0,0.0036,2.68,2.12,1.36,,0.01,-0.05,0.02,-0,-0,0,0.06,0.23,26,,0,0,,,,,,,,,,,,,,,,
587,0,0.0038,2.71,2.16,,,-0.02,-0.06,0.02,-0,-1,0,0.06,0.23,27,,,,,,,,,,,,,,,,,,,
597,0,0.004,2.7,2.15,1.39,,0.0,-0.05,0.04,-0,-1,1,0.06,0.23,27,,,,,,,,,,,,,,,,,,,
607,0,0.0042,2.67,2.12,,,0.01,-0.05,0.02,-0,-1,0,0.06,0.23,24,,,,,,,,,,,,,,,,,,,
617,0,0.0043,2.7,2.15,1.39,,0.0,-0.05,0.01,-0,-1,0,0.06,0.23,24,,0,0,,,,,,,,,,,,,,,,
627,0,0.0045,2.67,2.13,,,0.0,-0.05,0.03,-0,-1,1,0.06,0.23,26,,,,,,,,,,,,,,,,,,,
637,0,0.0046,2.71,2.15,1.39,,-0.0,-0.05,0.02,-0,-1,0,0.05,0.23,22,,,,0.0,0.0,0.0,0.0,0,0,0.0,0,0.0,-1,0.0,0,0.0,0.0046,0.0,0.0
647,0,0.0048,2.68,2.13,,,0.02,-0.05,0.03,-0,-1,0,0.06,0.23,27,,,,,,,,,,,,,,,,,,,
657,0,0.005,2.7,2.15,1.39,,-0.0,-0.06,0.02,-0,-1,0,0.06,0.23,25,,0,0,,,,,,,,,,,,,,,,
667,0,0.0052,2.7,2.15,,,0.01,-0.05,0.03,-0,-1,1,0.06,0.23,25,,,,,,,,,,,,,,,,,,,
677,0,0.0053,2.67,2.12,1.37,,0.02,-0.05,0.01,-0,-1,1,0.06,0.23,25,,,,,,,,,,,,,,,,,,,
687,0,0.0055,2.69,2.14,,,0.01,-0.05,0.01,-0,-1,0,0.06,0.23,24,,,,,,,,,,,,,,,,,,,
697,0,0.0056,2.7,2.15,1.39,,0.01,-0.05,0.03,-0,-1,0,0.06,0.23,27,,0,0,,,,,,,,,,,,,,,,
707,0,0.0058,2.7,2.16,,,0.01,-0.05,0.02,-0,-0,0,0.05,0.23,23,,,,,,,,,,,,,,,,,,,
717,0,0.006,2.67,2.12,1.38,,0.03,-0.05,0.02,-0,-1,0,0.06,0.23,27,,,,,,,,,,,,,,,,,,,
727,0,0.0061,2.7,2.12,,,0.01,-0.06,0.01,-0,-1,1,0.06,0.23,25,,,,,,,,,,,,,,,,,,,
737,0,0.0063,2.7,2.15,1.39,,0.02,-0.05,0.02,-0,-1,1,0.06,0.23,25,,0,0,0.0,0.0,0.0,0.0,0,0,0.0,0,0.0,-1,0.0,0,0.0,0.0063,0.0,0.0
747,0,0.0065,2.7,2.15,,,0.03,-0.05,0.02,-0,-1,0,0.07,0.23,28,,,,,,,,,,,,,,,,,,,
757,0,0.0066,2.68,2.14,1.38,,0.02,-0.06,0.02,-0,-1,0,0.06,0.23,27,,,,,,,,,,,,,,,,,,,
767,0,0.0068,2.7,2.15,,,0.02,-0.06,0.02,-0,-1,0,0.07,0.23,28,,,,,,,,,,,,,,,,,,,
777,0,0.007,2.68,2.14,1.38,,0.01,-0.05,0.01,-0,-1,0,0.06,0.23,24,,0,0,,,,,,,,,,,,,,,,
787,0,0.0072,2.68,2.14,,,0.03,-0.06,0.02,-0,-1,0,0.07,0.23,29,,,,,,,,,,,,,,,,,,,
797,0,0.0073,2.66,2.13,1.36,,0.02,-0.06,0.02,0,-1,0,0.07,0.23,29,,,,,,,,,,,,,,,,,,,
807,0,0.0075,2.7,2.15,,,0.02,-0.06,0.02,-0,-1,0,0.06,0.23,27,,,,,,,,,,,,,,,,,,,
817,0,0.0076,2.7,2.14,1.38,,0.04,-0.06,0.01,0,-1,0,0.07,0.23,30,,0,0,,,,,,,,,,,,,,,,
827,0,0.0078,2.67,2.13,,,0.03,-0.06,0.0,0,-1,0,0.06,0.23,27,,,,,,,,,,,,,,,,,,,
837,0,0.008,2.71,2.15,1.39,,0.03,-0.06,0.02,0,-0,0,0.07,0.23,29,,,,0.0,0.0,0.0,0.0,0,0,0.0,0,0.0,-1,0.0,0,0.0,0.008,0.0,0.0
847,0,0.0082,2.68,2.11,,,0.02,-0.05,0.0,0,-0,0,0.06,0.23,24,,,,,,,,,,,,,,,,,,,
857,0,0.0083,2.69,2.11,1.36,,0.04,-0.06,0.01,0,-1,0,0.07,0.23,29,,0,0,,,,,,,,,,,,,,,,
867,0,0.0085,2.67,2.15,,,0.03,-0.06,-0.0,0,-1,0,0.07,0.23,28,,,,,,,,,,,,,,,,,,,
877,0,0.0086,2.67,2.12,1.35,,0.02,-0.05,0.01,0,-0,0,0.06,0.23,24,,,,,,,,,,,,,,,,,,,
887,0,0.0088,2.71,2.15,,,0.04,-0.05,0.02,0,-0,0,0.07,0.23,30,,,,,,,,,,,,,,,,,,,
897,0,0.009,2.68,2.12,1.36,,0.03,-0.05,0.01,0,-0,0,0.06,0.23,26,,0,0,,,,,,,,,,,,,,,,
907,0,0.0092,2.7,2.15,,,0.04,-0.06,0.02,0,-0,0,0.07,0.23,30,,,,,,,,,,,,,,,,,,,
917,0,0.0093,2.68,2.13,1.36,,0.03,-0.05,-0.0,0,-0,0,0.06,0.23,25,,,,,,,,,,,,,,,,,,,
927,0,0.0095,2.7,2.15,,,0.04,-0.05,0.01,0,-0,0,0.07,0.23,30,,,,,,,,,,,,,,,,,,,
937,0,0.0096,2.66,2.14,1.37,,0.04,-0.06,0.0,0,-0,0,0.07,0.23,30,,0,0,0.0,0.0,0.0,0.0,0,0,0.0,0,0.0,-1,0.0,0,0.0,0.0096,0.0,0.0
947,0,0.0098,2.69,2.15,,,0.03,-0.05,0.0,0,-0,0,0.06,0.23,27,,,,,,,,,,,,,,,,,,,
957,0,0.01,2.7,2.15,1.39,,0.05,-0.06,0.01,0,-0,0,0.08,0.23,33,,,,,,,,,,,,,,,,,,,
967,0,0.0102,2.69,2.13,,,0.04,-0.06,0.0,0,-0,0,0.07,0.23,29,,,,,,,,,,,,,,,,,,,
977,0,0.0103,2.71,2.15,1.39,,0.04,-0.06,0.01,0,-0,0,0.07,0.23,31,,0,0,,,,,,,,,,,,,,,,
987,0,0.0105,2.67,2.11,,,0.03,-0.05,-0.0,0,-0,0,0.06,0.23,27,,,,,,,,,,,,,,,,,,,
997,0,0.0106,2.7,2.13,1.38,,0.04,-0.06,0.0,0,-0,0,0.07,0.23,32,,,,,,,,,,,,,,,,,,,
1007,0,0.0108,2.7,2.15,,,0.04,-0.06,-0.01,0,-0,0,0.07,0.23,32,,,,,,,,,,,,,,,,,,,
1017,0,0.011,2.7,2.14,1.38,,0.03,-0.05,0.0,0,-0,0,0.06,0.23,27,,0,0,,,,,,,,,,,,,,,,
1027,0,0.0112,2.67,2.12,,,0.05,-0.06,0.01,0,-0,0,0.08,0.23,34,,,,,,,,,,,,,,,,,,,
1037,0,0.0113,2.71,2.15,1.4,,0.04,-0.06,0.01,0,-0,0,0.07,0.23,29,,,,0.0,0.0,0.0,0.0,0,0,0.0,0,0.0,-1,0.0,0,0.0,0.0113,0.0,0.0
1047,0,0.0115,2.7,2.15,,,0.05,-0.06,0.01,0,-0,0,0.08,0.23,33,,,,,,,,,,,,,,,,,,,
1057,0,0.0116,2.7,2.15,1.37,,0.04,-0.05,-0.0,0,-0,0,0.07,0.23,29,,0,0,,,,,,,,,,,,,,,,
1067,0,0.0118,2.61,2.1,,,0.05,-0.06,0.01,0,-0,0,0.08,0.23,33,,,,,,,,,,,,,,,,,,,
1077,0,0.012,2.7,2.15,1.39,,0.04,-0.07,0.01,0,-0,0,0.08,0.23,34,,,,,,,,,,,,,,,,,,,
1087,0,0.0122,2.68,2.12,,,0.04,-0.06,-0.0,0,-0,0,0.07,0.23,30,,,,,,,,,,,,,,,,,,,
1097,0,0.0123,2.71,2.15,1.39,,0.05,-0.06,0.0,0,-0,0,0.08,0.23,36,,0,0,,,,,,,,,,,,,,,,
1107,0,0.0125,2.7,2.14,,,0.04,-0.06,-0.01,0,-0,0,0.07,0.23,31,,,,,,,,,,,,,,,,,,,
1117,0,0.0126,2.7,2.15,1.39,,0.05,-0.06,0.0,0,-0,0,0.08,0.23,35,,,,,,,,,,,,,,,,,,,
1127,0,0.0128,2.7,2.15,,,0.04,-0.06,-0.01,0,-0,0,0.07,0.23,31,,,,,,,,,,,,,,,,,,,
1137,0,0.013,2.71,2.16,1.4,,0.05,-0.06,-0.01,0,-0,0,0.08,0.23,35,,0,0,0.0,0.0,0.0,0.0,0,0,0.0,0,0.0,-1,0.0,0,0.0,0.013,0.0,0.0
1147,0,0.0132,2.71,2.15,,,0.05,-0.07,-0.02,0,-0,0,0.09,0.23,37,,,,,,,,,,,,,,,,,,,
1157,0,0.0133,2.71,2.16,1.4,,0.04,-0.06,-0.02,0,-0,0,0.07,0.23,32,,,,,,,,,,,,,,,,,,,
1167,0,0.0135,2.71,2.16,,,0.06,-0.06,0.0,0,-0,0,0.09,0.23,37,,,,,,,,,,,,,,,,,,,
1177,0,0.0136,2.7,2.15,1.39,,0.04,-0.06,-0.0,0,-0,0,0.07,0.23,31,,0,0,,,,,,,,,,,,,,,,
1187,0,0.0138,2.71,2.15,,,0.05,-0.07,0.0,0,-0,0,0.08,0.23,36,,,,,,,,,,,,,,,,,,,
1197,0,0.014,2.7,2.12,1.37,,0.05,-0.06,-0.01,0,-0,0,0.08,0.23,35,,,,,,,,,,,,,,,,,,,
1207,0,0.0142,2.68,2.13,,,0.05,-0.06,-0.0,0,-0,0,0.08,0.23,33,,,,,,,,,,,,,,,,,,,
1217,0,0.0143,2.67,2.12,1.36,,0.05,-0.07,0.0,0,-0,0,0.08,0.23,36,,0,0,,,,,,,,,,,,,,,,
1227,0,0.0145,2.69,2.14,,,0.04,-0.06,-0.01,0,0,0,0.07,0.23,31,,,,,,,,,,,,,,,,,,,
1237,0,0.0146,2.71,2.15,1.39,,0.06,-0.07,-0.0,0,0,0,0.09,0.23,39,,,,0.0,0.0,0.0,0.0,0,0,0.0,0,0.0,-1,0.0,0,0.0,0.0146,0.0,0.0
1247,0,0.0148,2.7,2.15,,,0.04,-0.06,-0.02,0,0,0,0.08,0.23,34,,,,,,,,,,,,,,,,,,,
1257,0,0.015,2.7,2.16,1.4,,0.06,-0.06,-0.01,0,0,0,0.09,0.23,38,,0,0,,,,,,,,,,,,,,,,
1267,0,0.0152,2.7,2.16,,,0.06,-0.06,-0.01,0,0,0,0.08,0.23,34,,,,,,,,,,,,,,,,,,,
1277,0,0.0153,2.7,2.15,1.39,,0.05,-0.06,-0.0,0,0,0,0.08,0.23,34,,,,,,,,,,,,,,,,,,,
1287,0,0.0155,2.7,2.14,,,0.05,-0.07,-0.0,0,0,0,0.09,0.23,38,,,,,,,,,,,,,,,,,,,
1297,0,0.0156,2.71,2.15,1.39,,0.04,-0.06,-0.01,0,0,0,0.07,0.23,32,,0,0,,,,,,,,,,,,,,,,
1307,0,0.0158,2.71,2.15,,,0.06,-0.07,-0.0,0,0,0,0.09,0.23,39,,,,,,,,,,,,,,,,,,,
1317,0,0.016,2.7,2.15,1.4,,0.04,-0.06,-0.02,0,0,0,0.08,0.23,34,,,,,,,,,,,,,,,,,,,
1327,0,0.0162,2.7,2.15,,,0.06,-0.07,-0.02,0,0,0,0.09,0.23,39,,,,,,,,,,,,,,,,,,,
1337,0,0.0163,2.69,2.15,1.39,12.84,0.06,-0.06,-0.02,0,0,0,0.09,0.23,37,0,0,0,0.0,0.0,0.0,0.0,0,0,0.0,0,0.0,-1,0.0,0,0.0,0.0163,0.0,0.0
1347,0,0.0165,2.7,2.14,,,0.05,-0.07,-0.01,0,0,0,0.08,0.23,35,,,,,,,,,,,,,,,,,,,
1357,0,0.0166,2.69,2.15,1.39,,0.06,-0.07,-0.0,0,0,0,0.09,0.23,39,,,,,,,,,,,,,,,,,,,
1367,0,0.0168,2.67,2.13,,,0.04,-0.06,-0.02,0,0,0,0.08,0.23,34,,,,,,,,,,,,,,,,,,,
1377,0,0.017,2.68,2.14,1.38,,0.06,-0.07,-0.01,0,0,0,0.09,0.23,40,,0,0,,,,,,,,,,,,,,,,
1387,0,0.0172,2.65,2.1,,,0.03,-0.06,-0.04,-0,0,0,0.08,0.23,33,,,,,,,,,,,,,,,,,,,
1397,0,0.0173,2.7,2.15,1.38,,0.05,-0.07,-0.04,-0,0,0,0.09,0.23,40,,,,,,,,,,,,,,,,,,,
1407,0,0.0175,2.69,2.11,,,0.05,-0.06,-0.03,-0,1,0,0.08,0.23,33,,,,,,,,,,,,,,,,,,,
1417,0,0.0176,2.69,2.15,1.39,,0.03,-0.06,-0.01,-0,1,0,0.07,0.23,30,,0,0,,,,,,,,,,,,,,,,
1427,0,0.0178,2.7,2.16,,,0.03,-0.06,-0.01,-0,1,0,0.07,0.23,30,,,,,,,,,,,,,,,,,,,
1437,0,0.018,2.69,2.14,1.37,,0.03,-0.06,-0.02,-0,1,0,0.07,0.23,30,,,,0.0,0.0,0.0,0.0,0,0,0.0,0,0.0,-1,0.0,0,0.0,0.018,0.0,0.0
1447,0,0.0182,2.67,2.11,,,0.03,-0.07,-0.0,-0,1,0,0.08,0.23,33,,,,,,,,,,,,,,,,,,,
1457,0,0.0183,2.69,2.13,1.39,,0.04,-0.07,0.02,-0,0,0,0.09,0.23,37,,0,0,,,,,,,,,,,,,,,,
1467,0,0.0185,2.68,2.15,,,0.04,-0.08,0.03,-1,0,0,0.09,0.23,39,,,,,,,,,,,,,,,,,,,
1477,0,0.0187,2.66,2.1,1.33,,0.04,-0.06,-0.02,-1,0,0,0.08,0.23,34,,,,,,,,,,,,,,,,,,,
1487,0,0.0188,2.67,2.12,,,0.03,-0.07,-0.02,-1,0,0,0.08,0.23,35,,,,,,,,,,,,,,,,,,,
1497,0,0.019,2.69,2.12,1.35,,0.02,-0.07,-0.02,-0,0,0,0.08,0.23,34,,0,0,,,,,,,,,,,,,,,,
1507,0,0.0192,2.68,2.14,,,0.03,-0.05,-0.04,-0,0,0,0.07,0.23,31,,,,,,,,,,,,,,,,,,,
1517,0,0.0193,2.71,2.15,1.39,,0.08,-0.07,-0.04,-0,0,0,0.11,0.23,48,,,,,,,,,,,,,,,,,,,
1527,0,0.0195,2.71,2.16,,,0.01,-0.05,-0.07,-0,1,0,0.08,0.23,36,,,,,,,,,,,,,,,,,,,
1537,0,0.0196,2.68,2.13,1.36,,0.04,-0.05,-0.08,-0,1,0,0.11,0.23,46,,0,0,0.0,0.0,0.0,0.0,0,0,0.0,0,0.0,-1,0.0,0,0.0,0.0196,0.0,0.0
1547,0,0.0198,2.71,2.16,,,0.04,-0.05,-0.01,-0,1,0,0.06,0.23,28,,,,,,,,,,,,,,,,,,,
1557,0,0.02,2.71,2.15,1.38,,0.03,-0.06,0.03,-0,1,0,0.08,0.23,33,,,,,,,,,,,,,,,,,,,
1567,0,0.0202,2.67,2.12,,,0.04,-0.05,-0.01,-0,1,1,0.06,0.23,27,,,,,,,,,,,,,,,,,,,
1577,0,0.0203,2.71,2.16,1.39,,0.03,-0.08,0.02,-0,1,1,0.09,0.23,39,,0,0,,,,,,,,,,,,,,,,
1587,0,0.0205,2.7,2.15,,,0.07,-0.08,0.06,-0,2,1,0.12,0.23,51,,,,,,,,,,,,,,,,,,,
1597,0,0.0206,2.68,2.15,1.38,,0.05,-0.07,0.04,-0,2,1,0.1,0.23,42,,,,,,,,,,,,,,,,,,,
1607,0,0.0208,2.7,2.12,,,0.04,-0.09,-0.0,-0,2,1,0.1,0.23,42,,,,,,,,,,,,,,,,,,,
1617,0,0.021,2.69,2.15,1.38,,0.03,-0.05,-0.01,-0,2,1,0.06,0.23,28,,0,0,,,,,,,,,,,,,,,,
1627,0,0.0212,2.71,2.17,,,0.03,-0.09,0.02,-0,2,0,0.1,0.23,43,,,,,,,,,,,,,,,,,,,
1637,0,0.0213,2.72,2.17,1.39,,0.04,-0.1,0.01,-0,3,0,0.11,0.23,47,,,,0.0,0.0,0.0,0.0,0,0,0.0,0,0.0,-1,0.0,0,0.0,0.0213,0.0,0.0
1647,0,0.0215,2.68,2.14,,,0.02,-0.08,-0.03,-0,3,0,0.09,0.23,39,,,,,,,,,,,,,,,,,,,
1657,0,0.0216,2.69,2.16,1.37,,0.02,-0.09,-0.02,0,3,0,0.1,0.23,41,,0,0,,,,,,,,,,,,,,,,
1667,0,0.0218,2.7,2.17,,,0.02,-0.06,-0.03,0,3,0,0.07,0.23,29,,,,,,,,,,,,,,,,,,,
1677,0,0.022,2.7,2.15,1.36,,-0.02,-0.06,-0.03,0,4,0,0.07,0.23,29,,,,,,,,,,,,,,,,,,,
1687,0,0.0222,2.7,2.15,,,0.0,-0.05,-0.05,0,4,0,0.07,0.23,30,,,,,,,,,,,,,,,,,,,
1697,0,0.0223,2.74,2.19,1.4,,-0.04,-0.05,-0.04,-0,3,0,0.07,0.23,32,,0,0,,,,,,,,,,,,,,,,
1707,0,0.0225,2.73,2.18,,,-0.06,-0.07,-0.04,-0,4,0,0.1,0.23,44,,,,,,,,,,,,,,,,,,,
1717,0,0.0226,2.74,2.19,1.39,,-0.06,-0.09,-0.06,-0,4,0,0.13,0.23,54,,,,,,,,,,,,,,,,,,,
1727,0,0.0228,2.7,2.16,,,-0.05,-0.11,-0.04,-0,5,1,0.12,0.23,53,,,,,,,,,,,,,,,,,,,
1737,0,0.023,2.74,2.2,1.4,,-0.07,-0.12,-0.03,-0,6,1,0.14,0.23,61,,0,0,0.0,0.0,0.0,0.0,0,0,0.0,0,0.0,-1,0.0,0,0.0,0.023,0.0,0.0
1747,0,0.0232,2.72,2.19,,,-0.06,-0.14,-0.01,-0,6,1,0.15,0.23,65,,,,,,,,,,,,,,,,,,,
1757,0,0.0233,2.71,2.19,1.38,,-0.05,-0.1,0.04,-0,6,1,0.12,0.23,53,,,,,,,,,,,,,,,,,,,
1767,0,0.0235,2.75,2.21,,,-0.04,-0.13,0.04,0,5,1,0.14,0.23,60,,,,,,,,,,,,,,,,,,,
1777,0,0.0236,2.74,2.21,1.38,,-0.04,-0.11,-0.0,0,5,1,0.12,0.23,50,,0,0,,,,,,,,,,,,,,,,
1787,0,0.0238,2.73,2.22,,,-0.07,-0.11,0.01,0,5,1,0.13,0.23,57,,,,,,,,,,,,,,,,,,,
1797,0,0.024,2.74,2.23,1.39,,-0.09,-0.08,0.03,0,5,1,0.12,0.23,52,,,,,,,,,,,,,,,,,,,
1807,0,0.0242,2.73,2.2,,,-0.13,-0.09,-0.02,0,6,1,0.16,0.23,68,,,,,,,,,,,,,,,,,,,
1817,0,0.0243,2.7,2.2,1.36,,-0.11,-0.07,-0.06,1,6,1,0.14,0.23,62,,0,0,,,,,,,,,,,,,,,,
1827,0,0.0245,2.74,2.22,,,-0.14,-0.06,-0.03,1,6,1,0.16,0.23,68,,,,,,,,,,,,,,,,,,,
1837,0,0.0246,2.74,2.25,1.39,,-0.21,-0.08,-0.03,1,6,1,0.23,0.23,99,,,,0.0,0.0,0.0,0.0,0,0,0.0,0,0.0,-1,0.0,0,0.0,0.0246,0.0,0.0
1847,0,0.0248,2.75,2.25,,,-0.21,-0.07,-0.09,1,7,1,0.24,0.24,100,,,,,,,,,,,,,,,,,,,
1857,0,0.025,2.74,2.24,1.39,,-0.21,-0.06,-0.06,1,7,1,0.23,0.24,95,,0,0,,,,,,,,,,,,,,,,
1867,0,0.0251,2.76,2.26,,,-0.25,-0.09,-0.02,1,7,1,0.27,0.27,100,,,,,,,,,,,,,,,,,,,
1877,0,0.0253,2.75,2.26,1.39,,-0.3,-0.07,-0.02,1,8,1,0.31,0.31,100,,,,,,,,,,,,,,,,,,,
1887,0,0.0255,2.72,2.23,,,-0.3,-0.1,0.03,1,8,1,0.32,0.32,100,,,,,,,,,,,,,,,,,,,
1897,0,0.0256,2.76,2.26,1.39,,-0.3,-0.1,0.04,1,8,1,0.32,0.32,99,,0,0,,,,,,,,,,,,,,,,
1907,0,0.0258,2.73,2.22,,,-0.3,-0.12,-0.0,1,8,1,0.33,0.33,100,,,,,,,,,,,,,,,,,,,
1917,0,0.026,2.75,2.26,1.4,,-0.33,-0.1,0.03,1,7,1,0.35,0.35,100,,,,,,,,,,,,,,,,,,,
1927,0,0.0262,2.74,2.26,,,-0.31,-0.07,0.11,1,7,1,0.34,0.35,96,,,,,,,,,,,,,,,,,,,
1937,0,0.0263,2.76,2.25,1.39,,-0.3,-0.07,0.06,1,6,1,0.32,0.35,91,,0,0,0.0,0.0,0.0,0.0,0,0,0.0,0,0.0,-1,0.0,0,0.0,0.0263,0.0,0.0
1947,0,0.0265,2.71,2.25,,,-0.29,-0.04,-0.01,1,6,1,0.29,0.35,83,,,,,,,,,,,,,,,,,,,
1957,0,0.0266,2.73,2.23,1.36,,-0.32,-0.04,0.04,1,5,1,0.32,0.35,92,,,,,,,,,,,,,,,,,,,
1967,0,0.0268,2.76,2.26,,,-0.32,0.0,0.06,1,5,1,0.33,0.35,94,,,,,,,,,,,,,,,,,,,
1977,0,0.027,2.76,2.26,1.39,,-0.34,-0.03,0.0,1,4,1,0.34,0.35,98,,0,0,,,,,,,,,,,,,,,,
1987,0,0.0272,2.75,2.24,,,-0.3,0.01,-0.05,1,4,0,0.3,0.35,87,,,,,,,,,,,,,,,,,,,
1997,0,0.0273,2.74,2.26,1.37,,-0.32,-0.02,0.01,1,3,0,0.32,0.35,92,,,,,,,,,,,,,,,,,,,
2007,0,0.0275,2.75,2.25,,,-0.35,-0.01,0.0,1,3,0,0.35,0.35,99,,,,,,,,,,,,,,,,,,,
2017,0,0.0276,2.75,2.25,1.4,,-0.33,-0.05,-0.08,2,2,0,0.35,0.35,99,,0,0,,,,,,,,,,,,,,,,
2027,0,0.0278,2.75,2.25,,,-0.29,-0.06,-0.09,2,2,1,0.31,0.35,89,,,,,,,,,,,,,,,,,,,
2037,0,0.028,2.75,2.25,1.39,,-0.33,-0.08,-0.08,2,2,1,0.34,0.35,99,,,,0.0,0.0,0.0,0.0,0,0,0.0,0,0.0,-1,0.0,0,0.0,0.028,0.0,0.0
2047,0,0.0282,2.75,2.25,,,-0.36,-0.06,-0.09,2,2,1,0.38,0.38,100,,,,,,,,,,,,,,,,,,,
2057,0,0.0283,2.74,2.24,1.36,,-0.34,-0.08,-0.11,2,2,1,0.37,0.38,97,,0,0,,,,,,,,,,,,,,,,
2067,0,0.0285,2.7,2.21,,,-0.3,-0.03,-0.12,2,2,1,0.33,0.38,86,,,,,,,,,,,,,,,,,,,
2077,0,0.0286,2.75,2.25,1.4,,-0.33,-0.05,-0.11,2,2,1,0.35,0.38,94,,,,,,,,,,,,,,,,,,,
2087,0,0.0288,2.72,2.22,,,-0.36,-0.02,-0.09,2,1,1,0.37,0.38,98,,,,,,,,,,,,,,,,,,,
2097,0,0.029,2.74,2.23,1.37,,-0.37,-0.05,-0.1,2,2,0,0.38,0.38,100,,0,0,,,,,,,,,,,,,,,,
2107,0,0.0292,2.74,2.23,,,-0.32,-0.04,-0.11,2,2,0,0.34,0.38,89,,,,,,,,,,,,,,,,,,,
2117,0,0.0293,2.74,2.24,1.38,,-0.34,-0.07,-0.1,2,2,0,0.36,0.38,94,,,,,,,,,,,,,,,,,,,
2127,0,0.0295,2.69,2.21,,,-0.39,-0.05,-0.07,2,2,-0,0.4,0.4,100,,,,,,,,,,,,,,,,,,,
2137,0,0.0296,2.74,2.24,1.39,,-0.4,-0.08,-0.11,2,2,-0,0.43,0.43,100,,0,0,0.0,0.0,0.0,0.0,0,0,0.0,0,0.0,-1,0.0,0,0.0,0.0296,0.0,0.0
2147,0,0.0298,2.75,2.22,,,-0.37,-0.06,-0.09,3,2,-0,0.39,0.43,91,,,,,,,,,,,,,,,,,,,
2157,0,0.03,2.71,2.2,1.35,,-0.39,-0.09,-0.08,3,2,-0,0.41,0.43,97,,,,,,,,,,,,,,,,,,,
2167,0,0.0302,2.73,2.22,,,-0.44,-0.08,-0.08,3,2,-1,0.46,0.46,100,,,,,,,,,,,,,,,,,,,
2177,0,0.0303,2.75,2.24,1.4,,-0.46,-0.11,-0.1,3,3,-1,0.48,0.48,100,,0,0,,,,,,,,,,,,,,,,
2187,0,0.0305,2.72,2.2,,,-0.42,-0.09,-0.09,3,3,-1,0.44,0.48,91,,,,,,,,,,,,,,,,,,,
2197,0,0.0306,2.75,2.25,1.37,,-0.45,-0.11,-0.06,3,2,-1,0.46,0.48,96,,,,,,,,,,,,,,,,,,,
2207,0,0.0308,2.75,2.22,,,-0.48,-0.1,-0.07,3,2,-1,0.49,0.49,100,,,,,,,,,,,,,,,,,,,
2217,0,0.031,2.76,2.26,1.4,,-0.5,-0.14,-0.1,3,2,-1,0.53,0.53,100,,0,0,,,,,,,,,,,,,,,,
2227,0,0.0312,2.69,2.2,,,-0.46,-0.12,-0.09,3,2,-1,0.48,0.53,91,,,,,,,,,,,,,,,,,,,
2237,0,0.0313,2.75,2.25,1.39,,-0.48,-0.15,-0.07,3,2,-1,0.51,0.53,97,,,,0.0,0.0,0.0,0.0,0,0,0.0,0,0.0,-1,0.0,0,0.0,0.0313,0.0,0.0
2247,0,0.0315,2.75,2.25,,,-0.53,-0.12,-0.07,3,1,-1,0.55,0.55,100,,,,,,,,,,,,,,,,,,,
2257,0,0.0316,2.75,2.25,1.39,,-0.55,-0.13,-0.1,3,1,-1,0.57,0.57,100,,0,0,,,,,,,,,,,,,,,,
2267,0,0.0318,2.72,2.23,,,-0.5,-0.09,-0.07,4,1,-1,0.51,0.57,89,,,,,,,,,,,,,,,,,,,
2277,0,0.032,2.75,2.22,1.36,,-0.5,-0.08,-0.05,4,-0,-1,0.51,0.57,89,,,,,,,,,,,,,,,,,,,
2287,0,0.0322,2.72,2.23,,,-0.53,-0.06,-0.06,4,-1,-2,0.54,0.57,94,,,,,,,,,,,,,,,,,,,
2297,0,0.0323,2.72,2.23,1.38,,-0.55,-0.09,-0.09,4,-1,-2,0.56,0.57,98,,0,0,,,,,,,,,,,,,,,,
2307,0,0.0325,2.75,2.25,,,-0.51,-0.05,-0.08,4,-2,-2,0.52,0.57,90,,,,,,,,,,,,,,,,,,,
2317,0,0.0326,2.75,2.25,1.4,,-0.51,-0.09,-0.04,4,-2,-2,0.52,0.57,90,,,,,,,,,,,,,,,,,,,
2327,0,0.0328,2.73,2.21,,,-0.52,-0.05,-0.03,4,-3,-2,0.52,0.57,91,,,,,,,,,,,,,,,,,,,
2337,0,0.033,2.71,2.24,1.39,12.82,-0.5,-0.07,-0.05,4,-3,-3,0.51,0.57,89,0,0,0,0.0,0.0,0.0,0.0,0,0,0.0,0,0.0,-1,0.0,0,0.0,0.033,0.0,0.0
2347,0,0.0332,2.75,2.23,,,-0.48,-0.05,-0.04,4,-4,-3,0.48,0.57,84,,,,,,,,,,,,,,,,,,,
2357,0,0.0333,2.74,2.23,1.4,,-0.48,-0.07,0.05,4,-4,-3,0.48,0.57,84,,,,,,,,,,,,,,,,,,,
2367,0,0.0335,2.75,2.23,,,-0.47,-0.06,0.07,4,-4,-3,0.48,0.57,83,,,,,,,,,,,,,,,,,,,
2377,0,0.0336,2.72,2.21,1.39,,-0.43,-0.09,0.04,4,-4,-3,0.44,0.57,77,,0,0,,,,,,,,,,,,,,,,
2387,0,0.0338,2.72,2.21,,,-0.43,-0.06,0.02,4,-4,-3,0.43,0.57,75,,,,,,,,,,,,,,,,,,,
2397,0,0.034,2.7,2.18,1.39,,-0.41,-0.1,0.08,4,-3,-3,0.43,0.57,75,,,,,,,,,,,,,,,,,,,
2407,0,0.0342,2.72,2.19,,,-0.43,-0.07,0.08,4,-3,-3,0.44,0.57,77,,,,,,,,,,,,,,,,,,,
2417,0,0.0343,2.73,2.21,1.4,,-0.37,-0.11,0.04,4,-2,-3,0.39,0.57,67,,0,0,,,,,,,,,,,,,,,,
2427,0,0.0345,2.74,2.22,,,-0.41,-0.09,0.01,4,-2,-2,0.42,0.57,73,,,,,,,,,,,,,,,,,,,
2437,0,0.0347,2.74,2.21,1.4,,-0.39,-0.1,-0.01,4,-2,-2,0.41,0.57,71,,,,0.0,0.0,0.0,0.0,0,0,0.0,0,0.0,-1,0.0,0,0.0,0.0347,0.0,0.0
2447,0,0.0348,2.71,2.17,,,-0.42,-0.08,-0.05,4,-1,-2,0.43,0.57,74,,,,,,,,,,,,,,,,,,,
2457,0,0.035,2.71,2.17,1.36,,-0.37,-0.07,-0.04,4,-1,-2,0.38,0.57,66,,0,0,,,,,,,,,,,,,,,,
2467,0,0.0352,2.71,2.18,,,-0.41,-0.07,-0.01,4,-2,-2,0.42,0.57,72,,,,,,,,,,,,,,,,,,,
2477,0,0.0353,2.75,2.2,1.39,,-0.41,-0.05,-0.01,4,-2,-2,0.41,0.57,72,,,,,,,,,,,,,,,,,,,
2487,0,0.0355,2.74,2.22,,,-0.4,-0.06,-0.02,4,-2,-2,0.41,0.57,71,,,,,,,,,,,,,,,,,,,
2497,0,0.0356,2.74,2.22,1.4,,-0.39,-0.06,-0.01,4,-2,-2,0.4,0.57,69,,0,0,,,,,,,,,,,,,,,,
2507,0,0.0358,2.75,2.22,,,-0.38,-0.05,0.06,3,-2,-2,0.39,0.57,68,,,,,,,,,,,,,,,,,,,
2517,0,0.036,2.75,2.22,1.4,,-0.42,-0.06,0.03,3,-2,-2,0.43,0.57,74,,,,,,,,,,,,,,,,,,,
2527,0,0.0362,2.75,2.22,,,-0.36,-0.07,0.02,3,-2,-2,0.37,0.57,64,,,,,,,,,,,,,,,,,,,
2537,0,0.0363,2.74,2.22,1.4,,-0.4,-0.07,0.01,3,-2,-2,0.4,0.57,70,,0,0,0.0,0.0,0.0,0.0,0,0,0.0,0,0.0,-1,0.0,0,0.0,0.0363,0.0,0.0
2547,0,0.0365,2.74,2.22,,,-0.37,-0.08,0.03,3,-2,-1,0.38,0.57,66,,,,,,,,,,,,,,,,,,,
2557,0,0.0366,2.75,2.22,1.4,,-0.4,-0.06,0.01,3,-1,-1,0.4,0.57,70,,,,,,,,,,,,,,,,,,,
2567,0,0.0368,2.75,2.22,,,-0.34,-0.07,-0.02,3,-2,-1,0.35,0.57,60,,,,,,,,,,,,,,,,,,,
2577,0,0.037,2.72,2.19,1.36,,-0.38,-0.08,-0.02,2,-2,-1,0.38,0.57,67,,0,0,,,,,,,,,,,,,,,,
2587,0,0.0372,2.73,2.21,,,-0.36,-0.08,-0.01,2,-2,-1,0.37,0.57,65,,,,,,,,,,,,,,,,,,,
2597,0,0.0373,2.74,2.22,1.4,,-0.34,-0.1,0.0,2,-2,-0,0.35,0.57,61,,,,,,,,,,,,,,,,,,,
2607,0,0.0375,2.75,2.22,,,-0.34,-0.1,-0.04,2,-2,-0,0.36,0.57,62,,,,,,,,,,,,,,,,,,,
2617,0,0.0376,2.74,2.22,1.4,,-0.33,-0.12,-0.01,2,-1,-0,0.35,0.57,61,,0,0,,,,,,,,,,,,,,,,
2627,0,0.0378,2.75,2.21,,,-0.38,-0.1,-0.0,2,-1,-0,0.39,0.57,68,,,,,,,,,,,,,,,,,,,
2637,0,0.038,2.75,2.22,1.39,,-0.29,-0.11,-0.01,2,-0,-0,0.31,0.57,54,,,,0.0,0.0,0.0,0.0,0,0,0.0,0,0.0,-1,0.0,0,0.0,0.038,0.0,0.0
2647,0,0.0382,2.72,2.21,,,-0.36,-0.06,-0.03,2,-0,-0,0.36,0.57,63,,,,,,,,,,,,,,,,,,,
2657,0,0.0383,2.7,2.18,1.36,,-0.33,-0.06,-0.03,2,-1,-0,0.34,0.57,59,,0,0,,,,,,,,,,,,,,,,
2667,0,0.0385,2.74,2.21,,,-0.35,-0.06,-0.02,2,-1,-0,0.36,0.57,62,,,,,,,,,,,,,,,,,,,
2677,0,0.0386,2.73,2.19,1.35,,-0.37,-0.07,-0.02,1,-1,-0,0.38,0.57,66,,,,,,,,,,,,,,,,,,,
2687,0,0.0388,2.72,2.23,,,-0.34,-0.09,0.01,1,-1,0,0.35,0.57,61,,,,,,,,,,,,,,,,,,,
2697,0,0.039,2.75,2.24,1.39,,-0.38,-0.09,-0.04,1,-1,0,0.39,0.57,68,,0,0,,,,,,,,,,,,,,,,
2707,0,0.0392,2.74,2.23,,,-0.29,-0.07,-0.08,1,-0,0,0.31,0.57,54,,,,,,,,,,,,,,,,,,,
2717,0,0.0393,2.7,2.2,1.37,,-0.35,-0.03,-0.09,1,-0,0,0.37,0.57,64,,,,,,,,,,,,,,,,,,,
2727,0,0.0395,2.74,2.22,,,-0.31,-0.02,-0.07,1,-0,0,0.32,0.57,56,,,,,,,,,,,,,,,,,,,
2737,0,0.0396,2.74,2.21,1.39,,-0.33,0.0,-0.08,1,-0,0,0.34,0.57,59,,0,0,0.0,0.0,0.0,0.0,0,0,0.0,0,0.0,-1,0.0,0,0.0,0.0396,0.0,0.0
2747,0,0.0398,2.72,2.18,,,-0.31,-0.02,-0.1,1,-0,-0,0.33,0.57,58,,,,,,,,,,,,,,,,,,,
2757,0,0.04,2.74,2.22,1.39,,-0.31,-0.03,-0.04,0,0,-0,0.32,0.57,55,,,,,,,,,,,,,,,,,,,
2767,0,0.0402,2.73,2.2,,,-0.37,-0.04,-0.05,0,1,-0,0.38,0.57,66,,,,,,,,,,,,,,,,,,,
2777,0,0.0403,2.74,2.21,1.38,,-0.28,-0.06,-0.08,0,1,-0,0.29,0.57,51,,0,0,,,,,,,,,,,,,,,,
2787,0,0.0405,2.74,2.22,,,-0.3,-0.06,-0.1,0,1,-0,0.32,0.57,57,,,,,,,,,,,,,,,,,,,
2797,0,0.0406,2.74,2.21,1.37,,-0.28,-0.07,-0.09,0,1,-0,0.3,0.57,53,,,,,,,,,,,,,,,,,,,
2807,0,0.0408,2.7,2.17,,,-0.32,-0.07,-0.07,0,1,-0,0.33,0.57,58,,,,,,,,,,,,,,,,,,,
2817,0,0.041,2.74,2.21,1.39,,-0.31,-0.09,-0.08,-0,1,0,0.34,0.57,59,,0,0,,,,,,,,,,,,,,,,
2827,0,0.0412,2.75,2.2,,,-0.31,-0.12,-0.03,-0,1,0,0.33,0.57,58,,,,,,,,,,,,,,,,,,,
2837,0,0.0413,2.7,2.18,1.36,,-0.35,-0.11,-0.02,-0,1,1,0.36,0.57,63,,,,0.0,0.0,0.0,0.0,0,0,0.0,0,0.0,-1,0.0,0,0.0,0.0413,0.0,0.0
2847,0,0.0415,2.74,2.2,,,-0.28,-0.09,-0.04,-0,2,1,0.29,0.57,51,,,,,,,,,,,,,,,,,,,
2857,0,0.0416,2.74,2.21,1.39,,-0.34,-0.04,-0.05,-0,2,1,0.35,0.57,60,,0,0,,,,,,,,,,,,,,,,
2867,0,0.0418,2.72,2.2,,,-0.31,-0.05,-0.04,-0,1,0,0.32,0.57,56,,,,,,,,,,,,,,,,,,,
2877,0,0.042,2.73,2.22,1.39,,-0.35,-0.02,-0.04,-0,1,0,0.36,0.57,62,,,,,,,,,,,,,,,,,,,
2887,0,0.0421,2.71,2.18,,,-0.32,-0.01,-0.02,-1,1,0,0.32,0.57,56,,,,,,,,,,,,,,,,,,,
2897,0,0.0423,2.74,2.22,1.39,,-0.34,-0.01,0.06,-1,1,0,0.35,0.57,60,,0,0,,,,,,,,,,,,,,,,
2907,0,0.0425,2.74,2.22,,,-0.38,-0.04,0.04,-1,1,-0,0.38,0.57,66,,,,,,,,,,,,,,,,,,,
2917,0,0.0426,2.74,2.22,1.39,,-0.32,-0.08,0.02,-1,1,-0,0.33,0.57,57,,,,,,,,,,,,,,,,,,,
2927,0,0.0428,2.74,2.22,,,-0.38,-0.09,-0.01,-1,1,0,0.39,0.57,67,,,,,,,,,,,,,,,,,,,
2937,0,0.043,2.71,2.22,1.38,,-0.34,-0.11,-0.02,-1,1,0,0.36,0.57,63,,0,0,0.0,0.0,0.0,0.0,0,0,0.0,0,0.0,-1,0.0,0,0.0,0.043,0.0,0.0
2947,0,0.0432,2.71,2.2,,,-0.38,-0.12,-0.03,-1,0,0,0.4,0.57,70,,,,,,,,,,,,,,,,,,,
2957,0,0.0433,2.75,2.21,1.37,,-0.31,-0.12,-0.05,-1,0,1,0.34,0.57,59,,,,,,,,,,,,,,,,,,,
2967,0,0.0435,2.75,2.22,,,-0.33,-0.13,-0.03,-1,-0,1,0.36,0.57,62,,,,,,,,,,,,,,,,,,,
2977,0,0.0436,2.71,2.19,1.36,,-0.33,-0.11,-0.01,-1,-1,2,0.35,0.57,61,,0,0,,,,,,,,,,,,,,,,
2987,0,0.0438,2.74,2.21,,,-0.28,-0.13,-0.04,-1,-0,2,0.31,0.57,54,,,,,,,,,,,,,,,,,,,
2997,0,0.044,2.73,2.19,1.39,,-0.31,-0.1,-0.07,-1,-0,2,0.33,0.57,57,,,,,,,,,,,,,,,,,,,
3007,0,0.0442,2.72,2.2,,,-0.28,-0.12,-0.04,-1,0,2,0.31,0.57,54,,,,,,,,,,,,,,,,,,,
3017,0,0.0443,2.74,2.18,1.37,,-0.33,-0.1,-0.05,-2,1,2,0.35,0.57,61,,0,0,,,,,,,,,,,,,,,,
3027,0,0.0445,2.75,2.21,,,-0.25,-0.11,-0.06,-2,1,2,0.28,0.57,49,,,,,,,,,,,,,,,,,,,
3037,0,0.0446,2.75,2.2,1.39,,-0.29,-0.08,-0.02,-2,0,2,0.31,0.57,53,,,,0.0,0.0,0.0,0.0,0,0,0.0,0,0.0,-1,0.0,0,0.0,0.0446,0.0,0.0
3047,0,0.0448,2.72,2.17,,,-0.29,-0.05,-0.01,-2,-0,2,0.3,0.57,51,,,,,,,,,,,,,,,,,,,
3057,0,0.045,2.71,2.19,1.38,,-0.28,-0.06,-0.01,-2,0,2,0.29,0.57,50,,0,0,,,,,,,,,,,,,,,,
3067,0,0.0452,2.75,2.2,,,-0.3,-0.04,-0.04,-2,0,2,0.31,0.57,53,,,,,,,,,,,,,,,,,,,
3077,0,0.0453,2.74,2.21,1.39,,-0.31,-0.06,-0.02,-3,1,2,0.31,0.57,55,,,,,,,,,,,,,,,,,,,
3087,0,0.0455,2.75,2.19,,,-0.36,-0.04,-0.01,-3,1,1,0.36,0.57,63,,,,,,,,,,,,,,,,,,,
3097,0,0.0457,2.74,2.22,1.39,,-0.28,-0.04,-0.05,-3,1,1,0.29,0.57,50,,0,0,,,,,,,,,,,,,,,,
3107,0,0.0458,2.71,2.18,,,-0.34,-0.02,-0.06,-3,1,1,0.34,0.57,59,,,,,,,,,,,,,,,,,,,
3117,0,0.046,2.74,2.23,1.39,,-0.33,-0.04,-0.07,-3,1,1,0.34,0.57,59,,,,,,,,,,,,,,,,,,,
3127,0,0.0462,2.75,2.23,,,-0.34,-0.05,-0.05,-4,1,1,0.35,0.57,60,,,,,,,,,,,,,,,,,,,
3137,0,0.0463,2.74,2.21,1.39,,-0.33,-0.07,-0.06,-4,0,1,0.34,0.57,59,,0,0,0.0,0.0,0.0,0.0,0,0,0.0,0,0.0,-1,0.0,0,0.0,0.0463,0.0,0.0
3147,0,0.0465,2.71,2.21,,,-0.34,-0.07,-0.04,-4,0,2,0.35,0.57,61,,,,,,,,,,,,,,,,,,,
3157,0,0.0466,2.74,2.22,1.37,,-0.38,-0.07,-0.02,-4,0,2,0.39,0.57,67,,,,,,,,,,,,,,,,,,,
3167,0,0.0468,2.74,2.23,,,-0.32,-0.07,-0.04,-4,0,2,0.33,0.57,57,,,,,,,,,,,,,,,,,,,
3177,0,0.047,2.76,2.23,1.39,,-0.35,-0.05,-0.05,-4,-0,2,0.36,0.57,63,,0,0,,,,,,,,,,,,,,,,
3187,0,0.0472,2.68,2.13,,,-0.33,-0.07,-0.07,-4,-0,2,0.35,0.57,60,,,,,,,,,,,,,,,,,,,
3197,0,0.0473,2.74,2.23,1.4,,-0.36,-0.06,-0.1,-4,0,2,0.38,0.57,66,,,,,,,,,,,,,,,,,,,
3207,0,0.0475,2.75,2.22,,,-0.3,-0.03,-0.08,-4,0,2,0.31,0.57,54,,,,,,,,,,,,,,,,,,,
3217,0,0.0476,2.74,2.22,1.4,,-0.34,-0.01,-0.03,-4,-0,2,0.34,0.57,59,,0,0,,,,,,,,,,,,,,,,
3227,0,0.0478,2.71,2.21,,,-0.32,-0.01,-0.02,-4,-1,2,0.32,0.57,56,,,,,,,,,,,,,,,,,,,
3237,0,0.048,2.7,2.19,1.37,,-0.3,-0.03,-0.01,-4,-1,2,0.3,0.57,52,,,,0.0,0.0,0.0,0.0,0,0,0.0,0,0.0,-1,0.0,0,0.0,0.048,0.0,0.0
3247,0,0.0482,2.74,2.22,,,-0.33,-0.02,-0.02,-4,-1,2,0.33,0.57,57,,,,,,,,,,,,,,,,,,,
3257,0,0.0483,2.74,2.22,1.39,,-0.31,-0.06,0.04,-4,-1,2,0.32,0.57,56,,0,0,,,,,,,,,,,,,,,,
3267,0,0.0485,2.74,2.22,,,-0.36,-0.06,0.04,-4,-1,2,0.37,0.57,65,,,,,,,,,,,,,,,,,,,
3277,0,0.0486,2.74,2.22,1.4,,-0.28,-0.05,-0.0,-4,-1,2,0.29,0.57,50,,,,,,,,,,,,,,,,,,,
3287,0,0.0488,2.74,2.2,,,-0.33,0.0,-0.01,-4,-1,2,0.33,0.57,57,,,,,,,,,,,,,,,,,,,
3297,0,0.049,2.7,2.19,1.36,,-0.32,-0.03,-0.02,-4,-1,2,0.32,0.57,56,,0,0,,,,,,,,,,,,,,,,
3307,0,0.0492,2.73,2.21,,,-0.37,-0.05,-0.01,-4,-1,2,0.37,0.57,64,,,,,,,,,,,,,,,,,,,
3317,0,0.0493,2.74,2.22,1.39,,-0.32,-0.04,0.01,-4,-1,2,0.32,0.57,55,,,,,,,,,,,,,,,,,,,
3327,0,0.0495,2.71,2.16,,,-0.33,-0.07,0.02,-4,-1,2,0.34,0.57,59,,,,,,,,,,,,,,,,,,,
3337,0,0.0496,2.72,2.16,1.38,12.8,-0.28,-0.12,0.04,-4,-2,3,0.31,0.57,53,0,0,0,0.0,0.0,0.0,0.0,0,0,0.0,0,0.0,-1,0.0,0,0.0,0.0496,0.0,0.0
3347,0,0.0498,2.74,2.14,,,-0.23,-0.14,0.06,-4,-1,4,0.27,0.57,48,,,,,,,,,,,,,,,,,,,
3357,0,0.05,2.72,2.11,1.39,,-0.17,-0.12,0.07,-4,-1,4,0.22,0.57,39,,,,,,,,,,,,,,,,,,,
3367,0,0.0502,2.67,2.06,,,-0.11,-0.15,0.16,-4,-0,5,0.24,0.57,42,,,,,,,,,,,,,,,,,,,
3377,0,0.0503,2.59,2.04,1.36,,-0.09,-0.09,0.2,-4,1,6,0.23,0.57,41,,0,0,,,,,,,,,,,,,,,,
3387,0,0.0505,2.56,2.05,,,0.0,-0.06,0.22,-5,2,7,0.23,0.57,40,,,,,,,,,,,,,,,,,,,
3397,0,0.0506,2.48,2.02,1.36,,-0.02,-0.02,0.25,-4,3,7,0.25,0.57,44,,,,,,,,,,,,,,,,,,,
3407,0,0.0508,2.44,2.05,,,0.02,0.08,0.23,-5,4,6,0.24,0.57,42,,,,,,,,,,,,,,,,,,,
3417,0,0.051,2.44,2.09,1.39,,0.0,0.16,0.24,-5,6,5,0.29,0.57,50,,0,0,,,,,,,,,,,,,,,,
3427,0,0.0512,2.41,2.1,,,0.07,0.25,0.23,-5,7,4,0.35,0.57,61,,,,,,,,,,,,,,,,,,,
3437,0,0.0513,2.47,2.15,1.38,,0.03,0.25,0.21,-5,8,2,0.33,0.57,57,,,,0.0,0.0,0.0,0.0,0,0,0.0,0,0.0,-1,0.0,0,0.0,0.0513,0.0,0.0
3447,0,0.0515,2.59,2.2,,,0.02,0.29,0.17,-5,10,-0,0.34,0.57,59,,,,,,,,,,,,,,,,,,,
3457,0,0.0516,2.65,2.21,1.37,,-0.04,0.26,0.13,-5,11,-2,0.29,0.57,50,,0,0,,,,,,,,,,,,,,,,
3467,0,0.0518,2.76,2.26,,,-0.06,0.13,0.04,-4,11,-4,0.15,0.57,26,,,,,,,,,,,,,,,,,,,
3477,0,0.052,2.84,2.27,1.35,,-0.13,0.11,0.09,-4,12,-5,0.19,0.57,34,,,,,,,,,,,,,,,,,,,
3487,0,0.0522,2.87,2.32,,,-0.24,-0.01,0.04,-3,11,-4,0.25,0.57,43,,,,,,,,,,,,,,,,,,,
3497,0,0.0523,2.87,2.34,1.35,,-0.3,0.03,-0.06,-3,11,-3,0.31,0.57,53,,0,0,,,,,,,,,,,,,,,,
3507,0,0.0525,2.85,2.36,,,-0.34,0.01,-0.05,-3,10,-2,0.34,0.57,59,,,,,,,,,,,,,,,,,,,
3517,0,0.0526,2.83,2.37,1.39,,-0.33,0.1,-0.02,-3,9,-1,0.35,0.57,61,,,,,,,,,,,,,,,,,,,
3527,0,0.0528,2.79,2.36,,,-0.39,0.13,0.04,-3,8,-0,0.42,0.57,72,,,,,,,,,,,,,,,,,,,
3537,0,0.053,2.7,2.29,1.38,,-0.32,0.11,0.09,-3,7,1,0.35,0.57,61,,0,0,0.0,0.0,0.0,0.0,0,0,0.0,0,0.0,-1,0.0,0,0.0,0.053,0.0,0.0
3547,0,0.0532,2.71,2.29,,,-0.31,0.11,0.13,-3,7,1,0.35,0.57,61,,,,,,,,,,,,,,,,,,,
3557,0,0.0533,2.65,2.26,1.36,,-0.25,0.17,0.18,-3,6,1,0.35,0.57,60,,,,,,,,,,,,,,,,,,,
3567,0,0.0535,2.7,2.26,,,-0.26,0.22,0.16,-3,6,1,0.37,0.57,65,,,,,,,,,,,,,,,,,,,
3577,0,0.0536,2.72,2.26,1.39,,-0.21,0.18,0.13,-2,5,1,0.3,0.57,53,,0,0,,,,,,,,,,,,,,,,
3587,0,0.0538,2.71,2.25,,,-0.26,0.23,0.13,-2,5,1,0.37,0.57,64,,,,,,,,,,,,,,,,,,,
3597,0,0.054,2.69,2.25,1.37,,-0.27,0.12,0.08,-2,4,1,0.3,0.57,53,,,,,,,,,,,,,,,,,,,
3607,0,0.0542,2.76,2.3,,,-0.28,0.11,0.01,-2,3,2,0.3,0.57,53,,,,,,,,,,,,,,,,,,,
3617,0,0.0543,2.79,2.3,1.38,,-0.32,0.1,-0.05,-3,2,3,0.34,0.57,59,,0,0,,,,,,,,,,,,,,,,
3627,0,0.0545,2.8,2.33,,,-0.39,0.08,-0.13,-3,1,3,0.42,0.57,73,,,,,,,,,,,,,,,,,,,
3637,0,0.0546,2.82,2.34,1.39,,-0.46,0.05,-0.17,-3,-2,4,0.49,0.57,85,,,,0.0,0.0,0.0,0.0,0,0,0.0,0,0.0,-1,0.0,0,0.0,0.0546,0.0,0.0
3647,0,0.0548,2.82,2.34,,,-0.53,0.14,-0.08,-3,-4,5,0.55,0.57,96,,,,,,,,,,,,,,,,,,,
3657,0,0.055,2.79,2.33,1.39,,-0.54,0.17,-0.15,-3,-6,4,0.58,0.58,100,,0,0,,,,,,,,,,,,,,,,
3667,0,0.0552,2.76,2.29,,,-0.54,0.27,-0.21,-3,-8,4,0.63,0.63,100,,,,,,,,,,,,,,,,,,,
3677,0,0.0553,2.69,2.24,1.36,,-0.52,0.39,-0.13,-3,-10,2,0.66,0.66,100,,,,,,,,,,,,,,,,,,,
3687,0,0.0555,2.65,2.19,,,-0.47,0.29,-0.06,-3,-12,-0,0.56,0.66,85,,,,,,,,,,,,,,,,,,,
3697,0,0.0556,2.6,2.14,1.39,,-0.37,0.39,-0.07,-3,-15,-2,0.54,0.66,82,,0,0,,,,,,,,,,,,,,,,
3707,0,0.0558,2.57,2.08,,,-0.23,0.4,-0.11,-2,-17,-4,0.47,0.66,72,,,,,,,,,,,,,,,,,,,
3717,0,0.056,2.56,2.03,1.39,,-0.11,0.27,-0.25,-2,-17,-5,0.38,0.66,58,,,,,,,,,,,,,,,,,,,
3727,0,0.0562,2.57,2.01,,,-0.07,0.14,-0.27,-2,-18,-5,0.32,0.66,48,,,,,,,,,,,,,,,,,,,
3737,0,0.0563,2.55,1.99,1.37,,0.0,0.25,-0.2,-2,-17,-5,0.32,0.66,48,,0,0,0.0,0.0,0.0,0.0,0,0,0.0,0,0.0,-1,0.0,0,0.0,0.0563,0.0,0.0
3747,0,0.0565,2.59,2.0,,,0.06,0.22,-0.2,-2,-17,-4,0.3,0.66,45,,,,,,,,,,,,,,,,,,,
3757,0,0.0566,2.6,1.98,1.35,,0.06,0.14,-0.27,-1,-15,-4,0.31,0.66,47,,,,,,,,,,,,,,,,,,,
3767,0,0.0568,2.63,2.0,,,0.05,0.19,-0.25,-0,-14,-3,0.32,0.66,49,,,,,,,,,,,,,,,,,,,
3777,0,0.057,2.65,2.0,1.39,,0.09,0.12,-0.19,-0,-13,-2,0.24,0.66,36,,0,0,,,,,,,,,,,,,,,,
3787,0,0.0572,2.61,1.98,,,0.16,0.06,-0.19,-0,-11,-1,0.26,0.66,39,,,,,,,,,,,,,,,,,,,
3797,0,0.0573,2.6,1.97,1.36,,0.19,0.07,-0.23,-0,-9,-0,0.31,0.66,47,,,,,,,,,,,,,,,,,,,
3807,0,0.0575,2.55,1.98,,,0.18,0.04,-0.22,-0,-8,1,0.29,0.66,44,,,,,,,,,,,,,,,,,,,
3817,0,0.0576,2.59,2.05,1.39,,0.21,0.04,-0.23,-0,-6,3,0.31,0.66,48,,0,0,,,,,,,,,,,,,,,,
3827,0,0.0578,2.59,2.07,,,0.23,0.11,-0.23,-0,-4,4,0.34,0.66,52,,,,,,,,,,,,,,,,,,,
3837,0,0.058,2.57,2.08,1.35,,0.23,0.15,-0.2,-0,-2,4,0.34,0.66,52,,,,0.0,0.0,0.0,0.0,0,0,0.0,0,0.0,-1,0.0,0,0.0,0.058,0.0,0.0
3847,0,0.0582,2.58,2.13,,,0.22,0.25,-0.21,-0,-1,4,0.39,0.66,60,,,,,,,,,,,,,,,,,,,
3857,0,0.0583,2.61,2.15,1.37,,0.17,0.27,-0.22,-0,0,4,0.39,0.66,59,,0,0,,,,,,,,,,,,,,,,
3867,0,0.0585,2.66,2.18,,,0.15,0.3,-0.23,0,2,4,0.41,0.66,62,,,,,,,,,,,,,,,,,,,
3877,0,0.0586,2.65,2.17,1.37,,0.15,0.33,-0.24,-0,3,3,0.44,0.66,66,,,,,,,,,,,,,,,,,,,
3887,0,0.0588,2.66,2.2,,,0.13,0.33,-0.24,-0,4,2,0.43,0.66,66,,,,,,,,,,,,,,,,,,,
3897,0,0.059,2.7,2.23,1.39,,0.11,0.36,-0.23,-0,4,1,0.44,0.66,67,,0,0,,,,,,,,,,,,,,,,
3907,0,0.0592,2.7,2.23,,,0.08,0.33,-0.25,-0,5,-0,0.42,0.66,64,,,,,,,,,,,,,,,,,,,
3917,0,0.0593,2.67,2.2,1.37,,0.05,0.29,-0.27,-0,5,-1,0.4,0.66,61,,,,,,,,,,,,,,,,,,,
3927,0,0.0595,2.69,2.22,,,0.04,0.24,-0.27,-1,5,-1,0.36,0.66,55,,,,,,,,,,,,,,,,,,,
3937,0,0.0596,2.69,2.21,1.39,,0.03,0.19,-0.24,-1,6,-2,0.31,0.66,47,,0,0,0.0,0.0,0.0,0.0,0,0,0.0,0,0.0,-1,0.0,0,0.0,0.0596,0.0,0.0
3947,0,0.0598,2.7,2.21,,,0.01,0.16,-0.21,-1,6,-2,0.27,0.66,40,,,,,,,,,,,,,,,,,,,
3957,0,0.06,2.69,2.17,1.34,,0.0,0.11,-0.16,-1,6,-1,0.2,0.66,30,,,,,,,,,,,,,,,,,,,
3967,0,0.0602,2.72,2.18,,,-0.02,0.11,-0.15,-1,6,-1,0.19,0.66,29,,,,,,,,,,,,,,,,,,,
3977,0,0.0603,2.71,2.2,1.38,,-0.06,0.08,-0.16,-1,6,-1,0.19,0.66,29,,0,0,,,,,,,,,,,,,,,,
3987,0,0.0605,2.73,2.21,,,-0.07,0.1,-0.2,-1,6,-1,0.24,0.66,36,,,,,,,,,,,,,,,,,,,
3997,0,0.0606,2.73,2.22,1.39,,-0.1,0.09,-0.22,-2,6,-0,0.25,0.66,39,,,,,,,,,,,,,,,,,,,
4007,0,0.0608,2.71,2.2,,,-0.11,0.08,-0.21,-1,6,-0,0.25,0.66,39,,,,,,,,,,,,,,,,,,,
4017,0,0.061,2.74,2.19,1.37,,-0.11,0.1,-0.22,-2,6,-0,0.26,0.66,40,,0,0,,,,,,,,,,,,,,,,
4027,0,0.0612,2.73,2.21,,,-0.12,0.09,-0.23,-2,6,-0,0.27,0.66,42,,,,,,,,,,,,,,,,,,,
4037,0,0.0613,2.72,2.21,1.39,,-0.12,0.11,-0.25,-2,6,-0,0.3,0.66,45,,,,0.0,0.0,0.0,0.0,0,0,0.0,0,0.0,-1,0.0,0,0.0,0.0613,0.0,0.0
4047,0,0.0615,2.73,2.2,,,-0.14,0.09,-0.24,-2,5,-0,0.29,0.66,44,,,,,,,,,,,,,,,,,,,
4057,0,0.0616,2.72,2.19,1.35,,-0.16,0.11,-0.22,-2,5,-0,0.29,0.66,44,,0,0,,,,,,,,,,,,,,,,
4067,0,0.0618,2.7,2.19,,,-0.15,0.12,-0.27,-1,5,-0,0.33,0.66,50,,,,,,,,,,,,,,,,,,,
4077,0,0.062,2.71,2.17,1.34,,-0.16,0.11,-0.28,-1,5,-0,0.34,0.66,52,,,,,,,,,,,,,,,,,,,
4087,0,0.0622,2.73,2.21,,,-0.15,0.11,-0.22,-1,5,-1,0.29,0.66,44,,,,,,,,,,,,,,,,,,,
4097,0,0.0623,2.73,2.21,1.39,,-0.15,0.09,-0.21,-1,4,-1,0.27,0.66,42,,0,0,,,,,,,,,,,,,,,,
4107,0,0.0625,2.74,2.22,,,-0.17,0.09,-0.23,-1,3,-1,0.3,0.66,45,,,,,,,,,,,,,,,,,,,
4117,0,0.0626,2.74,2.2,1.38,,-0.17,0.1,-0.24,-1,3,-1,0.31,0.66,47,,,,,,,,,,,,,,,,,,,
4127,0,0.0628,2.71,2.17,,,-0.14,0.08,-0.18,-1,3,-1,0.24,0.66,36,,,,,,,,,,,,,,,,,,,
4137,0,0.063,2.7,2.18,1.37,,-0.12,0.08,-0.14,-1,2,-1,0.2,0.66,31,,0,0,0.0,0.0,0.0,0.0,0,0,0.0,0,0.0,-1,0.0,0,0.0,0.063,0.0,0.0
4147,0,0.0632,2.71,2.19,,,-0.11,0.07,-0.17,-1,2,-1,0.21,0.66,32,,,,,,,,,,,,,,,,,,,
4157,0,0.0633,2.74,2.18,1.37,,-0.14,0.05,-0.14,-1,1,-1,0.2,0.66,31,,,,,,,,,,,,,,,,,,,
4167,0,0.0635,2.74,2.2,,,-0.16,0.08,-0.11,-1,1,-1,0.21,0.66,32,,,,,,,,,,,,,,,,,,,
4177,0,0.0636,2.74,2.19,1.38,,-0.09,0.07,-0.09,-1,-0,-1,0.14,0.66,21,,0,0,,,,,,,,,,,,,,,,
4187,0,0.0638,2.71,2.15,,,-0.08,0.05,-0.09,-1,-1,-1,0.13,0.66,19,,,,,,,,,,,,,,,,,,,
4197,0,0.064,2.68,2.12,1.34,,-0.04,0.04,-0.09,-1,-1,-1,0.1,0.66,16,,,,,,,,,,,,,,,,,,,
4207,0,0.0642,2.65,2.1,,,-0.05,-0.0,-0.05,-1,-1,-1,0.07,0.66,10,,,,,,,,,,,,,,,,,,,
4217,0,0.0643,2.66,2.09,1.38,,-0.03,-0.08,0.01,-1,-1,-1,0.08,0.66,13,,0,0,,,,,,,,,,,,,,,,
4227,0,0.0645,2.62,2.03,,,0.08,-0.06,0.04,-1,-1,-0,0.1,0.66,16,,,,,,,,,,,,,,,,,,,
4237,0,0.0646,2.54,1.98,1.39,,0.1,-0.1,0.04,-1,-1,0,0.15,0.66,23,,,,0.0,0.0,0.0,0.0,0,0,0.0,0,0.0,-1,0.0,0,0.0,0.0646,0.0,0.0
4247,0,0.0648,2.44,1.92,,,0.19,-0.11,0.04,-1,-0,1,0.22,0.66,34,,,,,,,,,,,,,,,,,,,
4257,0,0.065,2.4,1.91,1.38,,0.25,-0.11,0.12,-1,1,2,0.3,0.66,45,,0,0,,,,,,,,,,,,,,,,
4267,0,0.0652,2.33,1.9,,,0.32,-0.12,0.21,-0,2,2,0.4,0.66,61,,,,,,,,,,,,,,,,,,,
4277,0,0.0653,2.33,1.94,1.39,,0.42,0.0,0.25,-0,4,2,0.49,0.66,75,,,,,,,,,,,,,,,,,,,
4287,0,0.0655,2.32,1.98,,,0.41,0.07,0.2,0,6,1,0.46,0.66,71,,,,,,,,,,,,,,,,,,,
4297,0,0.0656,2.41,2.05,1.39,,0.37,0.19,0.14,0,8,-1,0.44,0.66,67,,0,0,,,,,,,,,,,,,,,,
4307,0,0.0658,2.46,2.09,,,0.29,0.18,0.17,1,11,-3,0.38,0.66,57,,,,,,,,,,,,,,,,,,,
4317,0,0.066,2.63,2.15,1.36,,0.21,0.24,0.16,1,13,-5,0.35,0.66,54,,,,,,,,,,,,,,,,,,,
4327,0,0.0662,2.69,2.15,,,0.22,0.11,0.1,2,14,-7,0.27,0.66,41,,,,,,,,,,,,,,,,,,,
4337,0,0.0663,2.83,2.24,1.38,12.73,0.1,0.03,0.1,2,15,-8,0.14,0.66,22,0,0,0,0.0,0.0,0.0,0.0,0,0,0.0,0,0.0,-1,0.0,0,0.0,0.0663,0.0,0.0
4347,0,0.0665,2.93,2.33,,,-0.0,-0.09,-0.05,3,15,-8,0.1,0.66,16,,,,,,,,,,,,,,,,,,,
4357,0,0.0667,2.94,2.39,1.39,,-0.12,-0.12,-0.2,3,15,-7,0.26,0.66,40,,,,,,,,,,,,,,,,,,,
4367,0,0.0668,2.89,2.36,,,-0.14,-0.1,-0.21,2,14,-5,0.27,0.66,41,,,,,,,,,,,,,,,,,,,
4377,0,0.067,2.87,2.4,1.39,,-0.09,-0.08,-0.13,2,13,-4,0.18,0.66,28,,0,0,,,,,,,,,,,,,,,,
4387,0,0.0671,2.77,2.34,,,-0.11,-0.01,-0.03,2,13,-2,0.12,0.66,18,,,,,,,,,,,,,,,,,,,
4397,0,0.0673,2.78,2.36,1.39,,-0.14,0.03,0.0,2,12,-3,0.14,0.66,21,,,,,,,,,,,,,,,,,,,
4407,0,0.0675,2.72,2.32,,,-0.15,-0.01,0.01,2,11,-2,0.15,0.66,23,,,,,,,,,,,,,,,,,,,
4417,0,0.0676,2.71,2.27,1.37,,-0.1,0.05,0.06,2,11,-2,0.12,0.66,19,,0,0,,,,,,,,,,,,,,,,
4427,0,0.0678,2.71,2.25,,,-0.07,0.15,0.03,2,10,-3,0.17,0.66,26,,,,,,,,,,,,,,,,,,,
4437,0,0.068,2.72,2.22,1.38,,-0.1,0.04,0.04,2,10,-3,0.12,0.66,18,,,,0.0,0.0,0.0,0.0,0,0,0.0,0,0.0,-1,0.0,0,0.0,0.068,0.0,0.0
4447,0,0.0682,2.75,2.23,,,-0.1,0.05,0.07,2,10,-4,0.13,0.66,20,,,,,,,,,,,,,,,,,,,
4457,0,0.0683,2.79,2.24,1.39,,-0.09,-0.03,0.01,2,9,-4,0.1,0.66,15,,0,0,,,,,,,,,,,,,,,,
4467,0,0.0685,2.79,2.24,,,-0.13,-0.04,-0.05,2,8,-4,0.15,0.66,22,,,,,,,,,,,,,,,,,,,
4477,0,0.0686,2.85,2.27,1.38,,-0.14,-0.12,-0.08,1,7,-3,0.2,0.66,30,,,,,,,,,,,,,,,,,,,
4487,0,0.0688,2.83,2.27,,,-0.23,-0.22,-0.14,1,6,-2,0.35,0.66,53,,,,,,,,,,,,,,,,,,,
4497,0,0.069,2.86,2.33,1.38,,-0.29,-0.27,-0.2,1,4,-0,0.45,0.66,68,,0,0,,,,,,,,,,,,,,,,
4507,0,0.0692,2.86,2.33,,,-0.4,-0.22,-0.17,1,1,1,0.49,0.66,75,,,,,,,,,,,,,,,,,,,
4517,0,0.0693,2.86,2.35,1.39,,-0.45,-0.2,-0.18,1,-2,2,0.52,0.66,80,,,,,,,,,,,,,,,,,,,
4527,0,0.0695,2.84,2.32,,,-0.52,-0.11,-0.26,1,-5,3,0.6,0.66,91,,,,,,,,,,,,,,,,,,,
4537,0,0.0696,2.84,2.31,1.39,,-0.57,0.01,-0.31,1,-9,3,0.65,0.66,99,,0,0,0.0,0.0,0.0,0.0,0,0,0.0,0,0.0,-1,0.0,0,0.0,0.0696,0.0,0.0
4547,0,0.0698,2.8,2.24,,,-0.58,0.14,-0.31,1,-12,1,0.67,0.67,100,,,,,,,,,,,,,,,,,,,
4557,0,0.07,2.86,2.21,1.36,,-0.56,0.09,-0.34,1,-17,0,0.66,0.67,98,,,,,,,,,,,,,,,,,,,
4567,0,0.0702,2.86,2.18,,,-0.52,0.12,-0.35,1,-21,-1,0.64,0.67,95,,,,,,,,,,,,,,,,,,,
4577,0,0.0703,2.86,2.18,1.36,,-0.38,0.0,-0.4,1,-24,-2,0.55,0.67,82,,0,0,,,,,,,,,,,,,,,,
4587,0,0.0705,2.84,2.21,,,-0.36,-0.12,-0.44,-0,-26,-1,0.58,0.67,87,,,,,,,,,,,,,,,,,,,
4597,0,0.0706,2.8,2.26,1.38,,-0.33,-0.23,-0.46,-0,-29,0,0.61,0.67,91,,,,,,,,,,,,,,,,,,,
4607,0,0.0708,2.74,2.26,,,-0.26,-0.1,-0.5,-1,-30,1,0.57,0.67,85,,,,,,,,,,,,,,,,,,,
4617,0,0.071,2.67,2.2,1.38,,-0.17,-0.1,-0.53,-0,-32,1,0.56,0.67,84,,0,0,,,,,,,,,,,,,,,,
4627,0,0.0712,2.57,2.13,,,-0.1,-0.11,-0.65,0,-34,1,0.67,0.67,100,,,,,,,,,,,,,,,,,,,
4637,0,0.0713,2.59,2.07,1.39,,-0.02,-0.01,-0.62,1,-35,1,0.62,0.67,93,,,,0.0,0.0,0.0,0.0,0,0,0.0,0,0.0,-1,0.0,0,0.0,0.0713,0.0,0.0
4647,0,0.0715,2.55,2.0,,,0.1,-0.08,-0.66,2,-36,1,0.67,0.67,100,,,,,,,,,,,,,,,,,,,
4657,0,0.0716,2.52,1.94,1.34,,0.22,-0.11,-0.65,2,-36,0,0.69,0.69,100,,0,0,,,,,,,,,,,,,,,,
4667,0,0.0718,2.55,1.97,,,0.28,-0.12,-0.66,3,-35,0,0.72,0.72,100,,,,,,,,,,,,,,,,,,,
4677,0,0.072,2.55,1.99,1.36,,0.3,-0.07,-0.66,4,-34,0,0.73,0.73,100,,,,,,,,,,,,,,,,,,,
4687,0,0.0722,2.53,1.98,,,0.37,-0.06,-0.6,4,-33,-0,0.71,0.73,98,,,,,,,,,,,,,,,,,,,
4697,0,0.0723,2.58,1.99,1.38,,0.43,-0.02,-0.59,5,-31,-0,0.73,0.73,100,,0,0,,,,,,,,,,,,,,,,
4707,0,0.0725,2.56,1.97,,,0.48,-0.11,-0.55,6,-29,-0,0.74,0.74,100,,,,,,,,,,,,,,,,,,,
4717,0,0.0726,2.54,1.93,1.35,,0.58,-0.07,-0.48,6,-28,-1,0.75,0.75,100,,,,,,,,,,,,,,,,,,,
4727,0,0.0728,2.54,1.92,,,0.55,-0.09,-0.44,7,-25,-1,0.71,0.75,95,,,,,,,,,,,,,,,,,,,
4737,0,0.073,2.56,1.93,1.37,,0.64,-0.07,-0.46,7,-23,-1,0.79,0.79,100,,0,0,0.0,0.0,0.0,0.0,0,0,0.0,0,0.0,-1,0.0,0,0.0,0.073,0.0,0.0
4747,0,0.0732,2.59,1.95,,,0.71,-0.04,-0.38,7,-20,-1,0.8,0.8,100,,,,,,,,,,,,,,,,,,,
4757,0,0.0733,2.6,1.92,1.35,,0.72,-0.01,-0.38,8,-17,-1,0.82,0.82,100,,,,,,,,,,,,,,,,,,,
4767,0,0.0735,2.61,1.95,,,0.73,0.03,-0.43,9,-13,-2,0.84,0.84,100,,,,,,,,,,,,,,,,,,,
4777,0,0.0736,2.67,1.99,1.36,,0.7,-0.06,-0.41,9,-9,-2,0.81,0.84,96,,0,0,,,,,,,,,,,,,,,,
4787,0,0.0738,2.71,2.02,,,0.71,-0.17,-0.36,9,-6,-2,0.81,0.84,96,,,,,,,,,,,,,,,,,,,
4797,0,0.074,2.75,2.08,1.39,,0.67,-0.1,-0.33,9,-3,-2,0.75,0.84,89,,,,,,,,,,,,,,,,,,,
4807,0,0.0742,2.78,2.1,,,0.62,-0.14,-0.34,10,-0,-2,0.72,0.84,85,,,,,,,,,,,,,,,,,,,
4817,0,0.0743,2.79,2.11,1.38,,0.58,-0.16,-0.35,10,2,-2,0.69,0.84,82,,0,0,,,,,,,,,,,,,,,,
4827,0,0.0745,2.82,2.15,,,0.52,-0.17,-0.31,10,5,-2,0.62,0.84,74,,,,,,,,,,,,,,,,,,,
4837,0,0.0746,2.78,2.12,1.36,,0.51,-0.22,-0.28,11,8,-2,0.63,0.84,74,,,,0.0,0.0,0.0,0.0,0,0,0.0,0,0.0,-1,0.0,0,0.0,0.0746,0.0,0.0
4847,0,0.0748,2.78,2.14,,,0.45,-0.22,-0.29,11,10,-2,0.58,0.84,68,,,,,,,,,,,,,,,,,,,
4857,0,0.075,2.81,2.17,1.38,,0.41,-0.27,-0.26,11,11,-1,0.56,0.84,66,,0,0,,,,,,,,,,,,,,,,
4867,0,0.0752,2.8,2.15,,,0.36,-0.24,-0.21,11,13,-1,0.48,0.84,57,,,,,,,,,,,,,,,,,,,
4877,0,0.0753,2.84,2.2,1.39,,0.31,-0.25,-0.25,11,14,-1,0.47,0.84,55,,,,,,,,,,,,,,,,,,,
4887,0,0.0755,2.84,2.21,,,0.29,-0.24,-0.33,11,15,-0,0.5,0.84,59,,,,,,,,,,,,,,,,,,,
4897,0,0.0756,2.84,2.24,1.38,,0.2,-0.21,-0.33,11,15,0,0.44,0.84,52,,0,0,,,,,,,,,,,,,,,,
4907,0,0.0758,2.84,2.24,,,0.13,-0.26,-0.26,10,16,1,0.39,0.84,47,,,,,,,,,,,,,,,,,,,
4917,0,0.076,2.84,2.26,1.4,,0.12,-0.21,-0.27,10,16,1,0.36,0.84,42,,,,,,,,,,,,,,,,,,,
4927,0,0.0762,2.82,2.24,,,0.07,-0.19,-0.25,10,16,1,0.32,0.84,38,,,,,,,,,,,,,,,,,,,
4937,0,0.0763,2.84,2.28,1.4,,0.02,-0.09,-0.27,9,15,1,0.28,0.84,34,,0,0,0.0,0.0,0.0,0.0,0,0,0.0,0,0.0,-1,0.0,0,0.0,0.0763,0.0,0.0
4947,0,0.0765,2.83,2.24,,,-0.07,-0.16,-0.31,9,15,1,0.36,0.84,43,,,,,,,,,,,,,,,,,,,
4957,0,0.0766,2.81,2.27,1.38,,-0.13,-0.11,-0.31,8,14,1,0.36,0.84,42,,,,,,,,,,,,,,,,,,,
4967,0,0.0768,2.85,2.25,,,-0.09,-0.13,-0.25,8,13,1,0.3,0.84,35,,,,,,,,,,,,,,,,,,,
4977,0,0.077,2.85,2.27,1.4,,-0.12,-0.14,-0.25,8,13,1,0.32,0.84,37,,0,0,,,,,,,,,,,,,,,,
4987,0,0.0772,2.86,2.27,,,-0.15,-0.11,-0.28,7,12,1,0.34,0.84,40,,,,,,,,,,,,,,,,,,,
4997,0,0.0773,2.86,2.28,1.39,,-0.23,-0.14,-0.27,7,10,1,0.39,0.84,46,,,,,,,,,,,,,,,,,,,
5007,0,0.0775,2.82,2.23,,,-0.28,-0.13,-0.24,6,9,1,0.4,0.84,47,,,,,,,,,,,,,,,,,,,
5017,0,0.0777,2.83,2.23,1.36,,-0.22,-0.13,-0.18,6,7,1,0.31,0.84,37,,0,0,,,,,,,,,,,,,,,,
5027,0,0.0778,2.81,2.25,,,-0.25,-0.13,-0.19,6,5,1,0.34,0.84,41,,,,,,,,,,,,,,,,,,,
5037,0,0.078,2.79,2.21,1.37,,-0.23,-0.12,-0.22,5,4,0,0.34,0.84,40,,,,0.0,0.0,0.0,0.0,0,0,0.0,0,0.0,-1,0.0,0,0.0,0.078,0.0,0.0
5047,0,0.0781,2.74,2.16,,,-0.22,-0.21,-0.17,5,2,1,0.35,0.84,41,,,,,,,,,,,,,,,,,,,
5057,0,0.0783,2.73,2.11,1.39,,-0.19,-0.25,-0.1,5,2,0,0.32,0.84,38,,0,0,,,,,,,,,,,,,,,,
5067,0,0.0785,2.69,1.99,,,-0.08,-0.28,-0.1,5,0,0,0.31,0.84,37,,,,,,,,,,,,,,,,,,,
5077,0,0.0786,2.62,1.86,1.39,,-0.04,-0.33,-0.04,5,-1,1,0.33,0.84,39,,,,,,,,,,,,,,,,,,,
5087,0,0.0788,2.57,1.77,,,0.09,-0.43,-0.02,5,-2,2,0.44,0.84,53,,,,,,,,,,,,,,,,,,,
5097,0,0.079,2.49,1.71,1.39,,0.21,-0.54,0.03,4,-1,5,0.58,0.84,69,,0,0,,,,,,,,,,,,,,,,
5107,0,0.0792,2.42,1.66,,,0.33,-0.64,0.12,4,0,8,0.73,0.84,87,,,,,,,,,,,,,,,,,,,
5117,0,0.0793,2.35,1.73,1.4,,0.45,-0.6,0.11,3,2,11,0.75,0.84,89,,,,,,,,,,,,,,,,,,,
5127,0,0.0795,2.29,1.78,,,0.46,-0.55,0.15,3,5,14,0.73,0.84,87,,,,,,,,,,,,,,,,,,,
5137,0,0.0796,2.29,1.89,1.39,,0.54,-0.41,0.17,3,8,16,0.7,0.84,83,,0,0,0.0,0.0,0.0,0.0,0,0,0.0,0,0.0,-1,0.0,0,0.0,0.0796,0.0,0.0
5147,0,0.0798,2.29,1.97,,,0.52,-0.27,0.13,2,11,16,0.6,0.84,72,,,,,,,,,,,,,,,,,,,
5157,0,0.08,2.3,2.03,1.39,,0.46,-0.2,0.14,1,15,16,0.52,0.84,62,,,,,,,,,,,,,,,,,,,
5167,0,0.0802,2.37,2.07,,,0.51,-0.07,0.0,1,17,14,0.52,0.84,61,,,,,,,,,,,,,,,,,,,
5177,0,0.0803,2.45,2.14,1.37,,0.46,0.05,-0.08,1,21,12,0.47,0.84,56,,0,0,,,,,,,,,,,,,,,,
5187,0,0.0805,2.6,2.2,,,0.42,0.08,-0.23,0,23,8,0.48,0.84,57,,,,,,,,,,,,,,,,,,,
5197,0,0.0806,2.67,2.21,1.36,,0.31,0.06,-0.28,0,26,5,0.43,0.84,50,,,,,,,,,,,,,,,,,,,
5207,0,0.0808,2.75,2.23,,,0.26,-0.0,-0.24,0,29,1,0.36,0.84,42,,,,,,,,,,,,,,,,,,,
5217,0,0.081,2.84,2.29,1.35,,0.28,-0.11,-0.14,-0,30,-1,0.34,0.84,40,,0,0,,,,,,,,,,,,,,,,
5227,0,0.0812,2.88,2.36,,,0.19,-0.23,-0.18,-0,32,-3,0.35,0.84,42,,,,,,,,,,,,,,,,,,,
5237,0,0.0813,2.9,2.38,1.39,,0.07,-0.34,-0.22,0,32,-4,0.41,0.84,48,,,,0.0,0.0,0.0,0.0,0,0,0.0,0,0.0,-1,0.0,0,0.0,0.0813,0.0,0.0
5247,0,0.0815,2.87,2.35,,,-0.0,-0.39,-0.19,-0,32,-3,0.43,0.84,51,,,,,,,,,,,,,,,,,,,
5257,0,0.0816,2.83,2.37,1.38,,-0.04,-0.35,-0.21,0,33,-3,0.41,0.84,48,,0,0,,,,,,,,,,,,,,,,
5267,0,0.0818,2.83,2.38,,,-0.03,-0.34,-0.3,0,33,-3,0.45,0.84,54,,,,,,,,,,,,,,,,,,,
5277,0,0.082,2.8,2.34,1.39,,-0.06,-0.31,-0.33,0,34,-3,0.46,0.84,54,,,,,,,,,,,,,,,,,,,
5287,0,0.0822,2.78,2.31,,,-0.15,-0.26,-0.36,0,34,-3,0.47,0.84,56,,,,,,,,,,,,,,,,,,,
5297,0,0.0823,2.76,2.3,1.39,,-0.13,-0.35,-0.36,1,35,-3,0.51,0.84,61,,0,0,,,,,,,,,,,,,,,,
5307,0,0.0825,2.75,2.28,,,-0.11,-0.28,-0.34,1,35,-3,0.46,0.84,54,,,,,,,,,,,,,,,,,,,
5317,0,0.0826,2.74,2.27,1.39,,-0.08,-0.36,-0.26,1,36,-3,0.45,0.84,53,,,,,,,,,,,,,,,,,,,
5327,0,0.0828,2.74,2.26,,,-0.12,-0.3,-0.22,1,36,-3,0.39,0.84,46,,,,,,,,,,,,,,,,,,,
5337,0,0.083,2.69,2.24,1.35,12.72,-0.17,-0.41,-0.27,0,36,-2,0.52,0.84,61,0,0,0,0.0,0.0,0.0,0.0,0,0,0.0,0,0.0,-1,0.0,0,0.0,0.083,0.0,0.0
5347,0,0.0832,2.74,2.32,,,-0.25,-0.51,-0.31,-0,35,-0,0.65,0.84,77,,,,,,,,,,,,,,,,,,,
5357,0,0.0833,2.74,2.3,1.36,,-0.29,-0.62,-0.25,-1,35,2,0.72,0.84,86,,,,,,,,,,,,,,,,,,,
5367,0,0.0835,2.74,2.36,,,-0.4,-0.57,-0.39,-2,35,5,0.8,0.84,95,,,,,,,,,,,,,,,,,,,
5377,0,0.0836,2.73,2.37,1.39,,-0.5,-0.43,-0.47,-2,33,7,0.81,0.84,96,,0,0,,,,,,,,,,,,,,,,
5387,0,0.0838,2.73,2.36,,,-0.6,-0.37,-0.36,-2,30,8,0.79,0.84,94,,,,,,,,,,,,,,,,,,,
5397,0,0.084,2.74,2.32,1.38,,-0.66,-0.24,-0.39,-2,26,9,0.8,0.84,95,,,,,,,,,,,,,,,,,,,
5407,0,0.0842,2.78,2.29,,,-0.66,-0.17,-0.45,-2,23,9,0.82,0.84,97,,,,,,,,,,,,,,,,,,,
5417,0,0.0843,2.79,2.21,1.39,,-0.71,-0.14,-0.47,-2,19,9,0.86,0.86,100,,0,0,,,,,,,,,,,,,,,,
5427,0,0.0845,2.8,2.18,,,-0.7,-0.05,-0.36,-2,15,8,0.79,0.86,92,,,,,,,,,,,,,,,,,,,
5437,0,0.0846,2.87,2.2,1.37,,-0.69,-0.05,-0.42,-3,12,8,0.81,0.86,94,,,,0.0,0.0,0.0,0.0,0,0,0.0,0,0.0,-1,0.0,0,0.0,0.0846,0.0,0.0
5447,0,0.0848,2.88,2.21,,,-0.69,-0.16,-0.52,-3,8,8,0.88,0.88,100,,,,,,,,,,,,,,,,,,,
5457,0,0.085,2.87,2.22,1.39,,-0.67,-0.09,-0.51,-4,5,8,0.85,0.88,96,,0,0,,,,,,,,,,,,,,,,
5467,0,0.0852,2.86,2.24,,,-0.66,-0.16,-0.46,-5,1,8,0.82,0.88,93,,,,,,,,,,,,,,,,,,,
5477,0,0.0853,2.83,2.25,1.36,,-0.68,-0.16,-0.47,-6,-2,8,0.85,0.88,96,,,,,,,,,,,,,,,,,,,
5487,0,0.0855,2.77,2.27,,,-0.65,-0.05,-0.56,-6,-5,8,0.86,0.88,97,,,,,,,,,,,,,,,,,,,
5497,0,0.0856,2.74,2.3,1.37,,-0.69,0.07,-0.64,-7,-8,7,0.94,0.94,100,,0,0,,,,,,,,,,,,,,,,
5507,0,0.0858,2.77,2.31,,,-0.62,0.01,-0.63,-7,-11,7,0.88,0.94,93,,,,,,,,,,,,,,,,,,,
5517,0,0.086,2.77,2.3,1.39,,-0.57,0.0,-0.68,-8,-14,6,0.88,0.94,94,,,,,,,,,,,,,,,,,,,
5527,0,0.0862,2.76,2.27,,,-0.54,-0.05,-0.73,-8,-17,5,0.91,0.94,97,,,,,,,,,,,,,,,,,,,
5537,0,0.0863,2.78,2.31,1.39,,-0.5,-0.04,-0.72,-9,-20,5,0.88,0.94,93,,0,0,0.0,0.0,0.0,0.0,0,0,0.0,0,0.0,-1,0.0,0,0.0,0.0863,0.0,0.0
5547,0,0.0865,2.77,2.31,,,-0.47,-0.03,-0.79,-9,-22,4,0.91,0.94,97,,,,,,,,,,,,,,,,,,,
5557,0,0.0866,2.79,2.29,1.38,,-0.43,-0.02,-0.8,-9,-24,4,0.91,0.94,96,,,,,,,,,,,,,,,,,,,
5567,0,0.0868,2.79,2.31,,,-0.41,-0.01,-0.81,-10,-27,3,0.91,0.94,96,,,,,,,,,,,,,,,,,,,
5577,0,0.087,2.79,2.31,1.39,,-0.42,-0.01,-0.81,-10,-29,3,0.92,0.94,97,,0,0,,,,,,,,,,,,,,,,
5587,0,0.0872,2.81,2.3,,,-0.4,-0.02,-0.79,-10,-31,2,0.89,0.94,94,,,,,,,,,,,,,,,,,,,
5597,0,0.0873,2.77,2.28,1.37,,-0.4,-0.02,-0.8,-11,-33,2,0.89,0.94,94,,,,,,,,,,,,,,,,,,,
5607,0,0.0875,2.82,2.31,,,-0.36,0.0,-0.82,-11,-35,2,0.89,0.94,95,,,,,,,,,,,,,,,,,,,
5617,0,0.0876,2.82,2.3,1.39,,-0.32,-0.01,-0.83,-12,-38,1,0.89,0.94,94,,0,0,,,,,,,,,,,,,,,,
5627,0,0.0878,2.79,2.28,,,-0.33,-0.02,-0.82,-12,-39,1,0.89,0.94,94,,,,,,,,,,,,,,,,,,,
5637,0,0.088,2.83,2.31,1.38,,-0.3,0.04,-0.81,-12,-41,1,0.87,0.94,92,,,,0.0,0.0,0.0,0.0,0,0,0.0,0,0.0,-1,0.0,0,0.0,0.088,0.0,0.0
5647,0,0.0882,2.79,2.31,,,-0.33,0.07,-0.84,-13,-43,0,0.9,0.94,95,,,,,,,,,,,,,,,,,,,
5657,0,0.0883,2.81,2.27,1.35,,-0.31,0.04,-0.83,-13,-45,-0,0.89,0.94,94,,0,0,,,,,,,,,,,,,,,,
5667,0,0.0885,2.82,2.3,,,-0.29,0.02,-0.83,-14,-47,-1,0.88,0.94,94,,,,,,,,,,,,,,,,,,,
5677,0,0.0887,2.81,2.3,1.38,,-0.3,0.06,-0.87,-14,-48,-1,0.92,0.94,97,,,,,,,,,,,,,,,,,,,
5687,0,0.0888,2.84,2.31,,,-0.31,0.04,-0.85,-14,-50,-1,0.91,0.94,97,,,,,,,,,,,,,,,,,,,
5697,0,0.089,2.82,2.3,1.39,,-0.29,0.07,-0.88,-15,-51,-2,0.93,0.94,98,,0,0,,,,,,,,,,,,,,,,
5707,0,0.0891,2.8,2.29,,,-0.21,0.08,-0.85,-16,-52,-2,0.88,0.94,93,,,,,,,,,,,,,,,,,,,
5717,0,0.0893,2.77,2.25,1.39,,-0.14,0.08,-0.8,-16,-53,-3,0.81,0.94,86,,,,,,,,,,,,,,,,,,,
5727,0,0.0895,2.68,2.14,,,-0.08,0.04,-0.84,-16,-54,-2,0.84,0.94,89,,,,,,,,,,,,,,,,,,,
5737,0,0.0896,2.59,2.08,1.39,,0.05,0.06,-0.82,-17,-54,-3,0.82,0.94,87,,0,0,0.0,0.0,0.0,0.0,0,0,0.0,0,0.0,-1,0.0,0,0.0,0.0896,0.0,0.0
5747,0,0.0898,2.47,1.95,,,0.12,0.01,-0.82,-17,-54,-3,0.83,0.94,87,,,,,,,,,,,,,,,,,,,
5757,0,0.09,2.45,1.89,1.36,,0.24,0.04,-0.7,-17,-53,-3,0.74,0.94,78,,,,,,,,,,,,,,,,,,,
5767,0,0.0902,2.47,1.89,,,0.35,0.0,-0.58,-17,-52,-3,0.68,0.94,72,,,,,,,,,,,,,,,,,,,
5777,0,0.0903,2.45,1.88,1.39,,0.46,0.03,-0.54,-18,-51,-4,0.71,0.94,75,,0,0,,,,,,,,,,,,,,,,
5787,0,0.0905,2.45,1.88,,,0.55,-0.07,-0.49,-17,-49,-4,0.74,0.94,78,,,,,,,,,,,,,,,,,,,
5797,0,0.0906,2.44,1.85,1.35,,0.59,-0.06,-0.46,-17,-46,-3,0.75,0.94,80,,,,,,,,,,,,,,,,,,,
5807,0,0.0908,2.46,1.88,,,0.68,-0.07,-0.4,-17,-43,-3,0.79,0.94,84,,,,,,,,,,,,,,,,,,,
5817,0,0.091,2.47,1.87,1.39,,0.78,-0.07,-0.34,-17,-40,-3,0.85,0.94,90,,0,0,,,,,,,,,,,,,,,,
5827,0,0.0912,2.46,1.83,,,0.85,-0.07,-0.3,-17,-36,-3,0.9,0.94,95,,,,,,,,,,,,,,,,,,,
5837,0,0.0913,2.46,1.84,1.4,,0.95,-0.09,-0.26,-17,-31,-3,0.98,0.98,100,,,,0.0,0.0,0.0,0.0,0,0,0.0,0,0.0,-1,0.0,0,0.0,0.0913,0.0,0.0
5847,0,0.0915,2.45,1.84,,,1.01,-0.02,-0.27,-16,-26,-3,1.05,1.05,100,,,,,,,,,,,,,,,,,,,
5857,0,0.0916,2.45,1.86,1.39,,1.06,-0.04,-0.19,-16,-21,-3,1.08,1.08,100,,0,0,,,,,,,,,,,,,,,,
5867,0,0.0918,2.46,1.84,,,1.12,-0.05,-0.17,-16,-16,-3,1.14,1.14,100,,,,,,,,,,,,,,,,,,,
5877,0,0.092,2.55,1.91,1.38,,1.16,-0.02,-0.25,-16,-10,-3,1.18,1.18,100,,,,,,,,,,,,,,,,,,,
5887,0,0.0922,2.6,1.95,,,1.13,-0.07,-0.25,-15,-4,-3,1.16,1.18,98,,,,,,,,,,,,,,,,,,,
5897,0,0.0923,2.64,1.95,1.35,,1.09,-0.04,-0.21,-15,1,-3,1.11,1.18,94,,0,0,,,,,,,,,,,,,,,,
5907,0,0.0925,2.67,2.02,,,1.06,-0.07,-0.25,-14,6,-3,1.09,1.18,92,,,,,,,,,,,,,,,,,,,
5917,0,0.0926,2.77,2.07,1.39,,0.96,-0.12,-0.29,-14,10,-3,1.01,1.18,85,,,,,,,,,,,,,,,,,,,
5927,0,0.0928,2.81,2.13,,,0.88,-0.09,-0.32,-13,14,-3,0.94,1.18,80,,,,,,,,,,,,,,,,,,,
5937,0,0.093,2.82,2.2,1.39,,0.74,-0.2,-0.32,-13,17,-1,0.83,1.18,70,,0,0,0.0,0.0,0.0,0.0,0,0,0.0,0,0.0,-1,0.0,0,0.0,0.093,0.0,0.0
5947,0,0.0932,2.83,2.24,,,0.65,-0.17,-0.33,-13,20,-0,0.75,1.18,63,,,,,,,,,,,,,,,,,,,
5957,0,0.0933,2.83,2.28,1.38,,0.59,-0.04,-0.4,-12,21,1,0.71,1.18,60,,,,,,,,,,,,,,,,,,,
5967,0,0.0935,2.8,2.26,,,0.55,-0.02,-0.48,-11,22,1,0.73,1.18,62,,,,,,,,,,,,,,,,,,,
5977,0,0.0936,2.79,2.28,1.35,,0.41,-0.12,-0.47,-10,23,1,0.63,1.18,54,,0,0,,,,,,,,,,,,,,,,
5987,0,0.0938,2.8,2.29,,,0.35,-0.01,-0.49,-9,23,2,0.6,1.18,51,,,,,,,,,,,,,,,,,,,
5997,0,0.094,2.78,2.29,1.39,,0.28,-0.09,-0.48,-8,23,2,0.56,1.18,47,,,,,,,,,,,,,,,,,,,
6007,0,0.0942,2.77,2.3,,,0.2,-0.04,-0.39,-7,23,3,0.45,1.18,38,,,,,,,,,,,,,,,,,,,
6017,0,0.0943,2.74,2.29,1.39,,0.13,0.06,-0.4,-6,22,3,0.43,1.18,36,,0,0,,,,,,,,,,,,,,,,
6027,0,0.0945,2.69,2.27,,,0.05,0.08,-0.39,-5,21,3,0.4,1.18,34,,,,,,,,,,,,,,,,,,,
6037,0,0.0946,2.68,2.3,1.39,,0.05,0.19,-0.39,-5,21,2,0.44,1.18,37,,,,0.0,0.0,0.0,0.0,0,0,0.0,0,0.0,-1,0.0,0,0.0,0.0946,0.0,0.0
6047,0,0.0948,2.58,2.29,,,-0.0,0.27,-0.34,-4,20,1,0.43,1.18,36,,,,,,,,,,,,,,,,,,,
6057,0,0.095,2.51,2.25,1.34,,-0.04,0.26,-0.29,-3,18,0,0.39,1.18,33,,0,0,,,,,,,,,,,,,,,,
6067,0,0.0952,2.43,2.25,,,-0.04,0.37,-0.29,-2,17,-1,0.48,1.18,40,,,,,,,,,,,,,,,,,,,
6077,0,0.0953,2.4,2.28,1.38,,-0.04,0.42,-0.26,-2,16,-3,0.5,1.18,42,,,,,,,,,,,,,,,,,,,
6087,0,0.0955,2.35,2.26,,,-0.01,0.54,-0.21,-1,15,-6,0.57,1.18,49,,,,,,,,,,,,,,,,,,,
6097,0,0.0956,2.32,2.25,1.39,,0.03,0.63,-0.16,-0,14,-9,0.65,1.18,55,,0,0,,,,,,,,,,,,,,,,
6107,0,0.0958,2.3,2.18,,,0.06,0.53,-0.16,1,13,-12,0.56,1.18,47,,,,,,,,,,,,,,,,,,,
6117,0,0.096,2.35,2.11,1.38,,0.12,0.5,-0.17,3,13,-16,0.54,1.18,46,,,,,,,,,,,,,,,,,,,
6127,0,0.0962,2.37,2.0,,,0.2,0.36,-0.15,4,13,-19,0.44,1.18,37,,,,,,,,,,,,,,,,,,,
6137,0,0.0963,2.41,1.92,1.38,,0.24,0.24,-0.07,5,14,-20,0.34,1.18,29,,0,0,0.0,0.0,0.0,0.0,0,0,0.0,0,0.0,-1,0.0,0,0.0,0.0963,0.0,0.0
6147,0,0.0965,2.45,1.85,,,0.32,0.11,-0.05,7,15,-21,0.34,1.18,29,,,,,,,,,,,,,,,,,,,
6157,0,0.0966,2.51,1.78,1.32,,0.42,-0.0,-0.05,8,16,-20,0.42,1.18,36,,,,,,,,,,,,,,,,,,,
6167,0,0.0968,2.57,1.88,,,0.46,-0.12,0.04,9,18,-19,0.48,1.18,41,,,,,,,,,,,,,,,,,,,
6177,0,0.097,2.67,1.92,1.39,,0.51,-0.2,0.05,10,19,-17,0.55,1.18,47,,0,0,,,,,,,,,,,,,,,,
6187,0,0.0972,2.73,1.93,,,0.53,-0.3,-0.08,11,21,-15,0.61,1.18,52,,,,,,,,,,,,,,,,,,,
6197,0,0.0973,2.85,2.0,1.39,,0.41,-0.35,-0.15,12,24,-12,0.56,1.18,47,,,,,,,,,,,,,,,,,,,
6207,0,0.0975,2.91,2.04,,,0.46,-0.37,-0.2,14,25,-10,0.63,1.18,53,,,,,,,,,,,,,,,,,,,
6217,0,0.0976,2.91,2.1,1.36,,0.36,-0.48,-0.34,14,26,-6,0.69,1.18,58,,0,0,,,,,,,,,,,,,,,,
6227,0,0.0978,2.94,2.19,,,0.27,-0.41,-0.39,15,27,-2,0.63,1.18,53,,,,,,,,,,,,,,,,,,,
6237,0,0.098,2.88,2.22,1.36,,0.26,-0.27,-0.49,14,28,1,0.62,1.18,52,,,,0.0,0.0,0.0,0.0,0,0,0.0,0,0.0,-1,0.0,0,0.0,0.098,0.0,0.0
6247,0,0.0982,2.87,2.28,,,0.25,-0.14,-0.55,15,28,3,0.62,1.18,53,,,,,,,,,,,,,,,,,,,
6257,0,0.0983,2.84,2.28,1.38,,0.26,-0.01,-0.64,14,29,5,0.69,1.18,59,,0,0,,,,,,,,,,,,,,,,
6267,0,0.0985,2.8,2.25,,,0.2,0.11,-0.61,14,30,5,0.66,1.18,55,,,,,,,,,,,,,,,,,,,
6277,0,0.0986,2.82,2.3,1.39,,0.2,0.17,-0.52,14,29,5,0.59,1.18,50,,,,,,,,,,,,,,,,,,,
6287,0,0.0988,2.79,2.29,,,0.25,0.26,-0.52,14,29,4,0.63,1.18,53,,,,,,,,,,,,,,,,,,,
6297,0,0.099,2.78,2.29,1.38,,0.23,0.3,-0.59,13,29,4,0.7,1.18,59,,0,0,,,,,,,,,,,,,,,,
6307,0,0.0992,2.81,2.29,,,0.22,0.33,-0.64,12,29,3,0.76,1.18,64,,,,,,,,,,,,,,,,,,,
6317,0,0.0993,2.82,2.27,1.36,,0.19,0.37,-0.55,12,29,1,0.69,1.18,58,,,,,,,,,,,,,,,,,,,
6327,0,0.0995,2.84,2.29,,,0.2,0.33,-0.49,11,29,0,0.62,1.18,53,,,,,,,,,,,,,,,,,,,
6337,0,0.0996,2.81,2.26,1.36,12.76,0.18,0.35,-0.57,11,30,-1,0.69,1.18,59,0,0,0,0.0,0.0,0.0,0.0,0,0,0.0,0,0.0,-1,0.0,0,0.0,0.0996,0.0,0.0
6347,0,0.0998,2.87,2.29,,,0.19,0.32,-0.61,10,30,-3,0.71,1.18,60,,,,,,,,,,,,,,,,,,,
6357,0,0.1,2.85,2.28,1.36,,0.1,0.23,-0.57,9,30,-4,0.63,1.18,53,,,,,,,,,,,,,,,,,,,
6367,0,0.1001,2.83,2.26,,,0.06,0.2,-0.6,9,30,-5,0.64,1.18,54,,,,,,,,,,,,,,,,,,,
6377,0,0.1003,2.86,2.3,1.39,,0.03,0.13,-0.62,8,29,-5,0.63,1.18,53,,0,0,,,,,,,,,,,,,,,,
6387,0,0.1005,2.86,2.27,,,0.02,0.09,-0.62,8,29,-6,0.62,1.18,53,,,,,,,,,,,,,,,,,,,
6397,0,0.1006,2.85,2.29,1.39,,-0.04,0.11,-0.6,8,28,-6,0.61,1.18,51,,,,,,,,,,,,,,,,,,,
6407,0,0.1008,2.83,2.29,,,-0.14,0.14,-0.58,8,27,-6,0.61,1.18,52,,,,,,,,,,,,,,,,,,,
6417,0,0.101,2.84,2.3,1.39,,-0.2,0.22,-0.53,8,25,-7,0.61,1.18,52,,0,0,,,,,,,,,,,,,,,,
6427,0,0.1012,2.8,2.27,,,-0.26,0.32,-0.54,8,23,-8,0.68,1.18,57,,,,,,,,,,,,,,,,,,,
6437,0,0.1013,2.83,2.28,1.39,,-0.33,0.26,-0.52,8,21,-10,0.67,1.18,57,,,,0.0,0.0,0.0,0.0,0,0,0.0,0,0.0,-1,0.0,0,0.0,0.1013,0.0,0.0
6447,0,0.1015,2.83,2.26,,,-0.35,0.25,-0.52,8,18,-11,0.68,1.18,57,,,,,,,,,,,,,,,,,,,
6457,0,0.1016,2.82,2.27,1.37,,-0.43,0.25,-0.52,8,14,-12,0.72,1.18,61,,0,0,,,,,,,,,,,,,,,,
6467,0,0.1018,2.82,2.28,,,-0.47,0.19,-0.5,8,11,-12,0.72,1.18,61,,,,,,,,,,,,,,,,,,,
6477,0,0.102,2.78,2.27,1.37,,-0.53,0.21,-0.55,7,7,-13,0.79,1.18,67,,,,,,,,,,,,,,,,,,,
6487,0,0.1022,2.79,2.3,,,-0.61,0.23,-0.58,7,2,-14,0.87,1.18,74,,,,,,,,,,,,,,,,,,,
6497,0,0.1023,2.75,2.27,1.35,,-0.68,0.21,-0.56,6,-3,-14,0.9,1.18,76,,0,0,,,,,,,,,,,,,,,,
6507,0,0.1025,2.73,2.24,,,-0.69,0.2,-0.61,5,-7,-15,0.94,1.18,80,,,,,,,,,,,,,,,,,,,
6517,0,0.1026,2.75,2.29,1.38,,-0.59,0.17,-0.67,4,-13,-15,0.91,1.18,77,,,,,,,,,,,,,,,,,,,
6527,0,0.1028,2.7,2.27,,,-0.59,0.04,-0.68,3,-17,-14,0.9,1.18,76,,,,,,,,,,,,,,,,,,,
6537,0,0.103,2.73,2.3,1.38,,-0.66,-0.06,-0.79,1,-21,-13,1.03,1.18,87,,0,0,0.0,0.0,0.0,0.0,0,0,0.0,0,0.0,-1,0.0,0,0.0,0.103,0.0,0.0
6547,0,0.1032,2.67,2.27,,,-0.62,0.06,-0.82,0,-26,-12,1.03,1.18,87,,,,,,,,,,,,,,,,,,,
6557,0,0.1033,2.7,2.32,1.36,,-0.6,0.03,-0.85,-1,-30,-11,1.04,1.18,88,,,,,,,,,,,,,,,,,,,
6567,0,0.1035,2.64,2.26,,,-0.55,0.04,-0.9,-2,-34,-10,1.05,1.18,89,,,,,,,,,,,,,,,,,,,
6577,0,0.1036,2.69,2.27,1.34,,-0.54,0.06,-0.93,-3,-38,-9,1.08,1.18,91,,0,0,,,,,,,,,,,,,,,,
6587,0,0.1038,2.73,2.3,,,-0.51,0.09,-0.92,-3,-42,-8,1.05,1.18,89,,,,,,,,,,,,,,,,,,,
6597,0,0.104,2.77,2.29,1.38,,-0.45,0.07,-0.97,-4,-45,-8,1.07,1.18,91,,,,,,,,,,,,,,,,,,,
6607,0,0.1042,2.78,2.26,,,-0.38,0.02,-0.98,-4,-49,-7,1.05,1.18,89,,,,,,,,,,,,,,,,,,,
6617,0,0.1043,2.81,2.24,1.38,,-0.33,-0.05,-0.95,-4,-52,-6,1.01,1.18,85,,0,0,,,,,,,,,,,,,,,,
6627,0,0.1045,2.86,2.2,,,-0.29,-0.16,-0.94,-4,-54,-5,1.0,1.18,84,,,,,,,,,,,,,,,,,,,
6637,0,0.1046,2.82,2.15,1.38,,-0.21,-0.04,-0.95,-4,-57,-4,0.97,1.18,82,,,,0.0,0.0,0.0,0.0,0,0,0.0,0,0.0,-1,0.0,0,0.0,0.1046,0.0,0.0
6647,0,0.1048,2.78,2.06,,,-0.08,0.06,-0.94,-4,-59,-3,0.94,1.18,80,,,,,,,,,,,,,,,,,,,
6657,0,0.105,2.73,2.04,1.39,,0.02,0.02,-0.87,-4,-61,-2,0.87,1.18,74,,0,0,,,,,,,,,,,,,,,,
6667,0,0.1052,2.65,2.01,,,0.07,-0.02,-0.82,-4,-62,-1,0.83,1.18,70,,,,,,,,,,,,,,,,,,,
6677,0,0.1053,2.55,2.0,1.38,,0.1,-0.03,-0.83,-4,-62,-1,0.84,1.18,71,,,,,,,,,,,,,,,,,,,
6687,0,0.1055,2.43,1.92,,,0.17,-0.05,-0.8,-4,-63,-0,0.82,1.18,69,,,,,,,,,,,,,,,,,,,
6697,0,0.1056,2.44,1.88,1.35,,0.26,0.01,-0.74,-3,-63,-0,0.79,1.18,67,,0,0,,,,,,,,,,,,,,,,
6707,0,0.1058,2.44,1.89,,,0.31,-0.0,-0.7,-3,-63,-0,0.76,1.18,65,,,,,,,,,,,,,,,,,,,
6717,0,0.106,2.45,1.87,1.39,,0.38,-0.03,-0.68,-2,-62,-0,0.78,1.18,66,,,,,,,,,,,,,,,,,,,
6727,0,0.1062,2.44,1.84,,,0.46,-0.07,-0.63,-1,-61,-0,0.79,1.18,67,,,,,,,,,,,,,,,,,,,
6737,0,0.1063,2.5,1.85,1.39,,0.53,-0.14,-0.56,-1,-59,-0,0.79,1.18,66,,0,0,0.0,0.0,0.0,0.0,0,0,0.0,0,0.0,-1,0.0,0,0.0,0.1063,0.0,0.0
6747,0,0.1065,2.48,1.81,,,0.57,-0.11,-0.54,-0,-57,0,0.8,1.18,68,,,,,,,,,,,,,,,,,,,
6757,0,0.1066,2.52,1.85,1.38,,0.64,-0.1,-0.53,0,-55,0,0.84,1.18,71,,,,,,,,,,,,,,,,,,,
6767,0,0.1068,2.52,1.84,,,0.7,-0.11,-0.45,1,-53,1,0.84,1.18,71,,,,,,,,,,,,,,,,,,,
6777,0,0.107,2.49,1.8,1.34,,0.74,-0.06,-0.35,2,-49,0,0.82,1.18,69,,0,0,,,,,,,,,,,,,,,,
6787,0,0.1072,2.5,1.82,,,0.82,-0.1,-0.32,2,-46,-0,0.88,1.18,75,,,,,,,,,,,,,,,,,,,
6797,0,0.1073,2.49,1.79,1.34,,0.86,-0.18,-0.27,3,-43,-0,0.91,1.18,77,,,,,,,,,,,,,,,,,,,
6807,0,0.1075,2.54,1.87,,,0.91,-0.26,-0.24,4,-39,-0,0.97,1.18,82,,,,,,,,,,,,,,,,,,,
6817,0,0.1076,2.59,1.9,1.39,,0.93,-0.18,-0.27,5,-35,0,0.98,1.18,83,,0,0,,,,,,,,,,,,,,,,
6827,0,0.1078,2.63,1.93,,,0.97,-0.21,-0.27,6,-32,0,1.03,1.18,87,,,,,,,,,,,,,,,,,,,
6837,0,0.108,2.68,1.97,1.39,,0.91,-0.18,-0.32,7,-27,0,0.98,1.18,83,,,,0.0,0.0,0.0,0.0,0,0,0.0,0,0.0,-1,0.0,0,0.0,0.108,0.0,0.0
6847,0,0.1082,2.65,1.98,,,0.97,-0.17,-0.36,7,-23,1,1.05,1.18,89,,,,,,,,,,,,,,,,,,,
6857,0,0.1083,2.74,2.0,1.36,,0.95,-0.2,-0.33,8,-19,1,1.02,1.18,87,,0,0,,,,,,,,,,,,,,,,
6867,0,0.1085,2.75,2.03,,,0.9,-0.22,-0.34,9,-15,1,0.99,1.18,84,,,,,,,,,,,,,,,,,,,
6877,0,0.1086,2.75,2.07,1.38,,0.89,-0.22,-0.45,10,-11,1,1.02,1.18,86,,,,,,,,,,,,,,,,,,,
6887,0,0.1088,2.78,2.12,,,0.93,-0.2,-0.42,10,-8,2,1.04,1.18,88,,,,,,,,,,,,,,,,,,,
6897,0,0.109,2.77,2.14,1.37,,0.91,-0.2,-0.39,11,-4,2,1.01,1.18,86,,0,0,,,,,,,,,,,,,,,,
6907,0,0.1092,2.82,2.17,,,0.89,-0.15,-0.44,11,-1,3,1.0,1.18,85,,,,,,,,,,,,,,,,,,,
6917,0,0.1093,2.79,2.19,1.35,,0.85,-0.14,-0.52,12,2,3,1.01,1.18,85,,,,,,,,,,,,,,,,,,,
6927,0,0.1095,2.78,2.23,,,0.78,-0.15,-0.56,12,6,4,0.97,1.18,82,,,,,,,,,,,,,,,,,,,
6937,0,0.1096,2.83,2.29,1.39,,0.8,-0.22,-0.48,13,9,4,0.96,1.18,81,,0,0,0.0,0.0,0.0,0.0,0,0,0.0,0,0.0,-1,0.0,0,0.0,0.1096,0.0,0.0
6947,0,0.1098,2.78,2.26,,,0.74,-0.14,-0.48,13,12,4,0.9,1.18,76,,,,,,,,,,,,,,,,,,,
6957,0,0.11,2.82,2.31,1.38,,0.72,-0.16,-0.46,14,14,4,0.87,1.18,74,,,,,,,,,,,,,,,,,,,
6967,0,0.1102,2.78,2.26,,,0.68,-0.19,-0.51,14,17,5,0.88,1.18,74,,,,,,,,,,,,,,,,,,,
6977,0,0.1103,2.81,2.3,1.39,,0.66,-0.15,-0.57,15,19,5,0.89,1.18,75,,0,0,,,,,,,,,,,,,,,,
6987,0,0.1105,2.77,2.29,,,0.64,-0.16,-0.6,15,22,5,0.89,1.18,75,,,,,,,,,,,,,,,,,,,
6997,0,0.1106,2.79,2.27,1.36,,0.64,-0.1,-0.65,16,26,5,0.91,1.18,77,,,,,,,,,,,,,,,,,,,
7007,0,0.1108,2.76,2.25,,,0.6,-0.13,-0.63,16,29,5,0.87,1.18,74,,,,,,,,,,,,,,,,,,,
