"Interval"|"ms"|0|0|1,"Utc"|"ms"|0|0|1,"ElapsedTime"|"Min"|0.0|0.0|10,"Analog1"|"Volts"|0.0|5.0|100,"Analog3"|"Volts"|0.0|5.0|100,"Analog4"|"Volts"|0.0|5.0|50,"Battery"|"Volts"|0.0|20.0|1,"AccelX"|"G"|-3.0|3.0|100,"AccelY"|"G"|-3.0|3.0|100,"AccelZ"|"G"|-3.0|3.0|100,"Yaw"|"Deg/Sec"|-120|120|100,"Pitch"|"Deg/Sec"|-120|120|100,"Roll"|"Deg/Sec"|-120|120|100,"Gsum"|"G"|0.0|3.0|100,"GsumMax"|"G"|0.0|3.0|100,"GsumPct"|"%"|0|100|100,"EngineTemp"|"C"|0|300|1,"RPM"|""|0|10000|25,"TPS"|"%"|0|100|25,"Latitude"|"Degrees"|-180.0|180.0|10,"Longitude"|"Degrees"|-180.0|180.0|10,"Speed"|"mph"|0.0|150.0|10,"Altitude"|"ft"|0.0|4000.0|10,"GPSSats"|""|0|20|10,"GPSQual"|""|0|5|10,"GPSDOP"|""|0.0|20.0|10,"LapCount"|""|0|0|10,"LapTime"|"Min"|0.0|0.0|10,"Sector"|""|0|0|10,"SectorTime"|"Min"|0.0|0.0|10,"CurrentLap"|""|0|0|10,"Distance"|"mi"|0.0|0.0|10,"SessionTime"|"Min"|0.0|0.0|10,"LapDelta"|"s"|0.0|0.0|10,"BestLap"|"Min"|0.0|0.0|10
385,0,0.0001,2.7,2.15,,,0.26,-0.07,0.1,-0,-1,0,0.29,0.29,100,,,,,,,,,,,,,,,,,,,
395,0,0.0003,2.69,2.14,1.43,,0.31,-0.11,0.16,-0,-1,0,0.36,0.36,100,,0,0,,,,,,,,,,,,,,,,
405,0,0.0004,2.69,2.14,,,0.22,-0.12,0.07,0,-1,0,0.26,0.36,72,,,,,,,,,,,,,,,,,,,
415,0,0.0006,2.69,2.14,1.42,,0.2,-0.1,0.06,0,-0,0,0.24,0.36,65,,,,,,,,,,,,,,,,,,,
425,0,0.0008,2.67,2.11,,,0.22,-0.1,0.05,0,-0,0,0.25,0.36,69,,,,,,,,,,,,,,,,,,,
435,0,0.001,2.69,2.13,1.41,,0.17,-0.1,0.02,0,-0,0,0.2,0.36,54,,0,0,,,,,,,,,,,,,,,,
445,0,0.0011,2.68,2.13,,,0.17,-0.09,0.06,0,-0,0,0.2,0.36,55,,,,,,,,,,,,,,,,,,,
455,0,0.0013,2.7,2.15,1.43,,0.14,-0.08,0.0,0,-0,0,0.16,0.36,43,,,,0.0,0.0,0.0,0.0,0,0,0.0,0,0.0,-1,0.0,0,0.0,0.0013,0.0,0.0
465,0,0.0014,2.69,2.14,,,0.15,-0.09,0.04,0,-0,0,0.18,0.36,49,,,,,,,,,,,,,,,,,,,
475,0,0.0016,2.68,2.12,1.4,,0.13,-0.11,-0.0,0,-0,0,0.16,0.36,45,,0,0,,,,,,,,,,,,,,,,
485,0,0.0018,2.7,2.14,,,0.11,-0.09,-0.0,0,-0,0,0.15,0.36,40,,,,,,,,,,,,,,,,,,,
495,0,0.002,2.69,2.15,1.43,,0.14,-0.1,0.02,0,-0,0,0.17,0.36,48,,,,,,,,,,,,,,,,,,,
505,0,0.0021,2.66,2.11,,,0.11,-0.1,0.0,0,-0,0,0.15,0.36,41,,,,,,,,,,,,,,,,,,,
515,0,0.0023,2.7,2.15,1.42,,0.12,-0.1,0.01,0,-0,0,0.15,0.36,42,,0,0,,,,,,,,,,,,,,,,
525,0,0.0024,2.66,2.04,,,0.1,-0.09,-0.02,0,-0,0,0.14,0.36,38,,,,,,,,,,,,,,,,,,,
535,0,0.0026,2.68,2.13,1.4,,0.11,-0.09,0.0,0,-0,0,0.14,0.36,39,,,,,,,,,,,,,,,,,,,
545,0,0.0028,2.69,2.15,,,0.1,-0.1,-0.01,0,-0,0,0.14,0.36,39,,,,,,,,,,,,,,,,,,,
555,0,0.003,2.66,2.12,1.41,,0.08,-0.1,-0.01,0,-0,0,0.13,0.36,35,,0,0,0.0,0.0,0.0,0.0,0,0,0.0,0,0.0,-1,0.0,0,0.0,0.003,0.0,0.0
565,0,0.0031,2.67,2.11,,,0.1,-0.1,0.0,0,-0,0,0.14,0.36,40,,,,,,,,,,,,,,,,,,,
575,0,0.0033,2.69,2.14,1.42,,0.09,-0.1,-0.01,0,-0,0,0.13,0.36,36,,,,,,,,,,,,,,,,,,,
585,0,0.0034,2.69,2.14,,,0.09,-0.1,-0.01,0,-0,0,0.14,0.36,38,,,,,,,,,,,,,,,,,,,
595,0,0.0036,2.66,2.13,1.41,,0.08,-0.09,-0.02,0,-0,0,0.13,0.36,35,,0,0,,,,,,,,,,,,,,,,
605,0,0.0038,2.7,2.15,,,0.08,-0.09,0.01,0,-0,0,0.13,0.36,35,,,,,,,,,,,,,,,,,,,
615,0,0.004,2.68,2.12,1.4,,0.08,-0.1,0.01,0,-0,0,0.13,0.36,35,,,,,,,,,,,,,,,,,,,
625,0,0.0041,2.69,2.15,,,0.07,-0.1,0.0,0,-0,0,0.12,0.36,33,,,,,,,,,,,,,,,,,,,
635,0,0.0043,2.67,2.12,1.39,,0.08,-0.1,0.01,0,-0,0,0.13,0.36,36,,0,0,,,,,,,,,,,,,,,,
645,0,0.0044,2.69,2.14,,,0.07,-0.1,-0.0,0,-0,0,0.12,0.36,34,,,,,,,,,,,,,,,,,,,
655,0,0.0046,2.68,2.12,1.39,,0.08,-0.1,0.01,0,-0,0,0.12,0.36,34,,,,0.0,0.0,0.0,0.0,0,0,0.0,0,0.0,-1,0.0,0,0.0,0.0046,0.0,0.0
665,0,0.0048,2.69,2.15,,,0.07,-0.09,-0.01,0,-0,0,0.12,0.36,32,,,,,,,,,,,,,,,,,,,
675,0,0.005,2.7,2.15,1.43,,0.07,-0.1,0.01,0,-0,0,0.12,0.36,34,,0,0,,,,,,,,,,,,,,,,
685,0,0.0051,2.67,2.11,,,0.06,-0.1,-0.0,0,-0,0,0.12,0.36,33,,,,,,,,,,,,,,,,,,,
695,0,0.0053,2.69,2.15,1.43,,0.06,-0.1,-0.01,0,-0,0,0.12,0.36,32,,,,,,,,,,,,,,,,,,,
705,0,0.0054,2.69,2.15,,,0.08,-0.1,-0.01,0,-0,0,0.12,0.36,34,,,,,,,,,,,,,,,,,,,
715,0,0.0056,2.69,2.13,1.43,,0.07,-0.1,-0.02,0,-0,0,0.12,0.36,33,,0,0,,,,,,,,,,,,,,,,
725,0,0.0058,2.68,2.14,,,0.07,-0.09,-0.0,0,-0,0,0.11,0.36,32,,,,,,,,,,,,,,,,,,,
735,0,0.006,2.69,2.15,1.43,,0.06,-0.09,-0.02,0,-0,0,0.11,0.36,31,,,,,,,,,,,,,,,,,,,
745,0,0.0061,2.69,2.14,,,0.07,-0.09,-0.0,0,-0,0,0.12,0.36,32,,,,,,,,,,,,,,,,,,,
755,0,0.0063,2.69,2.15,1.43,,0.05,-0.1,-0.02,0,-0,0,0.11,0.36,31,,0,0,0.0,0.0,0.0,0.0,0,0,0.0,0,0.0,-1,0.0,0,0.0,0.0063,0.0,0.0
765,0,0.0064,2.69,2.13,,,0.05,-0.09,-0.01,0,-0,0,0.11,0.36,29,,,,,,,,,,,,,,,,,,,
775,0,0.0066,2.67,2.11,1.39,,0.07,-0.09,-0.02,0,-0,0,0.11,0.36,32,,,,,,,,,,,,,,,,,,,
785,0,0.0068,2.69,2.14,,,0.06,-0.09,-0.02,0,-0,0,0.11,0.36,30,,,,,,,,,,,,,,,,,,,
795,0,0.007,2.67,2.14,1.42,,0.06,-0.09,0.0,0,-0,0,0.11,0.36,29,,0,0,,,,,,,,,,,,,,,,
805,0,0.0071,2.66,2.12,,,0.06,-0.09,-0.01,0,-0,0,0.1,0.36,29,,,,,,,,,,,,,,,,,,,
815,0,0.0073,2.68,2.12,1.4,,0.07,-0.09,-0.0,0,-0,0,0.11,0.36,31,,,,,,,,,,,,,,,,,,,
825,0,0.0074,2.67,2.13,,,0.05,-0.09,-0.02,0,-0,0,0.11,0.36,30,,,,,,,,,,,,,,,,,,,
835,0,0.0076,2.69,2.15,1.43,,0.06,-0.09,-0.01,0,-0,0,0.1,0.36,29,,0,0,,,,,,,,,,,,,,,,
845,0,0.0078,2.69,2.14,,,0.07,-0.09,-0.02,0,-0,0,0.11,0.36,31,,,,,,,,,,,,,,,,,,,
855,0,0.008,2.69,2.14,1.43,,0.06,-0.09,-0.01,0,-0,0,0.11,0.36,30,,,,0.0,0.0,0.0,0.0,0,0,0.0,0,0.0,-1,0.0,0,0.0,0.008,0.0,0.0
865,0,0.0081,2.67,2.14,,,0.06,-0.08,0.0,0,-0,0,0.1,0.36,29,,,,,,,,,,,,,,,,,,,
875,0,0.0083,2.69,2.15,1.43,,0.06,-0.08,-0.01,0,-0,0,0.1,0.36,28,,0,0,,,,,,,,,,,,,,,,
885,0,0.0084,2.69,2.14,,,0.07,-0.08,-0.0,0,-0,0,0.11,0.36,31,,,,,,,,,,,,,,,,,,,
895,0,0.0086,2.69,2.14,1.42,,0.06,-0.08,-0.02,0,-0,0,0.1,0.36,29,,,,,,,,,,,,,,,,,,,
905,0,0.0088,2.67,2.11,,,0.06,-0.08,-0.01,0,-0,0,0.1,0.36,28,,,,,,,,,,,,,,,,,,,
915,0,0.009,2.66,2.11,1.4,,0.07,-0.08,-0.02,0,-0,0,0.1,0.36,28,,0,0,,,,,,,,,,,,,,,,
925,0,0.0091,2.7,2.12,,,0.06,-0.07,-0.02,0,-0,0,0.1,0.36,27,,,,,,,,,,,,,,,,,,,
935,0,0.0093,2.69,2.14,1.43,,0.06,-0.07,-0.0,0,-0,0,0.09,0.36,25,,,,,,,,,,,,,,,,,,,
945,0,0.0094,2.69,2.14,,,0.05,-0.07,-0.02,-0,-0,0,0.09,0.36,25,,,,,,,,,,,,,,,,,,,
955,0,0.0096,2.69,2.13,1.42,,0.07,-0.08,-0.01,-0,-0,0,0.1,0.36,28,,0,0,0.0,0.0,0.0,0.0,0,0,0.0,0,0.0,-1,0.0,0,0.0,0.0096,0.0,0.0
965,0,0.0098,2.66,2.12,,,0.05,-0.08,-0.02,-0,-0,0,0.09,0.36,26,,,,,,,,,,,,,,,,,,,
975,0,0.01,2.69,2.14,1.42,,0.06,-0.08,-0.02,-0,-0,0,0.1,0.36,28,,,,,,,,,,,,,,,,,,,
985,0,0.0101,2.66,2.11,,,0.06,-0.07,-0.03,-0,-0,0,0.1,0.36,27,,,,,,,,,,,,,,,,,,,
995,0,0.0103,2.7,2.13,1.42,,0.06,-0.07,-0.01,-0,-0,0,0.1,0.36,26,,0,0,,,,,,,,,,,,,,,,
1005,0,0.0104,2.69,2.15,,,0.03,-0.07,0.0,-0,0,0,0.08,0.36,22,,,,,,,,,,,,,,,,,,,
1015,0,0.0106,2.69,2.13,1.4,,0.04,-0.08,-0.01,-1,0,0,0.09,0.36,24,,,,,,,,,,,,,,,,,,,
1025,0,0.0108,2.66,2.12,,,0.05,-0.07,-0.01,-1,0,0,0.08,0.36,22,,,,,,,,,,,,,,,,,,,
1035,0,0.011,2.68,2.14,1.42,,0.02,-0.08,0.02,-1,0,0,0.08,0.36,22,,0,0,,,,,,,,,,,,,,,,
1045,0,0.0111,2.7,2.15,,,0.03,-0.07,0.02,-1,1,0,0.08,0.36,22,,,,,,,,,,,,,,,,,,,
1055,0,0.0113,2.71,2.15,1.43,,0.02,-0.07,0.01,-1,1,0,0.07,0.36,19,,,,0.0,0.0,0.0,0.0,0,0,0.0,0,0.0,-1,0.0,0,0.0,0.0113,0.0,0.0
1065,0,0.0114,2.68,2.15,,,0.03,-0.08,0.01,-1,1,0,0.08,0.36,22,,,,,,,,,,,,,,,,,,,
1075,0,0.0116,2.66,2.12,1.4,,0.02,-0.07,0.03,-1,0,0,0.08,0.36,23,,0,0,,,,,,,,,,,,,,,,
1085,0,0.0118,2.69,2.13,,,0.01,-0.08,0.04,-1,1,0,0.09,0.36,24,,,,,,,,,,,,,,,,,,,
1095,0,0.012,2.7,2.15,1.43,,0.02,-0.07,0.01,-1,1,0,0.08,0.36,22,,,,,,,,,,,,,,,,,,,
1105,0,0.0121,2.67,2.13,,,0.02,-0.07,0.02,-1,1,0,0.07,0.36,20,,,,,,,,,,,,,,,,,,,
1115,0,0.0123,2.71,2.16,1.43,,-0.02,-0.07,0.03,-0,1,0,0.08,0.36,23,,0,0,,,,,,,,,,,,,,,,
1125,0,0.0124,2.72,2.14,,,0.01,-0.07,0.04,-0,1,0,0.08,0.36,22,,,,,,,,,,,,,,,,,,,
1135,0,0.0126,2.69,2.13,1.4,,0.0,-0.07,0.03,-0,1,0,0.08,0.36,22,,,,,,,,,,,,,,,,,,,
1145,0,0.0128,2.7,2.15,,,0.0,-0.07,0.03,-0,1,0,0.07,0.36,21,,,,,,,,,,,,,,,,,,,
1155,0,0.013,2.71,2.16,1.44,,-0.0,-0.08,0.07,-0,0,-0,0.1,0.36,28,,0,0,0.0,0.0,0.0,0.0,0,0,0.0,0,0.0,-1,0.0,0,0.0,0.013,0.0,0.0
1165,0,0.0131,2.68,2.14,,,0.01,-0.08,0.07,-0,1,0,0.11,0.36,30,,,,,,,,,,,,,,,,,,,
1175,0,0.0133,2.68,2.12,1.4,,0.02,-0.06,0.04,-0,1,-0,0.08,0.36,22,,,,,,,,,,,,,,,,,,,
1185,0,0.0134,2.71,2.16,,,0.0,-0.08,0.04,-0,1,-0,0.09,0.36,24,,,,,,,,,,,,,,,,,,,
1195,0,0.0136,2.7,2.16,1.43,,-0.02,-0.07,0.01,-0,1,0,0.07,0.36,20,,0,0,,,,,,,,,,,,,,,,
1205,0,0.0138,2.71,2.16,,,0.01,-0.06,-0.01,-0,1,-0,0.06,0.36,16,,,,,,,,,,,,,,,,,,,
1215,0,0.014,2.7,2.15,1.43,,0.03,-0.07,0.0,-0,1,-0,0.08,0.36,22,,,,,,,,,,,,,,,,,,,
1225,0,0.0141,2.68,2.13,,,-0.05,-0.05,-0.03,-0,1,-0,0.08,0.36,21,,,,,,,,,,,,,,,,,,,
1235,0,0.0143,2.7,2.14,1.41,,0.0,-0.05,-0.04,-0,1,-0,0.06,0.36,18,,0,0,,,,,,,,,,,,,,,,
1245,0,0.0144,2.71,2.16,,,-0.01,-0.05,0.01,-0,1,-0,0.05,0.36,14,,,,,,,,,,,,,,,,,,,
1255,0,0.0146,2.7,2.15,1.4,,-0.03,-0.06,0.04,-0,1,-0,0.07,0.36,20,,,,0.0,0.0,0.0,0.0,0,0,0.0,0,0.0,-1,0.0,0,0.0,0.0146,0.0,0.0
1265,0,0.0148,2.7,2.15,,,-0.03,-0.05,-0.01,-0,1,-0,0.05,0.36,15,,,,,,,,,,,,,,,,,,,
1275,0,0.015,2.7,2.15,1.43,,0.02,-0.08,0.04,-0,0,-0,0.09,0.36,25,,0,0,,,,,,,,,,,,,,,,
1285,0,0.0151,2.71,2.16,,,-0.02,-0.08,0.05,-0,0,-0,0.09,0.36,25,,,,,,,,,,,,,,,,,,,
1295,0,0.0153,2.72,2.16,1.43,,-0.01,-0.06,0.0,-0,0,-0,0.06,0.36,17,,,,,,,,,,,,,,,,,,,
1305,0,0.0154,2.7,2.16,,,-0.04,-0.07,0.01,0,-0,-0,0.08,0.36,22,,,,,,,,,,,,,,,,,,,
1315,0,0.0156,2.7,2.13,1.4,,-0.05,-0.06,0.05,-0,0,-0,0.09,0.36,25,,0,0,,,,,,,,,,,,,,,,
1325,0,0.0158,2.72,2.16,,,0.02,-0.07,0.07,0,-0,-0,0.1,0.36,28,,,,,,,,,,,,,,,,,,,
1335,0,0.016,2.73,2.14,1.42,,-0.01,-0.08,0.06,0,-0,-0,0.1,0.36,27,,,,,,,,,,,,,,,,,,,
1345,0,0.0161,2.69,2.13,,,0.01,-0.05,0.02,0,-0,-0,0.06,0.36,15,,,,,,,,,,,,,,,,,,,
1355,0,0.0163,2.72,2.16,1.42,12.86,-0.01,-0.07,0.02,0,-0,-0,0.07,0.36,20,0,0,0,0.0,0.0,0.0,0.0,0,0,0.0,0,0.0,-1,0.0,0,0.0,0.0163,0.0,0.0
1365,0,0.0165,2.7,2.14,,,-0.04,-0.06,0.05,0,0,-0,0.09,0.36,24,,,,,,,,,,,,,,,,,,,
1375,0,0.0166,2.72,2.16,1.43,,-0.01,-0.08,0.03,0,0,-0,0.09,0.36,25,,,,,,,,,,,,,,,,,,,
1385,0,0.0168,2.72,2.17,,,-0.01,-0.1,0.02,0,1,-0,0.1,0.36,28,,,,,,,,,,,,,,,,,,,
1395,0,0.017,2.72,2.16,1.42,,-0.01,-0.08,0.04,0,1,-0,0.09,0.36,25,,0,0,,,,,,,,,,,,,,,,
1405,0,0.0171,2.72,2.13,,,-0.0,-0.1,0.07,0,1,-0,0.12,0.36,33,,,,,,,,,,,,,,,,,,,
1415,0,0.0173,2.73,2.17,1.43,,-0.01,-0.07,0.08,1,1,-0,0.11,0.36,30,,,,,,,,,,,,,,,,,,,
1425,0,0.0174,2.72,2.17,,,-0.02,-0.07,0.1,1,1,-1,0.13,0.36,35,,,,,,,,,,,,,,,,,,,
1435,0,0.0176,2.72,2.17,1.43,,-0.0,-0.06,0.05,1,1,-1,0.08,0.36,21,,0,0,,,,,,,,,,,,,,,,
1445,0,0.0178,2.73,2.18,,,-0.03,-0.06,0.05,1,1,-0,0.08,0.36,23,,,,,,,,,,,,,,,,,,,
1455,0,0.018,2.74,2.18,1.41,,-0.06,-0.06,0.05,1,1,-1,0.1,0.36,26,,,,0.0,0.0,0.0,0.0,0,0,0.0,0,0.0,-1,0.0,0,0.0,0.018,0.0,0.0
1465,0,0.0181,2.75,2.18,,,-0.04,-0.1,-0.02,1,2,-0,0.11,0.36,30,,,,,,,,,,,,,,,,,,,
1475,0,0.0183,2.75,2.19,1.42,,-0.02,-0.07,-0.05,1,3,-0,0.09,0.36,25,,0,0,,,,,,,,,,,,,,,,
1485,0,0.0184,2.75,2.19,,,-0.07,-0.09,0.0,1,3,-0,0.11,0.36,31,,,,,,,,,,,,,,,,,,,
1495,0,0.0186,2.75,2.21,1.43,,-0.12,-0.1,0.0,1,4,-0,0.16,0.36,44,,,,,,,,,,,,,,,,,,,
1505,0,0.0188,2.72,2.17,,,-0.1,-0.12,-0.02,2,4,0,0.16,0.36,44,,,,,,,,,,,,,,,,,,,
1515,0,0.019,2.76,2.21,1.42,,-0.08,-0.12,0.02,2,5,0,0.15,0.36,40,,0,0,,,,,,,,,,,,,,,,
1525,0,0.0191,2.76,2.22,,,-0.11,-0.15,0.04,2,5,1,0.18,0.36,51,,,,,,,,,,,,,,,,,,,
1535,0,0.0193,2.76,2.23,1.43,,-0.11,-0.11,0.05,2,6,1,0.17,0.36,46,,,,,,,,,,,,,,,,,,,
1545,0,0.0194,2.76,2.24,,,-0.11,-0.07,0.08,3,5,1,0.15,0.36,42,,,,,,,,,,,,,,,,,,,
1555,0,0.0196,2.75,2.24,1.43,,-0.08,-0.09,0.07,3,5,1,0.14,0.36,39,,0,0,0.0,0.0,0.0,0.0,0,0,0.0,0,0.0,-1,0.0,0,0.0,0.0196,0.0,0.0
1565,0,0.0198,2.75,2.24,,,-0.1,-0.06,0.04,3,5,2,0.13,0.36,35,,,,,,,,,,,,,,,,,,,
1575,0,0.02,2.77,2.25,1.42,,-0.13,-0.03,0.08,4,5,1,0.15,0.36,42,,,,,,,,,,,,,,,,,,,
1585,0,0.0201,2.76,2.25,,,-0.16,0.01,0.1,4,5,1,0.19,0.36,52,,,,,,,,,,,,,,,,,,,
1595,0,0.0203,2.76,2.25,1.43,,-0.14,-0.01,0.04,4,5,1,0.15,0.36,41,,0,0,,,,,,,,,,,,,,,,
1605,0,0.0204,2.75,2.24,,,-0.13,0.05,-0.01,4,5,1,0.14,0.36,39,,,,,,,,,,,,,,,,,,,
1615,0,0.0206,2.76,2.25,1.42,,-0.17,0.02,0.05,4,5,1,0.18,0.36,49,,,,,,,,,,,,,,,,,,,
1625,0,0.0208,2.73,2.23,,,-0.2,0.09,0.03,5,4,0,0.22,0.36,60,,,,,,,,,,,,,,,,,,,
1635,0,0.021,2.76,2.23,1.4,,-0.23,0.03,-0.04,5,4,0,0.23,0.36,64,,0,0,,,,,,,,,,,,,,,,
1645,0,0.0211,2.76,2.25,,,-0.19,0.05,-0.06,5,4,0,0.21,0.36,58,,,,,,,,,,,,,,,,,,,
1655,0,0.0213,2.74,2.24,1.4,,-0.23,0.04,-0.02,5,4,0,0.23,0.36,64,,,,0.0,0.0,0.0,0.0,0,0,0.0,0,0.0,-1,0.0,0,0.0,0.0213,0.0,0.0
1665,0,0.0214,2.74,2.25,,,-0.26,0.05,-0.04,5,3,0,0.27,0.36,74,,,,,,,,,,,,,,,,,,,
1675,0,0.0216,2.77,2.23,1.41,,-0.26,0.04,-0.08,5,3,0,0.28,0.36,77,,0,0,,,,,,,,,,,,,,,,
1685,0,0.0218,2.69,2.19,,,-0.24,0.06,-0.1,5,3,0,0.26,0.36,72,,,,,,,,,,,,,,,,,,,
1695,0,0.022,2.77,2.25,1.42,,-0.26,0.02,-0.06,6,2,0,0.27,0.36,74,,,,,,,,,,,,,,,,,,,
1705,0,0.0221,2.74,2.22,,,-0.3,0.07,-0.07,6,2,0,0.31,0.36,86,,,,,,,,,,,,,,,,,,,
1715,0,0.0223,2.73,2.21,1.4,,-0.3,0.03,-0.1,6,2,-0,0.32,0.36,88,,0,0,,,,,,,,,,,,,,,,
1725,0,0.0224,2.76,2.25,,,-0.28,0.04,-0.12,6,1,-0,0.31,0.36,86,,,,,,,,,,,,,,,,,,,
1735,0,0.0226,2.76,2.24,1.42,,-0.29,0.03,-0.12,6,1,-0,0.32,0.36,87,,,,,,,,,,,,,,,,,,,
1745,0,0.0228,2.76,2.25,,,-0.33,0.06,-0.13,6,1,-0,0.36,0.36,99,,,,,,,,,,,,,,,,,,,
1755,0,0.0229,2.76,2.24,1.43,,-0.33,0.04,-0.18,6,1,-0,0.38,0.38,100,,0,0,0.0,0.0,0.0,0.0,0,0,0.0,0,0.0,-1,0.0,0,0.0,0.0229,0.0,0.0
1765,0,0.0231,2.75,2.23,,,-0.3,0.05,-0.19,6,0,-1,0.36,0.38,94,,,,,,,,,,,,,,,,,,,
1775,0,0.0233,2.76,2.23,1.43,,-0.31,0.03,-0.17,6,0,-1,0.36,0.38,93,,,,,,,,,,,,,,,,,,,
1785,0,0.0234,2.76,2.24,,,-0.34,0.03,-0.13,6,0,-1,0.36,0.38,95,,,,,,,,,,,,,,,,,,,
1795,0,0.0236,2.76,2.24,1.44,,-0.34,-0.0,-0.16,6,0,-1,0.38,0.38,99,,0,0,,,,,,,,,,,,,,,,
1805,0,0.0238,2.74,2.24,,,-0.32,0.02,-0.18,6,0,-0,0.36,0.38,95,,,,,,,,,,,,,,,,,,,
1815,0,0.024,2.75,2.23,1.42,,-0.33,0.0,-0.14,6,-0,-0,0.36,0.38,93,,,,,,,,,,,,,,,,,,,
1825,0,0.0241,2.76,2.24,,,-0.34,0.04,-0.12,7,-0,-0,0.37,0.38,96,,,,,,,,,,,,,,,,,,,
1835,0,0.0243,2.76,2.24,1.43,,-0.37,0.02,-0.16,7,-0,-0,0.4,0.4,100,,0,0,,,,,,,,,,,,,,,,
1845,0,0.0244,2.75,2.23,,,-0.34,0.05,-0.2,7,-1,-1,0.39,0.4,98,,,,,,,,,,,,,,,,,,,
1855,0,0.0246,2.75,2.23,1.42,,-0.36,0.01,-0.14,7,-1,-0,0.38,0.4,95,,,,0.0,0.0,0.0,0.0,0,0,0.0,0,0.0,-1,0.0,0,0.0,0.0246,0.0,0.0
1865,0,0.0248,2.72,2.22,,,-0.36,0.05,-0.12,7,-1,-0,0.38,0.4,96,,,,,,,,,,,,,,,,,,,
1875,0,0.025,2.76,2.22,1.42,,-0.37,0.03,-0.13,7,-1,-0,0.39,0.4,98,,0,0,,,,,,,,,,,,,,,,
1885,0,0.0251,2.75,2.24,,,-0.35,0.07,-0.14,7,-1,-0,0.39,0.4,96,,,,,,,,,,,,,,,,,,,
1895,0,0.0253,2.75,2.25,1.43,,-0.37,0.04,-0.1,7,-1,-0,0.38,0.4,96,,,,,,,,,,,,,,,,,,,
1905,0,0.0254,2.77,2.25,,,-0.36,0.07,-0.07,7,-2,-0,0.37,0.4,93,,,,,,,,,,,,,,,,,,,
1915,0,0.0256,2.77,2.25,1.43,,-0.34,0.04,-0.09,7,-2,-1,0.35,0.4,89,,0,0,,,,,,,,,,,,,,,,
1925,0,0.0258,2.77,2.25,,,-0.35,0.08,-0.11,7,-2,-1,0.37,0.4,93,,,,,,,,,,,,,,,,,,,
1935,0,0.026,2.77,2.24,1.42,,-0.35,0.07,-0.07,7,-2,-1,0.36,0.4,91,,,,,,,,,,,,,,,,,,,
1945,0,0.0261,2.77,2.26,,,-0.35,0.12,-0.04,7,-2,-1,0.37,0.4,93,,,,,,,,,,,,,,,,,,,
1955,0,0.0263,2.77,2.25,1.43,,-0.31,0.07,-0.05,7,-2,-1,0.32,0.4,81,,0,0,0.0,0.0,0.0,0.0,0,0,0.0,0,0.0,-1,0.0,0,0.0,0.0263,0.0,0.0
1965,0,0.0264,2.77,2.25,,,-0.31,0.07,-0.09,7,-1,-1,0.33,0.4,82,,,,,,,,,,,,,,,,,,,
1975,0,0.0266,2.77,2.25,1.42,,-0.3,0.04,-0.06,7,-1,-1,0.31,0.4,78,,,,,,,,,,,,,,,,,,,
1985,0,0.0268,2.73,2.22,,,-0.34,0.04,-0.06,7,-1,-1,0.34,0.4,86,,,,,,,,,,,,,,,,,,,
1995,0,0.027,2.74,2.24,1.42,,-0.28,0.02,-0.11,6,-0,-1,0.3,0.4,75,,0,0,,,,,,,,,,,,,,,,
2005,0,0.0271,2.76,2.24,,,-0.3,0.02,-0.14,6,-0,-1,0.33,0.4,83,,,,,,,,,,,,,,,,,,,
2015,0,0.0273,2.73,2.21,1.4,,-0.3,-0.05,-0.13,6,-0,-1,0.33,0.4,82,,,,,,,,,,,,,,,,,,,
2025,0,0.0274,2.76,2.22,,,-0.33,-0.04,-0.15,6,0,-1,0.37,0.4,91,,,,,,,,,,,,,,,,,,,
2035,0,0.0276,2.76,2.23,1.42,,-0.25,-0.05,-0.16,6,0,-1,0.3,0.4,76,,0,0,,,,,,,,,,,,,,,,
2045,0,0.0278,2.75,2.23,,,-0.28,-0.05,-0.16,6,-0,-0,0.33,0.4,82,,,,,,,,,,,,,,,,,,,
2055,0,0.028,2.74,2.2,1.39,,-0.3,-0.03,-0.17,6,-0,-0,0.35,0.4,87,,,,0.0,0.0,0.0,0.0,0,0,0.0,0,0.0,-1,0.0,0,0.0,0.028,0.0,0.0
2065,0,0.0281,2.75,2.23,,,-0.33,-0.04,-0.2,6,-1,-0,0.39,0.4,97,,,,,,,,,,,,,,,,,,,
2075,0,0.0283,2.73,2.21,1.4,,-0.31,-0.0,-0.2,6,-1,0,0.36,0.4,91,,0,0,,,,,,,,,,,,,,,,
2085,0,0.0284,2.75,2.23,,,-0.3,-0.01,-0.12,6,-1,0,0.33,0.4,82,,,,,,,,,,,,,,,,,,,
2095,0,0.0286,2.75,2.24,1.43,,-0.32,0.02,-0.07,6,-1,0,0.33,0.4,82,,,,,,,,,,,,,,,,,,,
2105,0,0.0288,2.74,2.23,,,-0.3,0.0,-0.07,6,-1,-0,0.3,0.4,76,,,,,,,,,,,,,,,,,,,
2115,0,0.029,2.74,2.2,1.4,,-0.34,0.03,-0.08,6,-1,-0,0.35,0.4,87,,0,0,,,,,,,,,,,,,,,,
2125,0,0.0291,2.75,2.23,,,-0.32,-0.0,-0.06,6,-1,-1,0.32,0.4,81,,,,,,,,,,,,,,,,,,,
2135,0,0.0293,2.76,2.22,1.42,,-0.36,0.02,-0.08,5,-0,-1,0.37,0.4,92,,,,,,,,,,,,,,,,,,,
2145,0,0.0294,2.74,2.23,,,-0.28,0.01,-0.09,5,-0,-1,0.29,0.4,73,,,,,,,,,,,,,,,,,,,
2155,0,0.0296,2.74,2.21,1.4,,-0.33,0.0,-0.11,5,-0,-1,0.35,0.4,87,,0,0,0.0,0.0,0.0,0.0,0,0,0.0,0,0.0,-1,0.0,0,0.0,0.0296,0.0,0.0
2165,0,0.0298,2.75,2.23,,,-0.33,-0.0,-0.12,5,-1,-1,0.35,0.4,87,,,,,,,,,,,,,,,,,,,
2175,0,0.03,2.73,2.21,1.42,,-0.36,-0.01,-0.12,5,-1,-1,0.38,0.4,96,,,,,,,,,,,,,,,,,,,
2185,0,0.0301,2.75,2.21,,,-0.31,-0.02,-0.11,4,-1,-1,0.33,0.4,83,,,,,,,,,,,,,,,,,,,
2195,0,0.0303,2.71,2.2,1.41,,-0.32,-0.02,-0.05,4,-1,-1,0.33,0.4,81,,0,0,,,,,,,,,,,,,,,,
2205,0,0.0304,2.76,2.2,,,-0.34,-0.02,-0.03,4,-1,-1,0.35,0.4,86,,,,,,,,,,,,,,,,,,,
2215,0,0.0306,2.74,2.22,1.43,,-0.29,-0.03,-0.02,4,-1,-1,0.29,0.4,73,,,,,,,,,,,,,,,,,,,
2225,0,0.0308,2.74,2.22,,,-0.32,-0.04,-0.06,4,-1,-1,0.33,0.4,82,,,,,,,,,,,,,,,,,,,
2235,0,0.031,2.74,2.21,1.4,,-0.27,-0.09,-0.06,4,-1,-1,0.3,0.4,74,,0,0,,,,,,,,,,,,,,,,
2245,0,0.0311,2.75,2.22,,,-0.32,-0.07,-0.06,3,-0,-1,0.33,0.4,82,,,,,,,,,,,,,,,,,,,
2255,0,0.0313,2.74,2.21,1.4,,-0.25,-0.08,-0.02,3,-1,-1,0.26,0.4,65,,,,0.0,0.0,0.0,0.0,0,0,0.0,0,0.0,-1,0.0,0,0.0,0.0313,0.0,0.0
2265,0,0.0314,2.74,2.21,,,-0.3,-0.09,-0.0,3,-1,-1,0.31,0.4,78,,,,,,,,,,,,,,,,,,,
2275,0,0.0316,2.73,2.23,1.42,,-0.28,-0.1,-0.0,3,-1,-1,0.3,0.4,75,,0,0,,,,,,,,,,,,,,,,
2285,0,0.0318,2.75,2.22,,,-0.28,-0.09,-0.01,3,-1,-1,0.29,0.4,73,,,,,,,,,,,,,,,,,,,
2295,0,0.032,2.71,2.19,1.4,,-0.3,-0.1,-0.02,3,-1,-1,0.31,0.4,78,,,,,,,,,,,,,,,,,,,
2305,0,0.0321,2.73,2.2,,,-0.31,-0.1,0.02,3,-0,-1,0.32,0.4,81,,,,,,,,,,,,,,,,,,,
2315,0,0.0323,2.75,2.22,1.42,,-0.37,-0.09,-0.01,3,0,-0,0.38,0.4,95,,0,0,,,,,,,,,,,,,,,,
2325,0,0.0325,2.75,2.22,,,-0.28,-0.09,-0.04,3,0,-0,0.3,0.4,74,,,,,,,,,,,,,,,,,,,
2335,0,0.0326,2.75,2.23,1.43,,-0.32,-0.08,-0.04,3,-0,-0,0.33,0.4,83,,,,,,,,,,,,,,,,,,,
2345,0,0.0328,2.75,2.23,,,-0.29,-0.07,-0.02,3,-1,-0,0.3,0.4,74,,,,,,,,,,,,,,,,,,,
2355,0,0.033,2.74,2.22,1.42,12.83,-0.34,-0.04,-0.01,3,-1,-0,0.34,0.4,85,0,0,0,0.0,0.0,0.0,0.0,0,0,0.0,0,0.0,-1,0.0,0,0.0,0.033,0.0,0.0
2365,0,0.0331,2.74,2.21,,,-0.31,-0.06,-0.02,3,-1,-0,0.32,0.4,79,,,,,,,,,,,,,,,,,,,
2375,0,0.0333,2.71,2.17,1.4,,-0.3,-0.05,0.02,2,-1,0,0.3,0.4,76,,,,,,,,,,,,,,,,,,,
2385,0,0.0334,2.72,2.2,,,-0.34,-0.06,0.01,2,-1,0,0.34,0.4,86,,,,,,,,,,,,,,,,,,,
2395,0,0.0336,2.75,2.22,1.43,,-0.26,-0.06,-0.02,2,-1,-0,0.27,0.4,67,,0,0,,,,,,,,,,,,,,,,
2405,0,0.0338,2.71,2.21,,,-0.32,-0.07,-0.04,2,-1,-0,0.33,0.4,82,,,,,,,,,,,,,,,,,,,
2415,0,0.034,2.76,2.22,1.42,,-0.27,-0.07,-0.04,2,-1,-0,0.28,0.4,70,,,,,,,,,,,,,,,,,,,
2425,0,0.0341,2.74,2.2,,,-0.31,-0.04,-0.02,2,-1,0,0.31,0.4,79,,,,,,,,,,,,,,,,,,,
2435,0,0.0343,2.73,2.19,1.39,,-0.24,-0.07,-0.03,2,-2,0,0.26,0.4,64,,0,0,,,,,,,,,,,,,,,,
2445,0,0.0344,2.71,2.19,,,-0.27,-0.06,0.0,1,-1,1,0.28,0.4,70,,,,,,,,,,,,,,,,,,,
2455,0,0.0346,2.73,2.21,1.42,,-0.3,-0.08,0.02,1,-1,1,0.31,0.4,79,,,,0.0,0.0,0.0,0.0,0,0,0.0,0,0.0,-1,0.0,0,0.0,0.0346,0.0,0.0
2465,0,0.0348,2.76,2.22,,,-0.25,-0.06,0.01,1,-1,1,0.26,0.4,64,,,,,,,,,,,,,,,,,,,
2475,0,0.035,2.76,2.21,1.41,,-0.29,-0.05,-0.05,1,-1,1,0.3,0.4,75,,0,0,,,,,,,,,,,,,,,,
2485,0,0.0351,2.74,2.21,,,-0.25,-0.04,-0.05,0,-1,1,0.26,0.4,65,,,,,,,,,,,,,,,,,,,
2495,0,0.0353,2.74,2.21,1.4,,-0.35,-0.01,-0.03,0,-1,1,0.35,0.4,87,,,,,,,,,,,,,,,,,,,
2505,0,0.0354,2.72,2.19,,,-0.27,-0.02,-0.04,-0,-1,1,0.28,0.4,69,,,,,,,,,,,,,,,,,,,
2515,0,0.0356,2.74,2.22,1.43,,-0.29,-0.04,0.01,-0,-1,1,0.29,0.4,73,,0,0,,,,,,,,,,,,,,,,
2525,0,0.0358,2.76,2.23,,,-0.27,-0.05,0.04,-1,-2,1,0.28,0.4,69,,,,,,,,,,,,,,,,,,,
2535,0,0.036,2.76,2.22,1.43,,-0.25,-0.1,0.05,-1,-1,1,0.27,0.4,67,,,,,,,,,,,,,,,,,,,
2545,0,0.0361,2.72,2.22,,,-0.28,-0.09,0.05,-1,-1,1,0.3,0.4,74,,,,,,,,,,,,,,,,,,,
2555,0,0.0363,2.71,2.18,1.4,,-0.24,-0.13,0.04,-2,-1,1,0.27,0.4,68,,0,0,0.0,0.0,0.0,0.0,0,0,0.0,0,0.0,-1,0.0,0,0.0,0.0363,0.0,0.0
2565,0,0.0364,2.75,2.22,,,-0.27,-0.1,0.01,-2,-0,2,0.29,0.4,72,,,,,,,,,,,,,,,,,,,
2575,0,0.0366,2.75,2.22,1.43,,-0.2,-0.08,0.0,-2,-0,2,0.21,0.4,53,,,,,,,,,,,,,,,,,,,
2585,0,0.0368,2.72,2.18,,,-0.25,-0.07,0.01,-2,-0,2,0.26,0.4,65,,,,,,,,,,,,,,,,,,,
2595,0,0.037,2.71,2.2,1.41,,-0.22,-0.06,0.03,-2,-0,2,0.23,0.4,58,,0,0,,,,,,,,,,,,,,,,
2605,0,0.0371,2.74,2.22,,,-0.23,-0.06,0.03,-2,-0,2,0.24,0.4,59,,,,,,,,,,,,,,,,,,,
2615,0,0.0373,2.75,2.2,1.42,,-0.26,-0.06,0.01,-3,0,2,0.27,0.4,68,,,,,,,,,,,,,,,,,,,
2625,0,0.0374,2.74,2.22,,,-0.25,-0.05,0.03,-3,1,2,0.25,0.4,63,,,,,,,,,,,,,,,,,,,
2635,0,0.0376,2.75,2.22,1.42,,-0.31,-0.04,0.04,-3,1,2,0.31,0.4,78,,0,0,,,,,,,,,,,,,,,,
2645,0,0.0378,2.74,2.22,,,-0.22,-0.04,0.04,-3,2,2,0.23,0.4,58,,,,,,,,,,,,,,,,,,,
2655,0,0.038,2.72,2.2,1.41,,-0.3,-0.02,0.03,-4,1,2,0.3,0.4,75,,,,0.0,0.0,0.0,0.0,0,0,0.0,0,0.0,-1,0.0,0,0.0,0.038,0.0,0.0
2665,0,0.0381,2.74,2.22,,,-0.28,-0.03,0.03,-4,1,2,0.29,0.4,72,,,,,,,,,,,,,,,,,,,
2675,0,0.0383,2.73,2.22,1.42,,-0.31,0.01,0.02,-4,1,2,0.31,0.4,77,,0,0,,,,,,,,,,,,,,,,
2685,0,0.0384,2.7,2.18,,,-0.26,0.02,0.05,-4,1,2,0.27,0.4,67,,,,,,,,,,,,,,,,,,,
2695,0,0.0386,2.73,2.21,1.41,,-0.29,0.01,0.1,-4,1,2,0.3,0.4,76,,,,,,,,,,,,,,,,,,,
2705,0,0.0388,2.7,2.2,,,-0.32,0.05,0.11,-5,1,2,0.34,0.4,85,,,,,,,,,,,,,,,,,,,
2715,0,0.039,2.73,2.22,1.42,,-0.26,0.03,0.09,-5,1,2,0.28,0.4,70,,0,0,,,,,,,,,,,,,,,,
2725,0,0.0391,2.72,2.19,,,-0.31,0.04,0.08,-5,1,1,0.33,0.4,81,,,,,,,,,,,,,,,,,,,
2735,0,0.0393,2.72,2.2,1.42,,-0.3,0.01,0.08,-5,2,1,0.31,0.4,78,,,,,,,,,,,,,,,,,,,
2745,0,0.0394,2.72,2.22,,,-0.35,0.0,0.04,-5,2,1,0.35,0.4,87,,,,,,,,,,,,,,,,,,,
2755,0,0.0396,2.76,2.23,1.42,,-0.27,-0.03,0.01,-6,2,2,0.27,0.4,68,,0,0,0.0,0.0,0.0,0.0,0,0,0.0,0,0.0,-1,0.0,0,0.0,0.0396,0.0,0.0
2765,0,0.0398,2.75,2.21,,,-0.3,-0.05,0.04,-6,1,2,0.3,0.4,75,,,,,,,,,,,,,,,,,,,
2775,0,0.0399,2.76,2.22,1.42,,-0.3,-0.04,0.06,-6,0,2,0.3,0.4,76,,,,,,,,,,,,,,,,,,,
2785,0,0.0401,2.75,2.23,,,-0.26,-0.05,0.05,-6,0,3,0.27,0.4,67,,,,,,,,,,,,,,,,,,,
2795,0,0.0403,2.76,2.23,1.43,,-0.28,-0.04,0.05,-6,0,3,0.28,0.4,71,,0,0,,,,,,,,,,,,,,,,
2805,0,0.0404,2.75,2.22,,,-0.25,-0.03,0.08,-6,0,3,0.27,0.4,67,,,,,,,,,,,,,,,,,,,
2815,0,0.0406,2.73,2.2,1.39,,-0.31,-0.02,0.05,-7,1,3,0.31,0.4,78,,,,,,,,,,,,,,,,,,,
2825,0,0.0408,2.75,2.22,,,-0.21,-0.03,0.0,-7,1,3,0.22,0.4,54,,,,,,,,,,,,,,,,,,,
2835,0,0.041,2.74,2.23,1.43,,-0.29,0.01,-0.01,-7,1,3,0.29,0.4,72,,0,0,,,,,,,,,,,,,,,,
2845,0,0.0411,2.7,2.2,,,-0.27,0.03,0.0,-7,1,3,0.27,0.4,67,,,,,,,,,,,,,,,,,,,
2855,0,0.0413,2.75,2.22,1.41,,-0.3,0.03,0.02,-7,1,3,0.31,0.4,77,,,,0.0,0.0,0.0,0.0,0,0,0.0,0,0.0,-1,0.0,0,0.0,0.0413,0.0,0.0
2865,0,0.0414,2.74,2.21,,,-0.25,0.03,0.0,-7,0,3,0.25,0.4,64,,,,,,,,,,,,,,,,,,,
2875,0,0.0416,2.75,2.2,1.4,,-0.28,0.0,0.04,-7,0,3,0.28,0.4,70,,0,0,,,,,,,,,,,,,,,,
2885,0,0.0418,2.73,2.19,,,-0.29,-0.0,0.05,-8,-0,3,0.29,0.4,73,,,,,,,,,,,,,,,,,,,
2895,0,0.042,2.74,2.2,1.4,,-0.24,-0.03,0.02,-8,-0,3,0.24,0.4,60,,,,,,,,,,,,,,,,,,,
2905,0,0.0421,2.75,2.22,,,-0.27,-0.04,-0.0,-8,-0,3,0.27,0.4,68,,,,,,,,,,,,,,,,,,,
2915,0,0.0423,2.74,2.22,1.43,,-0.24,-0.03,-0.01,-8,0,3,0.25,0.4,61,,0,0,,,,,,,,,,,,,,,,
2925,0,0.0424,2.71,2.2,,,-0.3,-0.03,-0.03,-8,1,3,0.31,0.4,76,,,,,,,,,,,,,,,,,,,
2935,0,0.0426,2.75,2.22,1.43,,-0.23,-0.01,-0.04,-8,1,3,0.23,0.4,57,,,,,,,,,,,,,,,,,,,
2945,0,0.0428,2.75,2.2,,,-0.28,0.02,-0.05,-8,1,3,0.29,0.4,72,,,,,,,,,,,,,,,,,,,
2955,0,0.043,2.75,2.23,1.42,,-0.27,0.0,-0.07,-8,0,3,0.28,0.4,71,,0,0,0.0,0.0,0.0,0.0,0,0,0.0,0,0.0,-1,0.0,0,0.0,0.043,0.0,0.0
2965,0,0.0431,2.74,2.23,,,-0.3,0.01,-0.08,-8,0,3,0.31,0.4,77,,,,,,,,,,,,,,,,,,,
2975,0,0.0433,2.75,2.23,1.42,,-0.29,0.03,-0.08,-8,-0,3,0.31,0.4,76,,,,,,,,,,,,,,,,,,,
2985,0,0.0435,2.75,2.23,,,-0.3,0.01,-0.04,-8,-0,3,0.3,0.4,75,,,,,,,,,,,,,,,,,,,
2995,0,0.0436,2.76,2.23,1.42,,-0.32,0.02,-0.04,-8,-1,3,0.32,0.4,80,,0,0,,,,,,,,,,,,,,,,
3005,0,0.0438,2.72,2.21,,,-0.26,-0.01,-0.05,-8,-1,3,0.27,0.4,67,,,,,,,,,,,,,,,,,,,
3015,0,0.044,2.75,2.23,1.43,,-0.3,-0.0,-0.07,-8,-1,3,0.31,0.4,78,,,,,,,,,,,,,,,,,,,
3025,0,0.0441,2.71,2.19,,,-0.27,-0.04,-0.07,-8,-1,3,0.28,0.4,70,,,,,,,,,,,,,,,,,,,
3035,0,0.0443,2.74,2.22,1.42,,-0.32,-0.03,-0.08,-8,-0,3,0.34,0.4,84,,0,0,,,,,,,,,,,,,,,,
3045,0,0.0444,2.75,2.23,,,-0.25,-0.05,-0.09,-8,-0,3,0.27,0.4,68,,,,,,,,,,,,,,,,,,,
3055,0,0.0446,2.76,2.23,1.43,,-0.29,-0.05,-0.09,-8,-0,3,0.31,0.4,77,,,,0.0,0.0,0.0,0.0,0,0,0.0,0,0.0,-1,0.0,0,0.0,0.0446,0.0,0.0
3065,0,0.0448,2.75,2.22,,,-0.28,-0.05,-0.09,-8,-0,3,0.3,0.4,74,,,,,,,,,,,,,,,,,,,
3075,0,0.045,2.75,2.23,1.43,,-0.3,-0.04,-0.11,-8,-0,3,0.32,0.4,80,,0,0,,,,,,,,,,,,,,,,
3085,0,0.0451,2.72,2.22,,,-0.28,-0.03,-0.12,-8,-1,3,0.31,0.4,76,,,,,,,,,,,,,,,,,,,
3095,0,0.0453,2.75,2.23,1.43,,-0.27,-0.02,-0.08,-8,-1,3,0.28,0.4,71,,,,,,,,,,,,,,,,,,,
3105,0,0.0454,2.76,2.23,,,-0.28,-0.02,-0.07,-8,-2,3,0.29,0.4,73,,,,,,,,,,,,,,,,,,,
3115,0,0.0456,2.75,2.23,1.43,,-0.25,-0.04,-0.09,-8,-2,3,0.26,0.4,66,,0,0,,,,,,,,,,,,,,,,
3125,0,0.0458,2.76,2.23,,,-0.26,-0.04,-0.12,-8,-2,3,0.29,0.4,71,,,,,,,,,,,,,,,,,,,
3135,0,0.046,2.75,2.22,1.39,,-0.23,-0.09,-0.09,-8,-2,4,0.26,0.4,65,,,,,,,,,,,,,,,,,,,
3145,0,0.0461,2.75,2.18,,,-0.27,-0.08,-0.09,-8,-1,4,0.3,0.4,75,,,,,,,,,,,,,,,,,,,
3155,0,0.0463,2.75,2.17,1.43,,-0.17,-0.2,0.01,-7,-0,4,0.26,0.4,66,,0,0,0.0,0.0,0.0,0.0,0,0,0.0,0,0.0,-1,0.0,0,0.0,0.0463,0.0,0.0
3165,0,0.0464,2.74,2.12,,,-0.18,-0.17,0.03,-7,-0,5,0.25,0.4,62,,,,,,,,,,,,,,,,,,,
3175,0,0.0466,2.69,2.07,1.4,,-0.13,-0.2,0.08,-8,0,5,0.25,0.4,63,,,,,,,,,,,,,,,,,,,
3185,0,0.0468,2.61,2.05,,,-0.14,-0.21,0.05,-8,1,6,0.26,0.4,65,,,,,,,,,,,,,,,,,,,
3195,0,0.047,2.55,2.05,1.42,,-0.01,-0.19,0.07,-8,1,7,0.2,0.4,50,,0,0,,,,,,,,,,,,,,,,
3205,0,0.0471,2.46,2.01,,,0.0,-0.12,0.11,-8,2,8,0.17,0.4,42,,,,,,,,,,,,,,,,,,,
3215,0,0.0473,2.43,2.02,1.39,,0.04,-0.0,0.13,-8,3,8,0.13,0.4,33,,,,,,,,,,,,,,,,,,,
3225,0,0.0474,2.42,2.09,,,0.05,0.06,0.07,-8,4,7,0.11,0.4,27,,,,,,,,,,,,,,,,,,,
3235,0,0.0476,2.44,2.13,1.43,,0.08,0.18,-0.01,-8,5,6,0.2,0.4,50,,0,0,,,,,,,,,,,,,,,,
3245,0,0.0478,2.49,2.16,,,0.05,0.12,0.0,-8,7,4,0.13,0.4,34,,,,,,,,,,,,,,,,,,,
3255,0,0.048,2.59,2.18,1.4,,0.01,0.15,0.02,-8,8,2,0.16,0.4,39,,,,0.0,0.0,0.0,0.0,0,0,0.0,0,0.0,-1,0.0,0,0.0,0.048,0.0,0.0
3265,0,0.0481,2.69,2.23,,,0.03,0.14,0.03,-7,9,0,0.15,0.4,38,,,,,,,,,,,,,,,,,,,
3275,0,0.0483,2.78,2.27,1.42,,-0.06,0.1,-0.06,-7,10,-2,0.13,0.4,32,,0,0,,,,,,,,,,,,,,,,
3285,0,0.0484,2.86,2.27,,,-0.1,-0.02,-0.1,-7,10,-2,0.14,0.4,36,,,,,,,,,,,,,,,,,,,
3295,0,0.0486,2.91,2.33,1.42,,-0.21,-0.14,-0.19,-6,10,-2,0.32,0.4,80,,,,,,,,,,,,,,,,,,,
3305,0,0.0488,2.9,2.36,,,-0.19,-0.16,-0.25,-6,9,-1,0.35,0.4,89,,,,,,,,,,,,,,,,,,,
3315,0,0.049,2.83,2.36,1.41,,-0.24,-0.16,-0.25,-6,8,1,0.38,0.4,96,,0,0,,,,,,,,,,,,,,,,
3325,0,0.0491,2.83,2.38,,,-0.27,-0.13,-0.29,-6,7,2,0.41,0.41,100,,,,,,,,,,,,,,,,,,,
3335,0,0.0493,2.79,2.36,1.42,,-0.34,-0.0,-0.24,-6,6,3,0.41,0.41,100,,,,,,,,,,,,,,,,,,,
3345,0,0.0494,2.73,2.34,,,-0.28,0.03,-0.15,-6,6,2,0.32,0.41,78,,,,,,,,,,,,,,,,,,,
3355,0,0.0496,2.69,2.3,1.4,12.73,-0.25,0.04,-0.14,-6,5,3,0.29,0.41,70,0,0,0,0.0,0.0,0.0,0.0,0,0,0.0,0,0.0,-1,0.0,0,0.0,0.0496,0.0,0.0
3365,0,0.0498,2.65,2.27,,,-0.16,0.12,-0.14,-5,3,3,0.25,0.41,60,,,,,,,,,,,,,,,,,,,
3375,0,0.05,2.71,2.27,1.42,,-0.15,0.2,-0.14,-5,2,3,0.29,0.41,69,,,,,,,,,,,,,,,,,,,
3385,0,0.0501,2.72,2.25,,,-0.17,0.14,-0.19,-4,1,2,0.29,0.41,71,,,,,,,,,,,,,,,,,,,
3395,0,0.0503,2.72,2.23,1.39,,-0.19,0.13,-0.25,-4,1,2,0.34,0.41,82,,0,0,,,,,,,,,,,,,,,,
3405,0,0.0504,2.76,2.28,,,-0.23,0.04,-0.2,-4,-1,2,0.31,0.41,74,,,,,,,,,,,,,,,,,,,
3415,0,0.0506,2.75,2.29,1.42,,-0.22,0.02,-0.18,-4,-1,3,0.29,0.41,70,,,,,,,,,,,,,,,,,,,
3425,0,0.0508,2.78,2.3,,,-0.27,0.05,-0.17,-5,-2,4,0.32,0.41,78,,,,,,,,,,,,,,,,,,,
3435,0,0.0509,2.82,2.34,1.42,,-0.34,-0.0,-0.07,-4,-4,5,0.35,0.41,84,,0,0,,,,,,,,,,,,,,,,
3445,0,0.0511,2.8,2.34,,,-0.45,0.1,-0.1,-4,-5,5,0.47,0.47,100,,,,,,,,,,,,,,,,,,,
3455,0,0.0513,2.79,2.33,1.41,,-0.43,0.17,-0.14,-4,-8,6,0.48,0.48,100,,,,0.0,0.0,0.0,0.0,0,0,0.0,0,0.0,-1,0.0,0,0.0,0.0513,0.0,0.0
3465,0,0.0514,2.74,2.32,,,-0.45,0.16,-0.18,-5,-10,5,0.51,0.51,100,,,,,,,,,,,,,,,,,,,
3475,0,0.0516,2.66,2.28,1.41,,-0.47,0.28,-0.13,-5,-12,4,0.56,0.56,100,,0,0,,,,,,,,,,,,,,,,
3485,0,0.0518,2.62,2.22,,,-0.41,0.3,-0.11,-4,-13,2,0.52,0.56,93,,,,,,,,,,,,,,,,,,,
3495,0,0.052,2.62,2.14,1.41,,-0.29,0.33,-0.09,-4,-15,-0,0.45,0.56,79,,,,,,,,,,,,,,,,,,,
3505,0,0.0521,2.6,2.07,,,-0.23,0.3,-0.03,-4,-16,-4,0.38,0.56,68,,,,,,,,,,,,,,,,,,,
3515,0,0.0523,2.6,2.03,1.42,,-0.1,0.17,-0.12,-4,-17,-6,0.23,0.56,42,,0,0,,,,,,,,,,,,,,,,
3525,0,0.0524,2.57,2.0,,,-0.07,0.05,-0.1,-4,-17,-7,0.14,0.56,24,,,,,,,,,,,,,,,,,,,
3535,0,0.0526,2.59,2.0,1.42,,0.06,0.13,-0.02,-4,-16,-6,0.14,0.56,25,,,,,,,,,,,,,,,,,,,
3545,0,0.0528,2.61,2.03,,,0.03,0.25,-0.1,-4,-15,-6,0.27,0.56,48,,,,,,,,,,,,,,,,,,,
3555,0,0.053,2.64,2.01,1.41,,0.09,0.2,-0.17,-4,-14,-6,0.28,0.56,49,,0,0,0.0,0.0,0.0,0.0,0,0,0.0,0,0.0,-1,0.0,0,0.0,0.053,0.0,0.0
3565,0,0.0531,2.63,1.97,,,0.06,0.13,-0.08,-3,-12,-6,0.16,0.56,29,,,,,,,,,,,,,,,,,,,
3575,0,0.0533,2.68,2.0,1.41,,0.14,0.06,-0.09,-3,-11,-5,0.18,0.56,32,,,,,,,,,,,,,,,,,,,
3585,0,0.0534,2.67,1.99,,,0.17,-0.04,-0.12,-2,-10,-4,0.22,0.56,38,,,,,,,,,,,,,,,,,,,
3595,0,0.0536,2.62,1.96,1.38,,0.23,-0.03,-0.1,-2,-8,-3,0.25,0.56,44,,0,0,,,,,,,,,,,,,,,,
3605,0,0.0538,2.65,2.03,,,0.23,-0.06,-0.05,-1,-6,-2,0.25,0.56,44,,,,,,,,,,,,,,,,,,,
3615,0,0.054,2.63,2.06,1.42,,0.25,-0.09,-0.06,-1,-4,-1,0.27,0.56,48,,,,,,,,,,,,,,,,,,,
3625,0,0.0541,2.64,2.07,,,0.25,-0.08,-0.06,-0,-2,0,0.27,0.56,48,,,,,,,,,,,,,,,,,,,
3635,0,0.0543,2.62,2.08,1.38,,0.22,-0.08,-0.01,0,-0,1,0.23,0.56,41,,0,0,,,,,,,,,,,,,,,,
3645,0,0.0544,2.66,2.14,,,0.27,0.03,0.01,1,2,2,0.27,0.56,48,,,,,,,,,,,,,,,,,,,
3655,0,0.0546,2.68,2.17,1.42,,0.23,0.0,-0.03,2,4,2,0.23,0.56,41,,,,0.0,0.0,0.0,0.0,0,0,0.0,0,0.0,-1,0.0,0,0.0,0.0546,0.0,0.0
3665,0,0.0548,2.67,2.18,,,0.18,0.08,0.03,2,5,2,0.2,0.56,35,,,,,,,,,,,,,,,,,,,
3675,0,0.055,2.72,2.22,1.42,,0.13,0.1,0.04,3,7,1,0.17,0.56,30,,0,0,,,,,,,,,,,,,,,,
3685,0,0.0551,2.72,2.2,,,0.11,0.1,0.05,3,9,1,0.16,0.56,28,,,,,,,,,,,,,,,,,,,
3695,0,0.0553,2.73,2.25,1.42,,0.02,0.17,0.05,3,10,-0,0.18,0.56,31,,,,,,,,,,,,,,,,,,,
3705,0,0.0554,2.75,2.27,,,-0.0,0.17,0.09,4,11,-1,0.2,0.56,35,,,,,,,,,,,,,,,,,,,
3715,0,0.0556,2.76,2.26,1.42,,0.0,0.19,0.12,4,11,-2,0.22,0.56,39,,0,0,,,,,,,,,,,,,,,,
3725,0,0.0558,2.76,2.26,,,-0.05,0.14,0.1,4,12,-3,0.18,0.56,33,,,,,,,,,,,,,,,,,,,
3735,0,0.056,2.74,2.26,1.38,,-0.04,0.14,0.09,5,12,-3,0.17,0.56,31,,,,,,,,,,,,,,,,,,,
3745,0,0.0561,2.76,2.27,,,-0.11,0.07,0.11,5,12,-4,0.17,0.56,30,,,,,,,,,,,,,,,,,,,
3755,0,0.0563,2.73,2.27,1.42,,-0.17,0.08,0.09,5,12,-4,0.21,0.56,37,,0,0,0.0,0.0,0.0,0.0,0,0,0.0,0,0.0,-1,0.0,0,0.0,0.0563,0.0,0.0
3765,0,0.0564,2.72,2.24,,,-0.2,0.06,0.05,5,12,-4,0.21,0.56,37,,,,,,,,,,,,,,,,,,,
3775,0,0.0566,2.76,2.26,1.42,,-0.2,0.08,0.03,5,11,-4,0.22,0.56,39,,,,,,,,,,,,,,,,,,,
3785,0,0.0568,2.75,2.25,,,-0.27,0.06,0.04,5,11,-4,0.28,0.56,50,,,,,,,,,,,,,,,,,,,
3795,0,0.057,2.77,2.26,1.41,,-0.32,-0.01,0.05,5,10,-4,0.32,0.56,57,,0,0,,,,,,,,,,,,,,,,
3805,0,0.0571,2.75,2.24,,,-0.28,-0.02,0.06,5,9,-3,0.28,0.56,51,,,,,,,,,,,,,,,,,,,
3815,0,0.0573,2.77,2.25,1.42,,-0.26,-0.02,0.1,6,8,-3,0.28,0.56,50,,,,,,,,,,,,,,,,,,,
3825,0,0.0574,2.76,2.24,,,-0.26,-0.02,0.09,6,7,-2,0.27,0.56,49,,,,,,,,,,,,,,,,,,,
3835,0,0.0576,2.76,2.25,1.42,,-0.31,-0.0,0.09,6,6,-2,0.32,0.56,57,,0,0,,,,,,,,,,,,,,,,
3845,0,0.0578,2.76,2.24,,,-0.34,0.05,0.06,6,5,-2,0.35,0.56,62,,,,,,,,,,,,,,,,,,,
3855,0,0.058,2.72,2.19,1.38,,-0.33,0.04,0.02,6,4,-2,0.33,0.56,59,,,,0.0,0.0,0.0,0.0,0,0,0.0,0,0.0,-1,0.0,0,0.0,0.058,0.0,0.0
3865,0,0.0581,2.75,2.22,,,-0.28,0.06,0.02,6,4,-3,0.29,0.56,52,,,,,,,,,,,,,,,,,,,
3875,0,0.0583,2.76,2.21,1.42,,-0.31,0.06,0.06,6,3,-3,0.32,0.56,58,,0,0,,,,,,,,,,,,,,,,
3885,0,0.0584,2.76,2.21,,,-0.33,0.02,0.09,6,2,-3,0.35,0.56,61,,,,,,,,,,,,,,,,,,,
3895,0,0.0586,2.76,2.19,1.42,,-0.28,0.02,0.08,6,0,-3,0.29,0.56,52,,,,,,,,,,,,,,,,,,,
3905,0,0.0588,2.74,2.14,,,-0.21,-0.05,0.1,6,-1,-3,0.24,0.56,42,,,,,,,,,,,,,,,,,,,
3915,0,0.059,2.75,2.15,1.41,,-0.18,-0.03,0.04,6,-2,-3,0.19,0.56,33,,0,0,,,,,,,,,,,,,,,,
3925,0,0.0591,2.75,2.16,,,-0.23,-0.07,0.03,6,-3,-3,0.24,0.56,43,,,,,,,,,,,,,,,,,,,
3935,0,0.0593,2.72,2.14,1.4,,-0.25,-0.03,0.04,6,-3,-3,0.25,0.56,45,,,,,,,,,,,,,,,,,,,
3945,0,0.0594,2.7,2.1,,,-0.21,-0.06,-0.02,6,-3,-3,0.22,0.56,40,,,,,,,,,,,,,,,,,,,
3955,0,0.0596,2.73,2.13,1.42,,-0.15,-0.1,-0.02,6,-3,-2,0.19,0.56,33,,0,0,0.0,0.0,0.0,0.0,0,0,0.0,0,0.0,-1,0.0,0,0.0,0.0596,0.0,0.0
3965,0,0.0598,2.7,2.11,,,-0.15,-0.12,0.06,6,-3,-2,0.2,0.56,36,,,,,,,,,,,,,,,,,,,
3975,0,0.06,2.7,2.07,1.41,,-0.12,-0.19,0.14,6,-3,-1,0.27,0.56,48,,,,,,,,,,,,,,,,,,,
3985,0,0.0601,2.61,1.94,,,-0.05,-0.17,0.16,6,-3,-1,0.24,0.56,42,,,,,,,,,,,,,,,,,,,
3995,0,0.0603,2.57,1.92,1.41,,0.04,-0.24,0.18,5,-3,-0,0.3,0.56,54,,0,0,,,,,,,,,,,,,,,,
4005,0,0.0604,2.5,1.87,,,0.16,-0.26,0.18,5,-2,1,0.35,0.56,63,,,,,,,,,,,,,,,,,,,
4015,0,0.0606,2.39,1.84,1.38,,0.22,-0.27,0.25,5,-1,2,0.43,0.56,76,,,,,,,,,,,,,,,,,,,
4025,0,0.0608,2.35,1.88,,,0.26,-0.23,0.32,5,1,3,0.47,0.56,83,,,,,,,,,,,,,,,,,,,
4035,0,0.061,2.31,1.94,1.41,,0.32,-0.1,0.32,5,3,4,0.46,0.56,82,,0,0,,,,,,,,,,,,,,,,
4045,0,0.0611,2.31,2.02,,,0.29,0.03,0.32,4,6,3,0.43,0.56,77,,,,,,,,,,,,,,,,,,,
4055,0,0.0613,2.37,2.1,1.41,,0.22,0.14,0.32,4,9,1,0.41,0.56,73,,,,0.0,0.0,0.0,0.0,0,0,0.0,0,0.0,-1,0.0,0,0.0,0.0613,0.0,0.0
4065,0,0.0614,2.42,2.14,,,0.2,0.25,0.32,4,11,-2,0.45,0.56,80,,,,,,,,,,,,,,,,,,,
4075,0,0.0616,2.56,2.19,1.39,,0.22,0.31,0.3,5,12,-5,0.48,0.56,86,,0,0,,,,,,,,,,,,,,,,
4085,0,0.0618,2.7,2.21,,,0.21,0.18,0.22,5,13,-7,0.35,0.56,63,,,,,,,,,,,,,,,,,,,
4095,0,0.062,2.83,2.29,1.39,,0.16,0.19,0.1,6,14,-9,0.27,0.56,47,,,,,,,,,,,,,,,,,,,
4105,0,0.0621,2.9,2.37,,,0.04,0.06,0.03,6,14,-9,0.08,0.56,15,,,,,,,,,,,,,,,,,,,
4115,0,0.0623,2.83,2.33,1.34,,-0.08,-0.03,-0.03,6,14,-8,0.08,0.56,15,,0,0,,,,,,,,,,,,,,,,
4125,0,0.0624,2.86,2.38,,,-0.1,-0.05,-0.1,5,14,-7,0.15,0.56,27,,,,,,,,,,,,,,,,,,,
4135,0,0.0626,2.81,2.36,1.4,,-0.05,-0.07,-0.14,5,13,-6,0.17,0.56,30,,,,,,,,,,,,,,,,,,,
4145,0,0.0628,2.82,2.36,,,-0.1,0.03,-0.14,5,12,-5,0.17,0.56,30,,,,,,,,,,,,,,,,,,,
4155,0,0.063,2.76,2.34,1.41,,-0.16,-0.06,-0.04,5,11,-5,0.17,0.56,31,,0,0,0.0,0.0,0.0,0.0,0,0,0.0,0,0.0,-1,0.0,0,0.0,0.063,0.0,0.0
4165,0,0.0631,2.71,2.27,,,-0.17,-0.08,-0.04,5,12,-5,0.19,0.56,34,,,,,,,,,,,,,,,,,,,
4175,0,0.0633,2.69,2.26,1.4,,-0.04,-0.02,-0.04,5,12,-4,0.06,0.56,11,,,,,,,,,,,,,,,,,,,
4185,0,0.0634,2.7,2.24,,,-0.11,-0.06,0.02,5,12,-5,0.13,0.56,23,,,,,,,,,,,,,,,,,,,
4195,0,0.0636,2.72,2.25,1.41,,-0.14,-0.06,-0.05,5,11,-4,0.16,0.56,28,,0,0,,,,,,,,,,,,,,,,
4205,0,0.0638,2.74,2.25,,,-0.15,-0.08,-0.06,5,10,-4,0.18,0.56,32,,,,,,,,,,,,,,,,,,,
4215,0,0.064,2.76,2.27,1.41,,-0.14,-0.17,-0.05,4,10,-3,0.23,0.56,40,,,,,,,,,,,,,,,,,,,
4225,0,0.0641,2.74,2.26,,,-0.19,-0.21,-0.08,4,8,-2,0.29,0.56,52,,,,,,,,,,,,,,,,,,,
4235,0,0.0643,2.81,2.28,1.38,,-0.24,-0.24,-0.11,4,7,-1,0.36,0.56,63,,0,0,,,,,,,,,,,,,,,,
4245,0,0.0645,2.86,2.32,,,-0.34,-0.25,-0.18,4,5,-0,0.46,0.56,82,,,,,,,,,,,,,,,,,,,
4255,0,0.0646,2.84,2.32,1.41,,-0.44,-0.25,-0.3,4,2,1,0.59,0.59,100,,,,0.0,0.0,0.0,0.0,0,0,0.0,0,0.0,-1,0.0,0,0.0,0.0646,0.0,0.0
4265,0,0.0648,2.83,2.31,,,-0.49,-0.12,-0.42,4,-1,1,0.66,0.66,100,,,,,,,,,,,,,,,,,,,
4275,0,0.0649,2.87,2.3,1.41,,-0.54,0.01,-0.49,4,-5,-1,0.73,0.73,100,,0,0,,,,,,,,,,,,,,,,
4285,0,0.0651,2.88,2.25,,,-0.6,0.01,-0.5,4,-8,-2,0.78,0.78,100,,,,,,,,,,,,,,,,,,,
4295,0,0.0653,2.87,2.25,1.42,,-0.59,-0.05,-0.45,4,-11,-3,0.75,0.78,96,,,,,,,,,,,,,,,,,,,
4305,0,0.0654,2.85,2.22,,,-0.52,0.08,-0.47,3,-14,-5,0.7,0.78,90,,,,,,,,,,,,,,,,,,,
4315,0,0.0656,2.79,2.19,1.39,,-0.38,-0.05,-0.6,3,-17,-6,0.71,0.78,91,,0,0,,,,,,,,,,,,,,,,
4325,0,0.0658,2.79,2.25,,,-0.41,-0.16,-0.48,1,-20,-5,0.66,0.78,84,,,,,,,,,,,,,,,,,,,
4335,0,0.066,2.76,2.29,1.39,,-0.38,-0.07,-0.43,1,-22,-2,0.58,0.78,74,,,,,,,,,,,,,,,,,,,
4345,0,0.0661,2.76,2.34,,,-0.33,0.05,-0.4,1,-24,-2,0.52,0.78,66,,,,,,,,,,,,,,,,,,,
4355,0,0.0663,2.7,2.32,1.41,12.79,-0.22,0.01,-0.33,1,-26,-2,0.4,0.78,52,0,0,0,0.0,0.0,0.0,0.0,0,0,0.0,0,0.0,-1,0.0,0,0.0,0.0663,0.0,0.0
4365,0,0.0664,2.74,2.23,,,-0.21,-0.03,-0.42,2,-28,-2,0.47,0.78,61,,,,,,,,,,,,,,,,,,,
4375,0,0.0666,2.76,2.2,1.42,,-0.14,-0.0,-0.44,2,-29,-2,0.46,0.78,59,,,,,,,,,,,,,,,,,,,
4385,0,0.0668,2.76,2.11,,,-0.04,-0.05,-0.33,2,-30,-2,0.33,0.78,43,,,,,,,,,,,,,,,,,,,
4395,0,0.067,2.71,2.04,1.4,,0.09,-0.06,-0.26,3,-30,-2,0.28,0.78,36,,0,0,,,,,,,,,,,,,,,,
4405,0,0.0671,2.7,2.03,,,0.15,-0.07,-0.29,3,-31,-2,0.33,0.78,43,,,,,,,,,,,,,,,,,,,
4415,0,0.0673,2.63,2.03,1.42,,0.15,-0.1,-0.28,4,-30,-2,0.33,0.78,43,,,,,,,,,,,,,,,,,,,
4425,0,0.0674,2.57,2.02,,,0.2,-0.09,-0.23,4,-30,-2,0.32,0.78,41,,,,,,,,,,,,,,,,,,,
4435,0,0.0676,2.54,2.01,1.41,,0.28,-0.1,-0.19,5,-29,-2,0.35,0.78,45,,0,0,,,,,,,,,,,,,,,,
4445,0,0.0678,2.48,1.97,,,0.34,-0.04,-0.18,5,-28,-3,0.38,0.78,49,,,,,,,,,,,,,,,,,,,
4455,0,0.068,2.52,1.98,1.42,,0.38,-0.1,-0.13,6,-27,-2,0.41,0.78,53,,,,0.0,0.0,0.0,0.0,0,0,0.0,0,0.0,-1,0.0,0,0.0,0.068,0.0,0.0
4465,0,0.0681,2.55,1.96,,,0.44,-0.13,-0.11,7,-25,-2,0.47,0.78,61,,,,,,,,,,,,,,,,,,,
4475,0,0.0683,2.55,1.91,1.41,,0.5,-0.18,-0.09,7,-23,-2,0.54,0.78,69,,0,0,,,,,,,,,,,,,,,,
4485,0,0.0684,2.6,1.94,,,0.52,-0.18,-0.09,8,-21,-1,0.55,0.78,71,,,,,,,,,,,,,,,,,,,
4495,0,0.0686,2.61,1.94,1.41,,0.53,-0.21,-0.08,8,-19,-0,0.58,0.78,74,,,,,,,,,,,,,,,,,,,
4505,0,0.0688,2.6,1.94,,,0.56,-0.21,-0.06,8,-16,0,0.6,0.78,77,,,,,,,,,,,,,,,,,,,
4515,0,0.069,2.55,1.93,1.39,,0.57,-0.18,-0.05,9,-14,1,0.6,0.78,77,,0,0,,,,,,,,,,,,,,,,
4525,0,0.0691,2.52,1.94,,,0.54,-0.12,-0.09,9,-11,2,0.57,0.78,73,,,,,,,,,,,,,,,,,,,
4535,0,0.0693,2.57,1.99,1.42,,0.59,-0.06,-0.08,9,-8,2,0.6,0.78,77,,,,,,,,,,,,,,,,,,,
4545,0,0.0694,2.57,1.99,,,0.55,-0.07,-0.03,10,-6,2,0.56,0.78,72,,,,,,,,,,,,,,,,,,,
4555,0,0.0696,2.57,2.02,1.41,,0.53,-0.05,0.02,10,-3,2,0.53,0.78,68,,0,0,0.0,0.0,0.0,0.0,0,0,0.0,0,0.0,-1,0.0,0,0.0,0.0696,0.0,0.0
4565,0,0.0698,2.63,2.03,,,0.51,-0.03,-0.0,10,-1,1,0.51,0.78,66,,,,,,,,,,,,,,,,,,,
4575,0,0.07,2.69,2.04,1.4,,0.45,-0.01,-0.04,10,1,1,0.46,0.78,59,,,,,,,,,,,,,,,,,,,
4585,0,0.0701,2.71,2.07,,,0.45,0.03,-0.08,10,3,1,0.46,0.78,59,,,,,,,,,,,,,,,,,,,
4595,0,0.0703,2.76,2.09,1.4,,0.36,0.04,-0.06,10,4,0,0.37,0.78,48,,0,0,,,,,,,,,,,,,,,,
4605,0,0.0704,2.78,2.12,,,0.31,-0.02,-0.03,10,6,-0,0.31,0.78,40,,,,,,,,,,,,,,,,,,,
4615,0,0.0706,2.8,2.14,1.42,,0.29,-0.0,-0.04,10,7,-1,0.29,0.78,37,,,,,,,,,,,,,,,,,,,
4625,0,0.0708,2.76,2.13,,,0.29,-0.07,-0.03,9,8,-0,0.3,0.78,38,,,,,,,,,,,,,,,,,,,
4635,0,0.071,2.79,2.17,1.41,,0.25,-0.07,-0.05,9,9,-0,0.27,0.78,35,,0,0,,,,,,,,,,,,,,,,
4645,0,0.0711,2.79,2.2,,,0.17,-0.12,-0.05,8,9,0,0.22,0.78,28,,,,,,,,,,,,,,,,,,,
4655,0,0.0713,2.79,2.21,1.37,,0.09,-0.12,-0.05,8,10,1,0.16,0.78,20,,,,0.0,0.0,0.0,0.0,0,0,0.0,0,0.0,-1,0.0,0,0.0,0.0713,0.0,0.0
4665,0,0.0714,2.79,2.23,,,0.05,-0.14,-0.09,7,11,1,0.17,0.78,22,,,,,,,,,,,,,,,,,,,
4675,0,0.0716,2.75,2.21,1.39,,0.03,-0.14,-0.13,7,11,2,0.19,0.78,25,,0,0,,,,,,,,,,,,,,,,
4685,0,0.0718,2.79,2.24,,,-0.05,-0.11,-0.09,6,11,2,0.15,0.78,20,,,,,,,,,,,,,,,,,,,
4695,0,0.072,2.8,2.25,1.41,,-0.11,-0.12,-0.05,6,11,2,0.18,0.78,22,,,,,,,,,,,,,,,,,,,
4705,0,0.0721,2.77,2.23,,,-0.13,-0.08,-0.11,5,10,2,0.18,0.78,24,,,,,,,,,,,,,,,,,,,
4715,0,0.0723,2.75,2.17,1.37,,-0.12,-0.09,-0.12,4,10,2,0.19,0.78,24,,0,0,,,,,,,,,,,,,,,,
4725,0,0.0724,2.76,2.17,,,-0.05,-0.2,-0.03,4,11,2,0.21,0.78,27,,,,,,,,,,,,,,,,,,,
4735,0,0.0726,2.71,2.05,1.37,,-0.04,-0.21,0.06,4,10,2,0.22,0.78,29,,,,,,,,,,,,,,,,,,,
4745,0,0.0728,2.67,1.96,,,0.01,-0.29,0.15,3,10,3,0.32,0.78,42,,,,,,,,,,,,,,,,,,,
4755,0,0.073,2.61,1.86,1.41,,0.08,-0.39,0.19,3,10,4,0.44,0.78,57,,0,0,0.0,0.0,0.0,0.0,0,0,0.0,0,0.0,-1,0.0,0,0.0,0.073,0.0,0.0
4765,0,0.0731,2.53,1.8,,,0.18,-0.5,0.14,2,10,5,0.55,0.78,70,,,,,,,,,,,,,,,,,,,
4775,0,0.0733,2.41,1.73,1.37,,0.3,-0.59,0.16,2,11,8,0.68,0.78,88,,,,,,,,,,,,,,,,,,,
4785,0,0.0734,2.35,1.8,,,0.35,-0.61,0.25,1,13,10,0.74,0.78,95,,,,,,,,,,,,,,,,,,,
4795,0,0.0736,2.3,1.88,1.41,,0.39,-0.48,0.34,1,15,12,0.7,0.78,90,,0,0,,,,,,,,,,,,,,,,
4805,0,0.0738,2.25,1.97,,,0.42,-0.34,0.32,0,18,13,0.63,0.78,81,,,,,,,,,,,,,,,,,,,
4815,0,0.074,2.25,2.06,1.4,,0.47,-0.21,0.38,-1,21,12,0.64,0.78,82,,,,,,,,,,,,,,,,,,,
4825,0,0.0741,2.36,2.14,,,0.38,-0.13,0.36,-1,23,10,0.54,0.78,69,,,,,,,,,,,,,,,,,,,
4835,0,0.0743,2.48,2.27,1.41,,0.31,-0.01,0.36,-1,25,9,0.48,0.78,62,,0,0,,,,,,,,,,,,,,,,
4845,0,0.0744,2.6,2.35,,,0.24,-0.02,0.33,-2,27,6,0.41,0.78,53,,,,,,,,,,,,,,,,,,,
4855,0,0.0746,2.71,2.39,1.41,,0.19,0.11,0.34,-2,29,3,0.4,0.78,51,,,,0.0,0.0,0.0,0.0,0,0,0.0,0,0.0,-1,0.0,0,0.0,0.0746,0.0,0.0
4865,0,0.0748,2.79,2.4,,,0.12,0.16,0.27,-1,31,-1,0.33,0.78,43,,,,,,,,,,,,,,,,,,,
4875,0,0.075,2.84,2.37,1.41,,0.08,0.18,0.2,-1,32,-4,0.28,0.78,36,,0,0,,,,,,,,,,,,,,,,
4885,0,0.0751,2.88,2.39,,,-0.04,0.05,0.15,-1,31,-7,0.16,0.78,21,,,,,,,,,,,,,,,,,,,
4895,0,0.0753,2.88,2.37,1.42,,-0.12,-0.07,0.18,-1,31,-8,0.22,0.78,29,,,,,,,,,,,,,,,,,,,
4905,0,0.0755,2.87,2.33,,,-0.07,-0.18,0.17,-1,29,-8,0.26,0.78,34,,,,,,,,,,,,,,,,,,,
4915,0,0.0756,2.81,2.27,1.38,,-0.0,-0.3,0.19,-1,29,-7,0.35,0.78,45,,0,0,,,,,,,,,,,,,,,,
4925,0,0.0758,2.81,2.3,,,0.02,-0.24,0.22,-0,29,-6,0.32,0.78,42,,,,,,,,,,,,,,,,,,,
4935,0,0.0759,2.76,2.27,1.38,,-0.08,-0.25,0.26,-0,29,-5,0.37,0.78,47,,,,,,,,,,,,,,,,,,,
4945,0,0.0761,2.7,2.3,,,-0.09,-0.18,0.2,0,28,-5,0.28,0.78,37,,,,,,,,,,,,,,,,,,,
4955,0,0.0763,2.71,2.32,1.42,,-0.06,-0.23,0.09,0,28,-5,0.26,0.78,33,,0,0,0.0,0.0,0.0,0.0,0,0,0.0,0,0.0,-1,0.0,0,0.0,0.0763,0.0,0.0
4965,0,0.0764,2.71,2.31,,,-0.06,-0.18,0.08,0,28,-5,0.2,0.78,26,,,,,,,,,,,,,,,,,,,
4975,0,0.0766,2.69,2.3,1.38,,-0.15,-0.2,0.13,-0,27,-4,0.28,0.78,36,,,,,,,,,,,,,,,,,,,
4985,0,0.0768,2.71,2.36,,,-0.26,-0.23,0.12,-0,27,-3,0.36,0.78,47,,,,,,,,,,,,,,,,,,,
4995,0,0.077,2.71,2.35,1.4,,-0.34,-0.34,0.13,-1,26,-2,0.5,0.78,64,,0,0,,,,,,,,,,,,,,,,
5005,0,0.0771,2.72,2.35,,,-0.41,-0.38,0.12,-1,23,0,0.57,0.78,73,,,,,,,,,,,,,,,,,,,
5015,0,0.0773,2.72,2.31,1.41,,-0.45,-0.26,0.08,-1,21,2,0.53,0.78,68,,,,,,,,,,,,,,,,,,,
5025,0,0.0774,2.75,2.32,,,-0.55,-0.23,0.02,-1,18,4,0.6,0.78,77,,,,,,,,,,,,,,,,,,,
5035,0,0.0776,2.77,2.33,1.41,,-0.65,-0.25,0.05,-1,15,5,0.7,0.78,90,,0,0,,,,,,,,,,,,,,,,
5045,0,0.0778,2.79,2.29,,,-0.64,-0.12,0.03,-0,11,6,0.65,0.78,84,,,,,,,,,,,,,,,,,,,
5055,0,0.078,2.83,2.26,1.42,,-0.68,0.0,-0.08,0,8,5,0.69,0.78,89,,,,0.0,0.0,0.0,0.0,0,0,0.0,0,0.0,-1,0.0,0,0.0,0.078,0.0,0.0
5065,0,0.0781,2.85,2.21,,,-0.66,0.04,-0.11,-0,5,4,0.67,0.78,86,,,,,,,,,,,,,,,,,,,
5075,0,0.0783,2.9,2.22,1.42,,-0.76,-0.03,-0.19,-0,1,4,0.78,0.78,100,,0,0,,,,,,,,,,,,,,,,
5085,0,0.0784,2.86,2.2,,,-0.73,-0.01,-0.2,-1,-2,4,0.75,0.78,97,,,,,,,,,,,,,,,,,,,
5095,0,0.0786,2.88,2.2,1.41,,-0.59,-0.13,-0.19,-2,-5,4,0.63,0.78,81,,,,,,,,,,,,,,,,,,,
5105,0,0.0788,2.8,2.18,,,-0.58,-0.18,-0.2,-3,-9,5,0.64,0.78,83,,,,,,,,,,,,,,,,,,,
5115,0,0.079,2.82,2.26,1.42,,-0.58,-0.05,-0.1,-4,-12,6,0.59,0.78,76,,0,0,,,,,,,,,,,,,,,,
5125,0,0.0791,2.77,2.29,,,-0.61,-0.01,-0.15,-5,-15,6,0.62,0.78,80,,,,,,,,,,,,,,,,,,,
5135,0,0.0793,2.78,2.33,1.42,,-0.59,0.04,-0.23,-6,-18,5,0.63,0.78,81,,,,,,,,,,,,,,,,,,,
5145,0,0.0794,2.74,2.31,,,-0.49,0.07,-0.24,-6,-21,4,0.56,0.78,71,,,,,,,,,,,,,,,,,,,
5155,0,0.0796,2.78,2.34,1.42,,-0.47,0.0,-0.22,-7,-22,3,0.52,0.78,66,,0,0,0.0,0.0,0.0,0.0,0,0,0.0,0,0.0,-1,0.0,0,0.0,0.0796,0.0,0.0
5165,0,0.0798,2.79,2.3,,,-0.53,0.01,-0.23,-7,-25,2,0.57,0.78,74,,,,,,,,,,,,,,,,,,,
5175,0,0.08,2.79,2.34,1.4,,-0.5,-0.01,-0.31,-8,-27,2,0.59,0.78,76,,,,,,,,,,,,,,,,,,,
5185,0,0.0801,2.8,2.34,,,-0.45,-0.02,-0.39,-8,-30,1,0.6,0.78,77,,,,,,,,,,,,,,,,,,,
5195,0,0.0803,2.81,2.32,1.41,,-0.44,-0.05,-0.41,-9,-32,0,0.6,0.78,78,,0,0,,,,,,,,,,,,,,,,
5205,0,0.0804,2.82,2.3,,,-0.45,-0.06,-0.42,-9,-34,-0,0.62,0.78,79,,,,,,,,,,,,,,,,,,,
5215,0,0.0806,2.83,2.3,1.4,,-0.42,-0.06,-0.43,-9,-36,-0,0.61,0.78,78,,,,,,,,,,,,,,,,,,,
5225,0,0.0808,2.83,2.29,,,-0.35,-0.11,-0.45,-10,-38,-0,0.58,0.78,74,,,,,,,,,,,,,,,,,,,
5235,0,0.081,2.83,2.29,1.41,,-0.33,-0.1,-0.46,-10,-39,-1,0.58,0.78,74,,0,0,,,,,,,,,,,,,,,,
5245,0,0.0811,2.84,2.31,,,-0.34,-0.13,-0.48,-10,-41,-1,0.6,0.78,77,,,,,,,,,,,,,,,,,,,
5255,0,0.0813,2.8,2.29,1.39,,-0.34,-0.13,-0.52,-11,-43,-1,0.64,0.78,82,,,,0.0,0.0,0.0,0.0,0,0,0.0,0,0.0,-1,0.0,0,0.0,0.0813,0.0,0.0
5265,0,0.0814,2.83,2.3,,,-0.28,-0.07,-0.53,-11,-44,-0,0.61,0.78,78,,,,,,,,,,,,,,,,,,,
5275,0,0.0816,2.8,2.31,1.42,,-0.23,0.0,-0.5,-12,-45,-1,0.55,0.78,71,,0,0,,,,,,,,,,,,,,,,
5285,0,0.0818,2.73,2.25,,,-0.19,0.02,-0.45,-12,-45,-1,0.49,0.78,63,,,,,,,,,,,,,,,,,,,
5295,0,0.082,2.63,2.2,1.41,,-0.1,0.0,-0.45,-13,-46,-2,0.46,0.78,60,,,,,,,,,,,,,,,,,,,
5305,0,0.0821,2.6,2.13,,,-0.02,-0.05,-0.43,-13,-46,-1,0.44,0.78,56,,,,,,,,,,,,,,,,,,,
5315,0,0.0823,2.48,2.03,1.4,,0.07,-0.04,-0.46,-14,-47,-2,0.47,0.78,60,,0,0,,,,,,,,,,,,,,,,
5325,0,0.0824,2.46,2.02,,,0.16,-0.02,-0.45,-14,-46,-2,0.48,0.78,61,,,,,,,,,,,,,,,,,,,
5335,0,0.0826,2.42,1.97,1.41,,0.26,-0.02,-0.44,-15,-46,-2,0.51,0.78,66,,,,,,,,,,,,,,,,,,,
5345,0,0.0828,2.41,1.95,,,0.34,0.02,-0.39,-15,-45,-3,0.52,0.78,67,,,,,,,,,,,,,,,,,,,
5355,0,0.083,2.45,1.94,1.41,12.79,0.38,-0.02,-0.37,-15,-43,-3,0.53,0.78,68,0,0,0,0.0,0.0,0.0,0.0,0,0,0.0,0,0.0,-1,0.0,0,0.0,0.083,0.0,0.0
5365,0,0.0831,2.41,1.91,,,0.43,-0.03,-0.39,-16,-41,-4,0.59,0.78,76,,,,,,,,,,,,,,,,,,,
5375,0,0.0833,2.41,1.87,1.38,,0.51,-0.06,-0.36,-16,-38,-4,0.63,0.78,81,,,,,,,,,,,,,,,,,,,
5385,0,0.0834,2.45,1.92,,,0.59,-0.01,-0.37,-16,-36,-5,0.7,0.78,90,,,,,,,,,,,,,,,,,,,
5395,0,0.0836,2.43,1.89,1.37,,0.67,-0.04,-0.38,-16,-32,-5,0.77,0.78,99,,0,0,,,,,,,,,,,,,,,,
5405,0,0.0838,2.44,1.92,,,0.76,-0.08,-0.31,-16,-29,-5,0.82,0.82,100,,,,,,,,,,,,,,,,,,,
5415,0,0.084,2.45,1.92,1.41,,0.78,-0.03,-0.3,-16,-25,-6,0.84,0.84,100,,,,,,,,,,,,,,,,,,,
5425,0,0.0841,2.41,1.91,,,0.88,-0.01,-0.32,-16,-21,-6,0.94,0.94,100,,,,,,,,,,,,,,,,,,,
5435,0,0.0843,2.49,1.92,1.42,,0.89,-0.01,-0.33,-15,-17,-7,0.95,0.95,100,,0,0,,,,,,,,,,,,,,,,
5445,0,0.0844,2.51,1.92,,,0.9,-0.01,-0.31,-15,-13,-7,0.95,0.95,100,,,,,,,,,,,,,,,,,,,
5455,0,0.0846,2.58,1.99,1.41,,0.96,0.04,-0.29,-15,-9,-8,1.01,1.01,100,,,,0.0,0.0,0.0,0.0,0,0,0.0,0,0.0,-1,0.0,0,0.0,0.0846,0.0,0.0
5465,0,0.0848,2.63,2.02,,,0.94,0.01,-0.33,-15,-4,-8,0.99,1.01,98,,,,,,,,,,,,,,,,,,,
5475,0,0.085,2.66,2.06,1.41,,0.92,-0.02,-0.37,-14,1,-8,0.99,1.01,98,,0,0,,,,,,,,,,,,,,,,
5485,0,0.0851,2.71,2.09,,,0.86,-0.05,-0.34,-14,5,-9,0.93,1.01,92,,,,,,,,,,,,,,,,,,,
5495,0,0.0853,2.74,2.09,1.38,,0.8,-0.15,-0.34,-14,9,-9,0.88,1.01,87,,,,,,,,,,,,,,,,,,,
5505,0,0.0854,2.74,2.13,,,0.74,-0.24,-0.34,-14,13,-8,0.85,1.01,84,,,,,,,,,,,,,,,,,,,
5515,0,0.0856,2.77,2.19,1.4,,0.63,-0.35,-0.29,-12,18,-6,0.78,1.01,77,,0,0,,,,,,,,,,,,,,,,
5525,0,0.0858,2.78,2.24,,,0.53,-0.44,-0.19,-13,22,-5,0.72,1.01,71,,,,,,,,,,,,,,,,,,,
5535,0,0.086,2.81,2.31,1.41,,0.4,-0.44,-0.11,-13,24,-2,0.6,1.01,60,,,,,,,,,,,,,,,,,,,
5545,0,0.0861,2.79,2.34,,,0.3,-0.3,-0.07,-11,26,-1,0.43,1.01,43,,,,,,,,,,,,,,,,,,,
5555,0,0.0863,2.78,2.35,1.41,,0.21,-0.24,-0.12,-11,27,-1,0.34,1.01,34,,0,0,0.0,0.0,0.0,0.0,0,0,0.0,0,0.0,-1,0.0,0,0.0,0.0863,0.0,0.0
5565,0,0.0865,2.72,2.36,,,0.18,-0.3,-0.15,-10,29,-2,0.38,1.01,38,,,,,,,,,,,,,,,,,,,
5575,0,0.0866,2.7,2.36,1.39,,0.12,-0.17,-0.16,-9,30,-2,0.26,1.01,26,,,,,,,,,,,,,,,,,,,
5585,0,0.0868,2.58,2.33,,,0.05,-0.17,-0.13,-8,31,-3,0.22,1.01,22,,,,,,,,,,,,,,,,,,,
5595,0,0.0869,2.45,2.3,1.38,,0.01,-0.08,-0.15,-7,31,-4,0.17,1.01,17,,0,0,,,,,,,,,,,,,,,,
5605,0,0.0871,2.34,2.3,,,-0.07,0.01,-0.11,-6,31,-6,0.13,1.01,13,,,,,,,,,,,,,,,,,,,
5615,0,0.0873,2.26,2.26,1.38,,0.02,0.09,-0.15,-5,32,-8,0.18,1.01,18,,,,,,,,,,,,,,,,,,,
5625,0,0.0874,2.23,2.21,,,0.02,0.15,-0.08,-4,32,-11,0.17,1.01,17,,,,,,,,,,,,,,,,,,,
5635,0,0.0876,2.24,2.16,1.41,,0.04,0.13,0.0,-3,33,-14,0.13,1.01,13,,0,0,,,,,,,,,,,,,,,,
5645,0,0.0878,2.29,2.1,,,0.08,0.04,0.02,-1,33,-17,0.09,1.01,9,,,,,,,,,,,,,,,,,,,
5655,0,0.088,2.39,2.04,1.41,,0.1,-0.08,0.12,0,34,-19,0.17,1.01,17,,,,0.0,0.0,0.0,0.0,0,0,0.0,0,0.0,-1,0.0,0,0.0,0.088,0.0,0.0
5665,0,0.0881,2.46,1.96,,,0.12,-0.2,0.2,2,34,-20,0.3,1.01,30,,,,,,,,,,,,,,,,,,,
5675,0,0.0883,2.62,1.98,1.41,,0.08,-0.31,0.17,3,35,-20,0.37,1.01,36,,0,0,,,,,,,,,,,,,,,,
5685,0,0.0884,2.78,1.99,,,0.03,-0.42,0.16,5,36,-19,0.45,1.01,45,,,,,,,,,,,,,,,,,,,
5695,0,0.0886,2.88,2.0,1.41,,-0.01,-0.53,0.15,7,36,-18,0.55,1.01,54,,,,,,,,,,,,,,,,,,,
5705,0,0.0888,2.89,2.03,,,-0.02,-0.63,0.04,8,36,-15,0.63,1.01,62,,,,,,,,,,,,,,,,,,,
5715,0,0.089,2.93,2.13,1.41,,-0.14,-0.73,-0.05,9,36,-11,0.74,1.01,74,,0,0,,,,,,,,,,,,,,,,
5725,0,0.0891,2.92,2.22,,,-0.17,-0.61,-0.06,9,36,-7,0.64,1.01,63,,,,,,,,,,,,,,,,,,,
5735,0,0.0893,2.89,2.27,1.4,,-0.23,-0.54,-0.0,9,34,-3,0.59,1.01,58,,,,,,,,,,,,,,,,,,,
5745,0,0.0894,2.81,2.31,,,-0.23,-0.4,-0.06,9,33,-0,0.47,1.01,46,,,,,,,,,,,,,,,,,,,
5755,0,0.0896,2.81,2.39,1.41,,-0.26,-0.27,-0.1,9,32,2,0.38,1.01,38,,0,0,0.0,0.0,0.0,0.0,0,0,0.0,0,0.0,-1,0.0,0,0.0,0.0896,0.0,0.0
5765,0,0.0898,2.74,2.42,,,-0.29,-0.13,-0.09,9,31,2,0.33,1.01,33,,,,,,,,,,,,,,,,,,,
5775,0,0.09,2.76,2.41,1.4,,-0.23,-0.01,-0.09,9,30,1,0.25,1.01,25,,,,,,,,,,,,,,,,,,,
5785,0,0.0901,2.78,2.39,,,-0.26,0.12,-0.14,8,28,-0,0.31,1.01,31,,,,,,,,,,,,,,,,,,,
5795,0,0.0903,2.79,2.33,1.39,,-0.26,0.1,-0.1,8,27,-2,0.3,1.01,30,,0,0,,,,,,,,,,,,,,,,
5805,0,0.0904,2.79,2.31,,,-0.24,0.17,-0.13,8,25,-3,0.32,1.01,32,,,,,,,,,,,,,,,,,,,
5815,0,0.0906,2.83,2.29,1.4,,-0.23,0.22,-0.15,8,24,-5,0.35,1.01,35,,,,,,,,,,,,,,,,,,,
5825,0,0.0908,2.83,2.26,,,-0.19,0.14,-0.21,7,24,-7,0.32,1.01,32,,,,,,,,,,,,,,,,,,,
5835,0,0.091,2.86,2.23,1.39,,-0.28,0.04,-0.21,7,23,-8,0.36,1.01,35,,0,0,,,,,,,,,,,,,,,,
5845,0,0.0911,2.88,2.25,,,-0.3,-0.05,-0.25,7,21,-8,0.39,1.01,39,,,,,,,,,,,,,,,,,,,
5855,0,0.0913,2.83,2.24,1.4,,-0.33,-0.02,-0.28,6,19,-9,0.43,1.01,43,,,,0.0,0.0,0.0,0.0,0,0,0.0,0,0.0,-1,0.0,0,0.0,0.0913,0.0,0.0
5865,0,0.0914,2.83,2.27,,,-0.43,-0.07,-0.3,6,18,-9,0.53,1.01,52,,,,,,,,,,,,,,,,,,,
5875,0,0.0916,2.8,2.24,1.36,,-0.5,0.06,-0.26,6,15,-10,0.56,1.01,56,,0,0,,,,,,,,,,,,,,,,
5885,0,0.0918,2.81,2.28,,,-0.59,0.16,-0.25,6,12,-11,0.66,1.01,65,,,,,,,,,,,,,,,,,,,
5895,0,0.092,2.8,2.28,1.4,,-0.68,0.04,-0.29,6,8,-12,0.74,1.01,73,,,,,,,,,,,,,,,,,,,
5905,0,0.0921,2.78,2.3,,,-0.72,0.0,-0.35,5,4,-13,0.8,1.01,79,,,,,,,,,,,,,,,,,,,
5915,0,0.0923,2.79,2.3,1.41,,-0.78,-0.03,-0.32,5,0,-14,0.84,1.01,83,,0,0,,,,,,,,,,,,,,,,
5925,0,0.0924,2.8,2.32,,,-0.76,-0.09,-0.3,4,-4,-14,0.82,1.01,82,,,,,,,,,,,,,,,,,,,
5935,0,0.0926,2.77,2.33,1.41,,-0.75,-0.1,-0.34,4,-8,-15,0.83,1.01,82,,,,,,,,,,,,,,,,,,,
5945,0,0.0928,2.74,2.33,,,-0.65,-0.22,-0.43,3,-13,-14,0.81,1.01,80,,,,,,,,,,,,,,,,,,,
5955,0,0.093,2.77,2.38,1.42,,-0.7,-0.33,-0.32,1,-16,-12,0.84,1.01,83,,0,0,0.0,0.0,0.0,0.0,0,0,0.0,0,0.0,-1,0.0,0,0.0,0.093,0.0,0.0
5965,0,0.0931,2.78,2.42,,,-0.64,-0.22,-0.36,1,-20,-10,0.77,1.01,76,,,,,,,,,,,,,,,,,,,
5975,0,0.0933,2.77,2.41,1.41,,-0.68,-0.09,-0.43,1,-24,-9,0.81,1.01,81,,,,,,,,,,,,,,,,,,,
5985,0,0.0934,2.76,2.37,,,-0.66,-0.14,-0.52,2,-27,-9,0.85,1.01,84,,,,,,,,,,,,,,,,,,,
5995,0,0.0936,2.82,2.36,1.41,,-0.63,-0.13,-0.5,2,-31,-9,0.81,1.01,81,,0,0,,,,,,,,,,,,,,,,
6005,0,0.0938,2.85,2.32,,,-0.66,-0.16,-0.56,2,-34,-8,0.88,1.01,87,,,,,,,,,,,,,,,,,,,
6015,0,0.094,2.87,2.29,1.4,,-0.61,-0.15,-0.63,2,-37,-8,0.88,1.01,88,,,,,,,,,,,,,,,,,,,
6025,0,0.0941,2.87,2.27,,,-0.53,-0.17,-0.7,2,-40,-7,0.89,1.01,89,,,,,,,,,,,,,,,,,,,
6035,0,0.0943,2.85,2.24,1.37,,-0.51,-0.19,-0.75,1,-42,-6,0.93,1.01,92,,0,0,,,,,,,,,,,,,,,,
6045,0,0.0944,2.87,2.26,,,-0.5,-0.22,-0.75,1,-45,-5,0.93,1.01,92,,,,,,,,,,,,,,,,,,,
6055,0,0.0946,2.85,2.19,1.37,,-0.47,-0.24,-0.72,1,-47,-4,0.89,1.01,88,,,,0.0,0.0,0.0,0.0,0,0,0.0,0,0.0,-1,0.0,0,0.0,0.0946,0.0,0.0
6065,0,0.0948,2.85,2.18,,,-0.41,-0.17,-0.71,1,-49,-4,0.84,1.01,83,,,,,,,,,,,,,,,,,,,
6075,0,0.095,2.76,2.11,1.38,,-0.31,-0.18,-0.71,1,-51,-3,0.8,1.01,79,,0,0,,,,,,,,,,,,,,,,
6085,0,0.0951,2.76,2.09,,,-0.21,-0.13,-0.71,1,-52,-3,0.75,1.01,75,,,,,,,,,,,,,,,,,,,
6095,0,0.0953,2.7,2.03,1.41,,-0.2,-0.18,-0.73,2,-54,-3,0.78,1.01,77,,,,,,,,,,,,,,,,,,,
6105,0,0.0954,2.64,1.98,,,-0.11,-0.17,-0.72,2,-55,-2,0.74,1.01,74,,,,,,,,,,,,,,,,,,,
6115,0,0.0956,2.54,1.89,1.37,,-0.0,-0.16,-0.71,3,-55,-2,0.73,1.01,72,,0,0,,,,,,,,,,,,,,,,
6125,0,0.0958,2.53,1.9,,,0.08,-0.21,-0.67,4,-55,-2,0.71,1.01,70,,,,,,,,,,,,,,,,,,,
6135,0,0.096,2.52,1.88,1.4,,0.17,-0.23,-0.65,5,-55,-2,0.71,1.01,71,,,,,,,,,,,,,,,,,,,
6145,0,0.0961,2.52,1.88,,,0.25,-0.23,-0.64,6,-54,-2,0.72,1.01,72,,,,,,,,,,,,,,,,,,,
6155,0,0.0963,2.5,1.84,1.41,,0.37,-0.27,-0.52,7,-54,-2,0.7,1.01,69,,0,0,0.0,0.0,0.0,0.0,0,0,0.0,0,0.0,-1,0.0,0,0.0,0.0963,0.0,0.0
6165,0,0.0964,2.55,1.86,,,0.45,-0.32,-0.47,8,-52,-2,0.72,1.01,72,,,,,,,,,,,,,,,,,,,
6175,0,0.0966,2.54,1.85,1.42,,0.56,-0.29,-0.5,9,-50,-1,0.81,1.01,80,,,,,,,,,,,,,,,,,,,
6185,0,0.0968,2.56,1.85,,,0.64,-0.27,-0.43,10,-48,-1,0.82,1.01,81,,,,,,,,,,,,,,,,,,,
6195,0,0.097,2.56,1.85,1.42,,0.68,-0.25,-0.36,12,-45,-1,0.81,1.01,80,,0,0,,,,,,,,,,,,,,,,
6205,0,0.0971,2.56,1.85,,,0.79,-0.27,-0.33,13,-41,-0,0.9,1.01,89,,,,,,,,,,,,,,,,,,,
6215,0,0.0973,2.56,1.87,1.42,,0.85,-0.36,-0.38,14,-37,0,1.0,1.01,99,,,,,,,,,,,,,,,,,,,
6225,0,0.0974,2.55,1.89,,,0.95,-0.39,-0.36,15,-33,1,1.09,1.09,100,,,,,,,,,,,,,,,,,,,
6235,0,0.0976,2.57,1.92,1.42,,0.97,-0.41,-0.28,16,-28,2,1.09,1.09,100,,0,0,,,,,,,,,,,,,,,,
6245,0,0.0978,2.59,1.94,,,1.0,-0.32,-0.32,17,-25,3,1.1,1.1,100,,,,,,,,,,,,,,,,,,,
6255,0,0.0979,2.62,1.95,1.41,,1.02,-0.31,-0.37,18,-20,4,1.13,1.13,100,,,,0.0,0.0,0.0,0.0,0,0,0.0,0,0.0,-1,0.0,0,0.0,0.0979,0.0,0.0
6265,0,0.0981,2.67,1.98,,,1.03,-0.3,-0.43,19,-15,4,1.16,1.16,100,,,,,,,,,,,,,,,,,,,
6275,0,0.0983,2.73,2.03,1.42,,1.08,-0.35,-0.48,20,-10,5,1.23,1.23,100,,0,0,,,,,,,,,,,,,,,,
6285,0,0.0984,2.78,2.07,,,1.03,-0.35,-0.45,21,-5,6,1.18,1.23,96,,,,,,,,,,,,,,,,,,,
6295,0,0.0986,2.78,2.11,1.39,,1.01,-0.34,-0.45,23,-1,7,1.15,1.23,94,,,,,,,,,,,,,,,,,,,
6305,0,0.0988,2.81,2.14,,,1.02,-0.28,-0.48,24,3,8,1.16,1.23,94,,,,,,,,,,,,,,,,,,,
6315,0,0.099,2.8,2.19,1.38,,0.99,-0.22,-0.52,25,7,8,1.14,1.23,93,,0,0,,,,,,,,,,,,,,,,
6325,0,0.0991,2.81,2.26,,,0.99,-0.18,-0.61,26,11,8,1.18,1.23,96,,,,,,,,,,,,,,,,,,,
6335,0,0.0993,2.86,2.33,1.42,,0.91,-0.14,-0.64,27,15,9,1.12,1.23,91,,,,,,,,,,,,,,,,,,,
6345,0,0.0994,2.87,2.38,,,0.88,-0.18,-0.67,27,18,9,1.13,1.23,92,,,,,,,,,,,,,,,,,,,
6355,0,0.0996,2.87,2.41,1.42,12.8,0.81,-0.16,-0.76,28,21,10,1.12,1.23,91,0,0,0,0.0,0.0,0.0,0.0,0,0,0.0,0,0.0,-1,0.0,0,0.0,0.0996,0.0,0.0
6365,0,0.0998,2.82,2.42,,,0.81,-0.13,-0.72,28,24,10,1.09,1.23,89,,,,,,,,,,,,,,,,,,,
6375,0,0.1,2.82,2.38,1.39,,0.69,0.0,-0.7,29,28,10,0.98,1.23,80,,,,,,,,,,,,,,,,,,,
6385,0,0.1001,2.86,2.41,,,0.62,-0.0,-0.75,29,30,9,0.97,1.23,79,,,,,,,,,,,,,,,,,,,
6395,0,0.1003,2.85,2.36,1.39,,0.56,0.08,-0.68,29,32,8,0.89,1.23,72,,0,0,,,,,,,,,,,,,,,,
6405,0,0.1004,2.8,2.3,,,0.56,0.03,-0.61,29,35,7,0.83,1.23,68,,,,,,,,,,,,,,,,,,,
6415,0,0.1006,2.82,2.29,1.41,,0.5,0.07,-0.59,29,37,6,0.77,1.23,63,,,,,,,,,,,,,,,,,,,
6425,0,0.1008,2.85,2.26,,,0.41,-0.06,-0.57,29,38,5,0.7,1.23,57,,,,,,,,,,,,,,,,,,,
6435,0,0.101,2.85,2.28,1.42,,0.34,-0.03,-0.52,28,39,5,0.62,1.23,50,,0,0,,,,,,,,,,,,,,,,
6445,0,0.1011,2.84,2.28,,,0.28,0.0,-0.6,28,40,4,0.66,1.23,54,,,,,,,,,,,,,,,,,,,
6455,0,0.1013,2.82,2.25,1.38,,0.22,-0.02,-0.65,27,40,3,0.69,1.23,56,,,,0.0,0.0,0.0,0.0,0,0,0.0,0,0.0,-1,0.0,0,0.0,0.1013,0.0,0.0
6465,0,0.1015,2.84,2.29,,,0.09,-0.14,-0.6,26,41,3,0.62,1.23,50,,,,,,,,,,,,,,,,,,,
6475,0,0.1016,2.79,2.29,1.4,,0.03,-0.19,-0.54,25,41,4,0.57,1.23,46,,0,0,,,,,,,,,,,,,,,,
6485,0,0.1018,2.8,2.32,,,0.03,-0.11,-0.51,24,40,4,0.53,1.23,43,,,,,,,,,,,,,,,,,,,
6495,0,0.102,2.77,2.33,1.4,,-0.08,-0.03,-0.42,23,39,3,0.43,1.23,35,,,,,,,,,,,,,,,,,,,
6505,0,0.1021,2.8,2.34,,,-0.15,0.09,-0.46,23,37,3,0.49,1.23,40,,,,,,,,,,,,,,,,,,,
6515,0,0.1023,2.81,2.35,1.42,,-0.25,0.05,-0.5,22,35,1,0.56,1.23,46,,0,0,,,,,,,,,,,,,,,,
6525,0,0.1024,2.79,2.33,,,-0.34,0.05,-0.46,21,33,0,0.57,1.23,47,,,,,,,,,,,,,,,,,,,
6535,0,0.1026,2.81,2.34,1.42,,-0.36,0.01,-0.42,20,31,-0,0.55,1.23,45,,,,,,,,,,,,,,,,,,,
6545,0,0.1028,2.81,2.33,,,-0.45,-0.03,-0.45,19,28,-1,0.64,1.23,52,,,,,,,,,,,,,,,,,,,
6555,0,0.103,2.82,2.34,1.4,,-0.45,-0.03,-0.48,18,26,-2,0.66,1.23,54,,0,0,0.0,0.0,0.0,0.0,0,0,0.0,0,0.0,-1,0.0,0,0.0,0.103,0.0,0.0
6565,0,0.1031,2.81,2.3,,,-0.53,-0.03,-0.43,17,23,-2,0.68,1.23,56,,,,,,,,,,,,,,,,,,,
6575,0,0.1033,2.82,2.34,1.42,,-0.57,-0.05,-0.45,16,19,-3,0.73,1.23,59,,,,,,,,,,,,,,,,,,,
6585,0,0.1034,2.82,2.34,,,-0.58,-0.03,-0.53,14,16,-3,0.79,1.23,64,,,,,,,,,,,,,,,,,,,
6595,0,0.1036,2.81,2.31,1.38,,-0.57,-0.07,-0.51,13,13,-4,0.77,1.23,63,,0,0,,,,,,,,,,,,,,,,
6605,0,0.1038,2.81,2.32,,,-0.59,-0.08,-0.49,12,9,-5,0.77,1.23,63,,,,,,,,,,,,,,,,,,,
6615,0,0.104,2.82,2.31,1.38,,-0.57,-0.06,-0.5,11,6,-5,0.76,1.23,62,,,,,,,,,,,,,,,,,,,
6625,0,0.1041,2.82,2.27,,,-0.55,-0.11,-0.48,10,3,-6,0.74,1.23,60,,,,,,,,,,,,,,,,,,,
6635,0,0.1043,2.81,2.27,1.41,,-0.5,-0.21,-0.46,10,0,-6,0.72,1.23,58,,0,0,,,,,,,,,,,,,,,,
6645,0,0.1044,2.84,2.21,,,-0.44,-0.27,-0.51,9,-2,-6,0.72,1.23,59,,,,,,,,,,,,,,,,,,,
6655,0,0.1046,2.82,2.14,1.37,,-0.43,-0.34,-0.48,9,-4,-5,0.73,1.23,59,,,,0.0,0.0,0.0,0.0,0,0,0.0,0,0.0,-1,0.0,0,0.0,0.1046,0.0,0.0
6665,0,0.1048,2.8,2.11,,,-0.32,-0.28,-0.43,8,-6,-5,0.6,1.23,49,,,,,,,,,,,,,,,,,,,
6675,0,0.105,2.74,2.04,1.38,,-0.3,-0.33,-0.39,8,-8,-5,0.59,1.23,48,,0,0,,,,,,,,,,,,,,,,
6685,0,0.1051,2.75,2.03,,,-0.29,-0.35,-0.44,8,-10,-4,0.63,1.23,52,,,,,,,,,,,,,,,,,,,
6695,0,0.1053,2.7,2.01,1.42,,-0.26,-0.35,-0.47,8,-11,-3,0.64,1.23,52,,,,,,,,,,,,,,,,,,,
6705,0,0.1054,2.66,1.99,,,-0.13,-0.38,-0.38,8,-12,-3,0.55,1.23,45,,,,,,,,,,,,,,,,,,,
6715,0,0.1056,2.63,1.96,1.4,,-0.09,-0.36,-0.37,8,-13,-2,0.52,1.23,42,,0,0,,,,,,,,,,,,,,,,
6725,0,0.1058,2.62,1.96,,,-0.04,-0.31,-0.38,9,-13,-2,0.49,1.23,40,,,,,,,,,,,,,,,,,,,
6735,0,0.106,2.61,1.96,1.42,,-0.02,-0.31,-0.35,9,-14,-1,0.47,1.23,39,,,,,,,,,,,,,,,,,,,
6745,0,0.1061,2.63,1.97,,,0.0,-0.28,-0.29,9,-13,-1,0.4,1.23,33,,,,,,,,,,,,,,,,,,,
6755,0,0.1063,2.64,1.96,1.4,,0.12,-0.26,-0.27,10,-13,-1,0.39,1.23,32,,0,0,0.0,0.0,0.0,0.0,0,0,0.0,0,0.0,-1,0.0,0,0.0,0.1063,0.0,0.0
6765,0,0.1064,2.64,1.96,,,0.16,-0.28,-0.24,10,-13,-1,0.4,1.23,33,,,,,,,,,,,,,,,,,,,
6775,0,0.1066,2.64,1.96,1.42,,0.21,-0.24,-0.23,11,-12,-1,0.39,1.23,32,,,,,,,,,,,,,,,,,,,
6785,0,0.1068,2.66,1.94,,,0.2,-0.22,-0.23,11,-11,-1,0.37,1.23,30,,,,,,,,,,,,,,,,,,,
6795,0,0.107,2.65,1.94,1.37,,0.2,-0.19,-0.19,11,-10,-1,0.33,1.23,27,,0,0,,,,,,,,,,,,,,,,
6805,0,0.1071,2.67,1.96,,,0.24,-0.22,-0.18,12,-8,-1,0.37,1.23,31,,,,,,,,,,,,,,,,,,,
6815,0,0.1073,2.63,1.95,1.39,,0.29,-0.23,-0.16,12,-6,-2,0.4,1.23,33,,,,,,,,,,,,,,,,,,,
6825,0,0.1074,2.66,1.97,,,0.25,-0.23,-0.12,12,-5,-2,0.36,1.23,29,,,,,,,,,,,,,,,,,,,
6835,0,0.1076,2.74,2.03,1.41,,0.23,-0.26,-0.12,13,-4,-2,0.37,1.23,30,,0,0,,,,,,,,,,,,,,,,
6845,0,0.1078,2.72,2.02,,,0.22,-0.22,-0.14,13,-3,-3,0.34,1.23,27,,,,,,,,,,,,,,,,,,,
6855,0,0.108,2.79,2.07,1.41,,0.2,-0.26,-0.18,13,-1,-3,0.37,1.23,30,,,,0.0,0.0,0.0,0.0,0,0,0.0,0,0.0,-1,0.0,0,0.0,0.108,0.0,0.0
6865,0,0.1081,2.81,2.09,,,0.19,-0.28,-0.23,14,-0,-3,0.42,1.23,34,,,,,,,,,,,,,,,,,,,
6875,0,0.1083,2.84,2.11,1.41,,0.12,-0.3,-0.18,14,1,-3,0.37,1.23,30,,0,0,,,,,,,,,,,,,,,,
6885,0,0.1084,2.85,2.13,,,0.08,-0.37,-0.16,14,2,-2,0.41,1.23,33,,,,,,,,,,,,,,,,,,,
6895,0,0.1086,2.85,2.12,1.39,,0.09,-0.36,-0.22,14,3,-2,0.43,1.23,35,,,,,,,,,,,,,,,,,,,
6905,0,0.1088,2.86,2.14,,,0.11,-0.4,-0.21,14,4,-1,0.47,1.23,38,,,,,,,,,,,,,,,,,,,
6915,0,0.109,2.86,2.18,1.41,,0.08,-0.35,-0.19,14,5,-1,0.41,1.23,33,,0,0,,,,,,,,,,,,,,,,
6925,0,0.1091,2.83,2.19,,,0.04,-0.41,-0.17,14,5,-0,0.45,1.23,36,,,,,,,,,,,,,,,,,,,
6935,0,0.1093,2.87,2.22,1.41,,0.05,-0.32,-0.16,14,5,-0,0.36,1.23,30,,,,,,,,,,,,,,,,,,,
6945,0,0.1094,2.86,2.23,,,0.04,-0.38,-0.19,13,5,0,0.43,1.23,35,,,,,,,,,,,,,,,,,,,
6955,0,0.1096,2.87,2.23,1.42,,0.04,-0.31,-0.24,13,5,1,0.4,1.23,32,,0,0,0.0,0.0,0.0,0.0,0,0,0.0,0,0.0,-1,0.0,0,0.0,0.1096,0.0,0.0
6965,0,0.1098,2.86,2.21,,,-0.02,-0.34,-0.27,13,5,1,0.43,1.23,35,,,,,,,,,,,,,,,,,,,
6975,0,0.11,2.85,2.25,1.42,,-0.08,-0.31,-0.31,13,5,1,0.45,1.23,37,,,,,,,,,,,,,,,,,,,
6985,0,0.1101,2.84,2.23,,,-0.09,-0.3,-0.37,12,6,1,0.48,1.23,39,,,,,,,,,,,,,,,,,,,
6995,0,0.1103,2.84,2.24,1.41,,-0.04,-0.32,-0.38,12,6,1,0.5,1.23,40,,0,0,,,,,,,,,,,,,,,,
7005,0,0.1104,2.84,2.24,,,-0.08,-0.32,-0.38,11,6,1,0.5,1.23,41,,,,,,,,,,,,,,,,,,,
7015,0,0.1106,2.81,2.21,1.38,,-0.13,-0.32,-0.38,11,6,2,0.51,1.23,42,,,,,,,,,,,,,,,,,,,
7025,0,0.1108,2.84,2.23,,,-0.13,-0.28,-0.33,11,5,2,0.45,1.23,37,,,,,,,,,,,,,,,,,,,
7035,0,0.111,2.82,2.22,1.39,,-0.1,-0.3,-0.28,11,6,2,0.42,1.23,35,,0,0,,,,,,,,,,,,,,,,
7045,0,0.1111,2.84,2.25,,,-0.12,-0.28,-0.27,11,5,2,0.4,1.23,33,,,,,,,,,,,,,,,,,,,
