"Interval"|"ms"|0|0|1,"Utc"|"ms"|0|0|1,"ElapsedTime"|"Min"|0.0|0.0|10,"Analog1"|"Volts"|0.0|5.0|100,"Analog3"|"Volts"|0.0|5.0|100,"Analog4"|"Volts"|0.0|5.0|50,"Battery"|"Volts"|0.0|20.0|1,"AccelX"|"G"|-3.0|3.0|100,"AccelY"|"G"|-3.0|3.0|100,"AccelZ"|"G"|-3.0|3.0|100,"Yaw"|"Deg/Sec"|-120|120|100,"Pitch"|"Deg/Sec"|-120|120|100,"Roll"|"Deg/Sec"|-120|120|100,"Gsum"|"G"|0.0|3.0|100,"GsumMax"|"G"|0.0|3.0|100,"GsumPct"|"%"|0|100|100,"EngineTemp"|"C"|0|300|1,"RPM"|""|0|10000|25,"TPS"|"%"|0|100|25,"Latitude"|"Degrees"|-180.0|180.0|10,"Longitude"|"Degrees"|-180.0|180.0|10,"Speed"|"mph"|0.0|150.0|10,"Altitude"|"ft"|0.0|4000.0|10,"GPSSats"|""|0|20|10,"GPSQual"|""|0|5|10,"GPSDOP"|""|0.0|20.0|10,"LapCount"|""|0|0|10,"LapTime"|"Min"|0.0|0.0|10,"Sector"|""|0|0|10,"SectorTime"|"Min"|0.0|0.0|10,"CurrentLap"|""|0|0|10,"Distance"|"mi"|0.0|0.0|10,"SessionTime"|"Min"|0.0|0.0|10,"LapDelta"|"s"|0.0|0.0|10,"BestLap"|"Min"|0.0|0.0|10
364,0,0.0001,2.73,2.15,1.45,,-0.18,-0.14,-0.17,0,-0,0,0.28,0.28,100,,,,,,,,,,,,,,,,,,,
374,0,0.0002,2.72,2.15,,,-0.11,-0.14,-0.05,0,-0,0,0.18,0.28,65,,,,,,,,,,,,,,,,,,,
384,0,0.0004,2.72,2.15,1.45,,-0.15,-0.11,-0.02,0,-1,0,0.19,0.28,66,,0,0,,,,,,,,,,,,,,,,
394,0,0.0006,2.71,2.13,,,-0.05,-0.14,-0.06,0,-0,0,0.16,0.28,58,,,,,,,,,,,,,,,,,,,
404,0,0.0008,2.7,2.12,1.42,,-0.05,-0.1,-0.08,0,0,0,0.14,0.28,49,,,,,,,,,,,,,,,,,,,
414,0,0.0009,2.72,2.14,,,-0.05,-0.11,-0.01,0,-0,0,0.12,0.28,43,,,,,,,,,,,,,,,,,,,
424,0,0.0011,2.71,2.16,1.45,,-0.11,-0.09,-0.03,0,-0,0,0.14,0.28,50,,0,0,,,,,,,,,,,,,,,,
434,0,0.0012,2.72,2.16,,,-0.04,-0.1,-0.03,0,-0,0,0.11,0.28,40,,,,,,,,,,,,,,,,,,,
444,0,0.0014,2.7,2.14,1.45,,-0.03,-0.08,-0.06,0,-0,0,0.11,0.28,39,,,,0.0,0.0,0.0,0.0,0,0,0.0,0,0.0,-1,0.0,0,0.0,0.0014,0.0,0.0
454,0,0.0016,2.72,2.16,,,-0.03,-0.09,-0.02,0,-0,0,0.09,0.28,34,,,,,,,,,,,,,,,,,,,
464,0,0.0018,2.73,2.16,1.46,,-0.06,-0.08,-0.01,0,-0,0,0.1,0.28,36,,0,0,,,,,,,,,,,,,,,,
474,0,0.0019,2.72,2.15,,,-0.01,-0.1,-0.01,0,-0,0,0.1,0.28,36,,,,,,,,,,,,,,,,,,,
484,0,0.0021,2.72,2.16,1.43,,-0.01,-0.07,-0.02,0,-0,0,0.07,0.28,27,,,,,,,,,,,,,,,,,,,
494,0,0.0022,2.71,2.16,,,-0.03,-0.08,0.0,0,-0,0,0.09,0.28,31,,,,,,,,,,,,,,,,,,,
504,0,0.0024,2.7,2.13,1.42,,-0.03,-0.07,-0.01,0,-0,0,0.08,0.28,28,,0,0,,,,,,,,,,,,,,,,
514,0,0.0026,2.72,2.16,,,-0.01,-0.08,-0.01,0,-0,0,0.08,0.28,30,,,,,,,,,,,,,,,,,,,
524,0,0.0028,2.71,2.16,1.46,,0.0,-0.08,-0.03,0,-0,0,0.08,0.28,29,,,,,,,,,,,,,,,,,,,
534,0,0.0029,2.73,2.15,,,-0.01,-0.07,-0.04,0,-0,0,0.08,0.28,27,,,,,,,,,,,,,,,,,,,
544,0,0.0031,2.72,2.16,1.45,,-0.02,-0.06,-0.04,0,-0,0,0.08,0.28,29,,0,0,0.0,0.0,0.0,0.0,0,0,0.0,0,0.0,-1,0.0,0,0.0,0.0031,0.0,0.0
554,0,0.0032,2.69,2.14,,,0.01,-0.07,-0.06,0,0,0,0.1,0.28,35,,,,,,,,,,,,,,,,,,,
564,0,0.0034,2.73,2.16,1.46,,0.02,-0.06,-0.06,0,0,0,0.09,0.28,31,,,,,,,,,,,,,,,,,,,
574,0,0.0036,2.72,2.16,,,-0.01,-0.07,-0.04,0,0,0,0.08,0.28,28,,,,,,,,,,,,,,,,,,,
584,0,0.0038,2.69,2.14,1.44,,0.0,-0.06,-0.03,0,0,0,0.07,0.28,25,,0,0,,,,,,,,,,,,,,,,
594,0,0.0039,2.73,2.16,,,0.01,-0.07,-0.03,0,0,0,0.07,0.28,26,,,,,,,,,,,,,,,,,,,
604,0,0.0041,2.71,2.14,1.43,,0.02,-0.07,-0.02,0,0,0,0.07,0.28,27,,,,,,,,,,,,,,,,,,,
614,0,0.0043,2.73,2.16,,,0.01,-0.06,-0.02,0,-0,0,0.07,0.28,24,,,,,,,,,,,,,,,,,,,
624,0,0.0044,2.7,2.16,1.45,,0.01,-0.08,-0.03,0,0,0,0.08,0.28,29,,0,0,,,,,,,,,,,,,,,,
634,0,0.0046,2.73,2.14,,,0.01,-0.07,-0.04,0,0,0,0.08,0.28,29,,,,,,,,,,,,,,,,,,,
644,0,0.0048,2.72,2.15,1.45,,0.02,-0.07,-0.03,0,0,1,0.08,0.28,30,,,,0.0,0.0,0.0,0.0,0,0,0.0,0,0.0,-1,0.0,0,0.0,0.0048,0.0,0.0
654,0,0.0049,2.72,2.16,,,-0.01,-0.07,-0.04,0,0,1,0.08,0.28,30,,,,,,,,,,,,,,,,,,,
664,0,0.0051,2.7,2.14,1.45,,0.02,-0.07,-0.04,0,0,1,0.09,0.28,30,,0,0,,,,,,,,,,,,,,,,
674,0,0.0052,2.73,2.15,,,0.02,-0.07,-0.05,0,0,1,0.09,0.28,31,,,,,,,,,,,,,,,,,,,
684,0,0.0054,2.7,2.15,1.43,,0.02,-0.07,-0.02,0,0,1,0.07,0.28,27,,,,,,,,,,,,,,,,,,,
694,0,0.0056,2.73,2.15,,,0.01,-0.06,-0.01,0,0,1,0.07,0.28,23,,,,,,,,,,,,,,,,,,,
704,0,0.0058,2.69,2.15,1.45,,0.03,-0.07,-0.01,0,0,1,0.08,0.28,28,,0,0,,,,,,,,,,,,,,,,
714,0,0.0059,2.69,2.14,,,0.02,-0.06,-0.01,0,0,0,0.06,0.28,23,,,,,,,,,,,,,,,,,,,
724,0,0.0061,2.72,2.15,1.45,,0.02,-0.07,0.01,0,-0,0,0.07,0.28,26,,,,,,,,,,,,,,,,,,,
734,0,0.0062,2.72,2.15,,,0.01,-0.06,0.0,0,-0,0,0.06,0.28,22,,,,,,,,,,,,,,,,,,,
744,0,0.0064,2.72,2.16,1.46,,0.02,-0.07,-0.0,0,-0,0,0.07,0.28,26,,0,0,0.0,0.0,0.0,0.0,0,0,0.0,0,0.0,-1,0.0,0,0.0,0.0064,0.0,0.0
754,0,0.0066,2.72,2.16,,,0.03,-0.06,-0.02,0,-0,0,0.07,0.28,26,,,,,,,,,,,,,,,,,,,
764,0,0.0068,2.72,2.16,1.44,,0.03,-0.06,-0.03,0,-0,0,0.07,0.28,25,,,,,,,,,,,,,,,,,,,
774,0,0.0069,2.71,2.14,,,0.01,-0.06,-0.02,0,0,0,0.06,0.28,23,,,,,,,,,,,,,,,,,,,
784,0,0.0071,2.72,2.16,1.45,,0.04,-0.07,-0.03,0,0,0,0.08,0.28,30,,0,0,,,,,,,,,,,,,,,,
794,0,0.0072,2.72,2.15,,,0.04,-0.06,-0.03,0,0,0,0.07,0.28,26,,,,,,,,,,,,,,,,,,,
804,0,0.0074,2.72,2.16,1.45,,0.02,-0.06,-0.01,0,0,0,0.07,0.28,24,,,,,,,,,,,,,,,,,,,
814,0,0.0076,2.7,2.15,,,0.03,-0.06,-0.02,0,0,0,0.07,0.28,25,,,,,,,,,,,,,,,,,,,
824,0,0.0078,2.69,2.14,1.43,,0.03,-0.06,-0.02,0,0,0,0.07,0.28,26,,0,0,,,,,,,,,,,,,,,,
834,0,0.0079,2.69,2.15,,,0.04,-0.06,-0.02,0,0,0,0.07,0.28,27,,,,,,,,,,,,,,,,,,,
844,0,0.0081,2.72,2.15,1.45,,0.03,-0.06,-0.01,0,0,0,0.06,0.28,23,,,,0.0,0.0,0.0,0.0,0,0,0.0,0,0.0,-1,0.0,0,0.0,0.0081,0.0,0.0
854,0,0.0082,2.72,2.16,,,0.03,-0.06,-0.01,0,0,0,0.07,0.28,24,,,,,,,,,,,,,,,,,,,
864,0,0.0084,2.72,2.16,1.46,,0.04,-0.06,-0.03,0,0,0,0.08,0.28,27,,0,0,,,,,,,,,,,,,,,,
874,0,0.0086,2.72,2.16,,,0.05,-0.06,-0.02,0,0,0,0.08,0.28,27,,,,,,,,,,,,,,,,,,,
884,0,0.0088,2.72,2.15,1.45,,0.02,-0.06,-0.02,0,0,0,0.07,0.28,23,,,,,,,,,,,,,,,,,,,
894,0,0.0089,2.72,2.16,,,0.04,-0.06,-0.01,0,0,1,0.08,0.28,27,,,,,,,,,,,,,,,,,,,
904,0,0.0091,2.72,2.16,1.45,,0.04,-0.06,-0.02,0,0,1,0.07,0.28,26,,0,0,,,,,,,,,,,,,,,,
914,0,0.0092,2.71,2.15,,,0.04,-0.07,0.0,0,0,0,0.08,0.28,28,,,,,,,,,,,,,,,,,,,
924,0,0.0094,2.7,2.13,1.42,,0.02,-0.06,0.01,0,-0,0,0.07,0.28,24,,,,,,,,,,,,,,,,,,,
934,0,0.0096,2.72,2.15,,,0.04,-0.07,0.01,0,0,0,0.08,0.28,29,,,,,,,,,,,,,,,,,,,
944,0,0.0098,2.7,2.12,1.42,,0.03,-0.06,0.01,0,-0,0,0.07,0.28,26,,0,0,0.0,0.0,0.0,0.0,0,0,0.0,0,0.0,-1,0.0,0,0.0,0.0098,0.0,0.0
954,0,0.0099,2.68,2.12,,,0.03,-0.07,0.02,0,-0,0,0.08,0.28,29,,,,,,,,,,,,,,,,,,,
964,0,0.0101,2.72,2.16,1.45,,0.02,-0.06,0.01,0,-0,0,0.07,0.28,24,,,,,,,,,,,,,,,,,,,
974,0,0.0102,2.72,2.15,,,0.04,-0.07,0.0,0,-0,0,0.08,0.28,29,,,,,,,,,,,,,,,,,,,
984,0,0.0104,2.71,2.13,1.42,,0.04,-0.07,-0.01,0,-0,0,0.08,0.28,28,,0,0,,,,,,,,,,,,,,,,
994,0,0.0106,2.69,2.14,,,0.04,-0.06,-0.01,0,-0,0,0.07,0.28,26,,,,,,,,,,,,,,,,,,,
1004,0,0.0108,2.72,2.16,1.45,,0.02,-0.06,-0.0,0,-0,0,0.07,0.28,24,,,,,,,,,,,,,,,,,,,
1014,0,0.0109,2.72,2.15,,,0.05,-0.07,-0.01,0,0,0,0.09,0.28,31,,,,,,,,,,,,,,,,,,,
1024,0,0.0111,2.7,2.15,1.45,,0.05,-0.06,-0.01,0,0,0,0.08,0.28,27,,0,0,,,,,,,,,,,,,,,,
1034,0,0.0113,2.71,2.13,,,0.03,-0.07,0.01,0,0,0,0.07,0.28,26,,,,,,,,,,,,,,,,,,,
1044,0,0.0114,2.69,2.14,1.44,,0.04,-0.06,0.02,0,0,0,0.08,0.28,27,,,,0.0,0.0,0.0,0.0,0,0,0.0,0,0.0,-1,0.0,0,0.0,0.0114,0.0,0.0
1054,0,0.0116,2.72,2.16,,,0.04,-0.07,0.01,0,0,0,0.08,0.28,28,,,,,,,,,,,,,,,,,,,
1064,0,0.0117,2.72,2.15,1.45,,0.05,-0.07,0.01,0,0,0,0.08,0.28,30,,0,0,,,,,,,,,,,,,,,,
1074,0,0.0119,2.73,2.16,,,0.03,-0.06,0.01,0,-0,0,0.07,0.28,25,,,,,,,,,,,,,,,,,,,
1084,0,0.0121,2.72,2.16,1.43,,0.03,-0.07,0.01,0,-0,0,0.07,0.28,27,,,,,,,,,,,,,,,,,,,
1094,0,0.0122,2.69,2.15,,,0.04,-0.07,-0.0,0,-0,0,0.08,0.28,28,,,,,,,,,,,,,,,,,,,
1104,0,0.0124,2.71,2.16,1.46,,0.05,-0.07,-0.01,0,-0,0,0.09,0.28,31,,0,0,,,,,,,,,,,,,,,,
1114,0,0.0126,2.69,2.13,,,0.02,-0.07,-0.02,0,-0,0,0.07,0.28,26,,,,,,,,,,,,,,,,,,,
1124,0,0.0128,2.71,2.14,1.43,,0.04,-0.07,-0.02,0,0,0,0.09,0.28,30,,,,,,,,,,,,,,,,,,,
1134,0,0.0129,2.73,2.16,,,0.04,-0.07,-0.02,0,0,0,0.08,0.28,30,,,,,,,,,,,,,,,,,,,
1144,0,0.0131,2.73,2.17,1.46,,0.05,-0.07,-0.01,0,0,0,0.08,0.28,30,,0,0,0.0,0.0,0.0,0.0,0,0,0.0,0,0.0,-1,0.0,0,0.0,0.0131,0.0,0.0
1154,0,0.0132,2.73,2.16,,,0.03,-0.07,-0.0,0,0,0,0.07,0.28,26,,,,,,,,,,,,,,,,,,,
1164,0,0.0134,2.72,2.16,1.46,,0.05,-0.07,-0.01,0,0,0,0.09,0.28,32,,,,,,,,,,,,,,,,,,,
1174,0,0.0136,2.71,2.15,,,0.05,-0.07,-0.01,0,0,0,0.08,0.28,29,,,,,,,,,,,,,,,,,,,
1184,0,0.0138,2.69,2.13,1.44,,0.05,-0.07,0.0,0,0,0,0.08,0.28,30,,0,0,,,,,,,,,,,,,,,,
1194,0,0.0139,2.72,2.15,,,0.03,-0.06,-0.01,0,0,0,0.07,0.28,25,,,,,,,,,,,,,,,,,,,
1204,0,0.0141,2.7,2.13,1.42,,0.05,-0.07,-0.01,0,0,0,0.09,0.28,31,,,,,,,,,,,,,,,,,,,
1214,0,0.0142,2.72,2.16,,,0.05,-0.07,-0.03,0,0,0,0.09,0.28,33,,,,,,,,,,,,,,,,,,,
1224,0,0.0144,2.72,2.16,1.46,,0.05,-0.06,-0.02,0,0,0,0.09,0.28,31,,0,0,,,,,,,,,,,,,,,,
1234,0,0.0146,2.7,2.14,,,0.04,-0.06,-0.02,0,0,0,0.08,0.28,27,,,,,,,,,,,,,,,,,,,
1244,0,0.0148,2.72,2.16,1.45,,0.07,-0.07,-0.02,0,0,0,0.1,0.28,36,,,,0.0,0.0,0.0,0.0,0,0,0.0,0,0.0,-1,0.0,0,0.0,0.0148,0.0,0.0
1254,0,0.0149,2.73,2.16,,,0.06,-0.06,-0.02,0,0,0,0.09,0.28,31,,,,,,,,,,,,,,,,,,,
1264,0,0.0151,2.69,2.14,1.44,,0.04,-0.07,0.01,0,0,0,0.08,0.28,29,,0,0,,,,,,,,,,,,,,,,
1274,0,0.0152,2.72,2.15,,,0.04,-0.07,0.0,0,0,0,0.08,0.28,28,,,,,,,,,,,,,,,,,,,
1284,0,0.0154,2.68,2.13,1.44,,0.05,-0.07,-0.0,0,0,0,0.09,0.28,30,,,,,,,,,,,,,,,,,,,
1294,0,0.0156,2.71,2.13,,,0.06,-0.07,-0.01,0,0,0,0.09,0.28,32,,,,,,,,,,,,,,,,,,,
1304,0,0.0158,2.7,2.14,1.43,,0.06,-0.06,0.0,0,-0,0,0.09,0.28,32,,0,0,,,,,,,,,,,,,,,,
1314,0,0.0159,2.72,2.16,,,0.04,-0.06,0.01,0,-0,0,0.08,0.28,28,,,,,,,,,,,,,,,,,,,
1324,0,0.0161,2.71,2.14,1.43,,0.07,-0.06,-0.02,0,-0,0,0.1,0.28,34,,,,,,,,,,,,,,,,,,,
1334,0,0.0162,2.71,2.13,,,0.06,-0.06,-0.0,0,-0,0,0.09,0.28,30,,,,,,,,,,,,,,,,,,,
1344,0,0.0164,2.71,2.14,1.43,12.89,0.03,-0.07,0.03,0,-0,0,0.08,0.28,27,0,0,0,0.0,0.0,0.0,0.0,0,0,0.0,0,0.0,-1,0.0,0,0.0,0.0164,0.0,0.0
1354,0,0.0166,2.7,2.15,,,0.06,-0.06,0.03,0,-0,0,0.09,0.28,32,,,,,,,,,,,,,,,,,,,
1364,0,0.0168,2.69,2.15,1.44,,0.08,-0.06,-0.01,0,0,0,0.1,0.28,36,,,,,,,,,,,,,,,,,,,
1374,0,0.0169,2.69,2.15,,,0.06,-0.07,0.02,-0,0,0,0.09,0.28,33,,,,,,,,,,,,,,,,,,,
1384,0,0.0171,2.72,2.15,1.44,,0.04,-0.07,0.06,-0,0,0,0.1,0.28,36,,0,0,,,,,,,,,,,,,,,,
1394,0,0.0172,2.72,2.16,,,0.03,-0.07,0.02,-0,1,0,0.08,0.28,29,,,,,,,,,,,,,,,,,,,
1404,0,0.0174,2.71,2.16,1.45,,0.06,-0.1,-0.01,-0,1,0,0.11,0.28,40,,,,,,,,,,,,,,,,,,,
1414,0,0.0176,2.72,2.16,,,0.03,-0.09,-0.02,-0,1,0,0.09,0.28,34,,,,,,,,,,,,,,,,,,,
1424,0,0.0178,2.71,2.16,1.42,,0.03,-0.09,-0.02,-0,1,0,0.09,0.28,33,,0,0,,,,,,,,,,,,,,,,
1434,0,0.0179,2.73,2.17,,,0.03,-0.09,-0.02,-0,1,0,0.09,0.28,34,,,,,,,,,,,,,,,,,,,
1444,0,0.0181,2.72,2.13,1.42,,-0.0,-0.09,-0.02,-1,1,0,0.1,0.28,34,,,,0.0,0.0,0.0,0.0,0,0,0.0,0,0.0,-1,0.0,0,0.0,0.0181,0.0,0.0
1454,0,0.0182,2.73,2.17,,,0.05,-0.11,-0.0,-0,2,0,0.12,0.28,43,,,,,,,,,,,,,,,,,,,
1464,0,0.0184,2.7,2.15,1.44,,0.03,-0.08,-0.02,-0,1,0,0.09,0.28,31,,0,0,,,,,,,,,,,,,,,,
1474,0,0.0186,2.7,2.13,,,-0.0,-0.09,-0.04,-0,1,0,0.1,0.28,37,,,,,,,,,,,,,,,,,,,
1484,0,0.0188,2.74,2.17,1.45,,0.01,-0.09,-0.04,-0,1,0,0.1,0.28,36,,,,,,,,,,,,,,,,,,,
1494,0,0.0189,2.74,2.14,,,0.02,-0.08,-0.06,-0,1,0,0.1,0.28,37,,,,,,,,,,,,,,,,,,,
1504,0,0.0191,2.74,2.18,1.46,,-0.01,-0.11,-0.08,-0,2,0,0.13,0.28,47,,0,0,,,,,,,,,,,,,,,,
1514,0,0.0192,2.74,2.18,,,0.03,-0.1,-0.07,-0,2,0,0.12,0.28,43,,,,,,,,,,,,,,,,,,,
1524,0,0.0194,2.7,2.14,1.43,,0.01,-0.09,-0.05,-0,2,0,0.11,0.28,39,,,,,,,,,,,,,,,,,,,
1534,0,0.0196,2.72,2.14,,,0.0,-0.1,-0.1,0,2,0,0.14,0.28,52,,,,,,,,,,,,,,,,,,,
1544,0,0.0198,2.7,2.13,1.42,,0.01,-0.07,-0.15,0,2,0,0.17,0.28,59,,0,0,0.0,0.0,0.0,0.0,0,0,0.0,0,0.0,-1,0.0,0,0.0,0.0198,0.0,0.0
1554,0,0.0199,2.7,2.15,,,0.03,-0.1,-0.09,0,2,0,0.13,0.28,47,,,,,,,,,,,,,,,,,,,
1564,0,0.0201,2.71,2.15,1.42,,0.03,-0.1,-0.07,0,2,0,0.13,0.28,45,,,,,,,,,,,,,,,,,,,
1574,0,0.0202,2.7,2.16,,,0.04,-0.07,-0.09,0,2,0,0.12,0.28,42,,,,,,,,,,,,,,,,,,,
1584,0,0.0204,2.72,2.15,1.42,,0.03,-0.08,-0.1,0,2,0,0.13,0.28,45,,0,0,,,,,,,,,,,,,,,,
1594,0,0.0206,2.74,2.18,,,0.01,-0.04,-0.1,0,2,0,0.1,0.28,36,,,,,,,,,,,,,,,,,,,
1604,0,0.0207,2.74,2.18,1.45,,0.01,-0.07,-0.1,0,3,0,0.13,0.28,46,,,,,,,,,,,,,,,,,,,
1614,0,0.0209,2.71,2.15,,,0.02,-0.08,-0.11,0,3,-0,0.14,0.28,49,,,,,,,,,,,,,,,,,,,
1624,0,0.0211,2.73,2.16,1.45,,-0.01,-0.07,-0.1,0,4,-0,0.12,0.28,44,,0,0,,,,,,,,,,,,,,,,
1634,0,0.0212,2.76,2.19,,,-0.01,-0.09,-0.09,0,4,-0,0.12,0.28,45,,,,,,,,,,,,,,,,,,,
1644,0,0.0214,2.74,2.16,1.42,,0.01,-0.07,-0.08,0,4,-0,0.11,0.28,38,,,,0.0,0.0,0.0,0.0,0,0,0.0,0,0.0,-1,0.0,0,0.0,0.0214,0.0,0.0
1654,0,0.0216,2.76,2.18,,,-0.03,-0.08,-0.05,1,4,-0,0.09,0.28,33,,,,,,,,,,,,,,,,,,,
1664,0,0.0218,2.76,2.19,1.44,,-0.01,-0.07,-0.09,1,5,-0,0.12,0.28,42,,0,0,,,,,,,,,,,,,,,,
1674,0,0.0219,2.73,2.18,,,-0.07,-0.07,-0.06,1,5,-0,0.12,0.28,42,,,,,,,,,,,,,,,,,,,
1684,0,0.0221,2.79,2.22,1.45,,-0.11,-0.09,-0.06,1,6,-0,0.15,0.28,55,,,,,,,,,,,,,,,,,,,
1694,0,0.0222,2.76,2.21,,,-0.1,-0.15,-0.09,1,6,-0,0.2,0.28,72,,,,,,,,,,,,,,,,,,,
1704,0,0.0224,2.78,2.23,1.46,,-0.09,-0.11,-0.09,1,7,-0,0.16,0.28,58,,0,0,,,,,,,,,,,,,,,,
1714,0,0.0226,2.79,2.24,,,-0.11,-0.15,-0.08,2,8,0,0.2,0.28,73,,,,,,,,,,,,,,,,,,,
1724,0,0.0228,2.76,2.22,1.43,,-0.11,-0.16,-0.06,2,8,0,0.2,0.28,73,,,,,,,,,,,,,,,,,,,
1734,0,0.0229,2.8,2.26,,,-0.11,-0.1,-0.01,2,7,1,0.15,0.28,53,,,,,,,,,,,,,,,,,,,
1744,0,0.0231,2.78,2.23,1.42,,-0.12,-0.12,-0.02,2,8,1,0.18,0.28,63,,0,0,0.0,0.0,0.0,0.0,0,0,0.0,0,0.0,-1,0.0,0,0.0,0.0231,0.0,0.0
1754,0,0.0232,2.79,2.27,,,-0.1,-0.09,-0.05,3,8,1,0.14,0.28,50,,,,,,,,,,,,,,,,,,,
1764,0,0.0234,2.8,2.28,1.46,,-0.14,-0.09,-0.01,3,7,1,0.16,0.28,59,,,,,,,,,,,,,,,,,,,
1774,0,0.0236,2.79,2.26,,,-0.18,-0.06,-0.04,3,8,0,0.19,0.28,68,,,,,,,,,,,,,,,,,,,
1784,0,0.0238,2.81,2.28,1.45,,-0.19,-0.05,-0.15,3,8,0,0.25,0.28,89,,0,0,,,,,,,,,,,,,,,,
1794,0,0.0239,2.78,2.25,,,-0.15,-0.06,-0.18,3,8,0,0.24,0.28,86,,,,,,,,,,,,,,,,,,,
1804,0,0.0241,2.8,2.27,1.44,,-0.21,-0.06,-0.16,4,8,-0,0.27,0.28,98,,,,,,,,,,,,,,,,,,,
1814,0,0.0242,2.82,2.3,,,-0.26,-0.08,-0.18,4,8,-0,0.33,0.33,100,,,,,,,,,,,,,,,,,,,
1824,0,0.0244,2.78,2.26,1.44,,-0.27,-0.1,-0.16,4,8,-0,0.33,0.33,100,,0,0,,,,,,,,,,,,,,,,
1834,0,0.0246,2.81,2.28,,,-0.24,-0.1,-0.11,4,8,-1,0.28,0.33,86,,,,,,,,,,,,,,,,,,,
1844,0,0.0248,2.8,2.26,1.43,,-0.28,-0.13,-0.12,5,8,-0,0.33,0.33,100,,,,0.0,0.0,0.0,0.0,0,0,0.0,0,0.0,-1,0.0,0,0.0,0.0248,0.0,0.0
1854,0,0.0249,2.81,2.29,,,-0.29,-0.13,-0.12,5,8,-0,0.33,0.33,100,,,,,,,,,,,,,,,,,,,
1864,0,0.0251,2.81,2.28,1.44,,-0.27,-0.14,-0.05,5,8,-0,0.3,0.33,91,,0,0,,,,,,,,,,,,,,,,
1874,0,0.0253,2.79,2.28,,,-0.25,-0.13,-0.02,6,8,0,0.28,0.33,84,,,,,,,,,,,,,,,,,,,
1884,0,0.0254,2.81,2.28,1.45,,-0.25,-0.14,-0.06,6,8,0,0.29,0.33,86,,,,,,,,,,,,,,,,,,,
1894,0,0.0256,2.8,2.29,,,-0.29,-0.13,-0.02,6,7,0,0.32,0.33,94,,,,,,,,,,,,,,,,,,,
1904,0,0.0258,2.81,2.26,1.44,,-0.26,-0.1,0.02,7,7,1,0.28,0.33,83,,0,0,,,,,,,,,,,,,,,,
1914,0,0.0259,2.82,2.29,,,-0.25,-0.09,-0.02,7,6,1,0.27,0.33,79,,,,,,,,,,,,,,,,,,,
1924,0,0.0261,2.79,2.28,1.46,,-0.23,-0.07,-0.08,7,6,0,0.26,0.33,76,,,,,,,,,,,,,,,,,,,
1934,0,0.0262,2.8,2.26,,,-0.25,-0.07,0.02,7,5,0,0.26,0.33,78,,,,,,,,,,,,,,,,,,,
1944,0,0.0264,2.81,2.28,1.46,,-0.24,-0.03,0.03,7,5,-0,0.24,0.33,72,,0,0,0.0,0.0,0.0,0.0,0,0,0.0,0,0.0,-1,0.0,0,0.0,0.0264,0.0,0.0
1954,0,0.0266,2.8,2.27,,,-0.23,-0.06,-0.01,8,4,-1,0.24,0.33,72,,,,,,,,,,,,,,,,,,,
1964,0,0.0268,2.8,2.26,1.45,,-0.23,-0.02,-0.04,8,4,-1,0.23,0.33,69,,,,,,,,,,,,,,,,,,,
1974,0,0.0269,2.8,2.25,,,-0.24,-0.05,-0.05,8,4,-2,0.25,0.33,74,,,,,,,,,,,,,,,,,,,
1984,0,0.0271,2.81,2.25,1.45,,-0.26,-0.04,-0.05,8,3,-2,0.27,0.33,81,,0,0,,,,,,,,,,,,,,,,
1994,0,0.0272,2.79,2.22,,,-0.26,-0.07,-0.12,8,3,-2,0.29,0.33,88,,,,,,,,,,,,,,,,,,,
2004,0,0.0274,2.78,2.21,1.42,,-0.23,-0.05,-0.16,8,3,-2,0.28,0.33,84,,,,,,,,,,,,,,,,,,,
2014,0,0.0276,2.78,2.2,,,-0.24,-0.06,-0.11,8,2,-2,0.27,0.33,80,,,,,,,,,,,,,,,,,,,
2024,0,0.0278,2.77,2.22,1.43,,-0.25,-0.03,-0.1,9,2,-2,0.27,0.33,79,,0,0,,,,,,,,,,,,,,,,
2034,0,0.0279,2.8,2.2,,,-0.25,-0.06,-0.15,9,2,-2,0.3,0.33,89,,,,,,,,,,,,,,,,,,,
2044,0,0.0281,2.8,2.21,1.44,,-0.22,-0.03,-0.16,9,1,-2,0.28,0.33,84,,,,0.0,0.0,0.0,0.0,0,0,0.0,0,0.0,-1,0.0,0,0.0,0.0281,0.0,0.0
2054,0,0.0282,2.76,2.2,,,-0.23,-0.06,-0.12,9,1,-2,0.27,0.33,79,,,,,,,,,,,,,,,,,,,
2064,0,0.0284,2.77,2.21,1.44,,-0.24,-0.0,-0.11,9,1,-2,0.26,0.33,78,,0,0,,,,,,,,,,,,,,,,
2074,0,0.0286,2.78,2.23,,,-0.23,-0.0,-0.17,9,1,-2,0.29,0.33,86,,,,,,,,,,,,,,,,,,,
2084,0,0.0288,2.76,2.21,1.44,,-0.22,0.06,-0.21,9,1,-2,0.3,0.33,91,,,,,,,,,,,,,,,,,,,
2094,0,0.0289,2.78,2.21,,,-0.22,0.03,-0.16,9,1,-2,0.27,0.33,82,,,,,,,,,,,,,,,,,,,
2104,0,0.0291,2.79,2.24,1.45,,-0.23,0.09,-0.11,9,1,-2,0.27,0.33,80,,0,0,,,,,,,,,,,,,,,,
2114,0,0.0292,2.76,2.23,,,-0.19,0.01,-0.12,9,2,-2,0.23,0.33,69,,,,,,,,,,,,,,,,,,,
2124,0,0.0294,2.77,2.22,1.44,,-0.2,0.02,-0.16,9,2,-2,0.25,0.33,76,,,,,,,,,,,,,,,,,,,
2134,0,0.0296,2.75,2.2,,,-0.23,-0.0,-0.09,9,2,-2,0.25,0.33,73,,,,,,,,,,,,,,,,,,,
2144,0,0.0298,2.77,2.2,1.41,,-0.23,0.04,-0.07,9,2,-2,0.25,0.33,73,,0,0,0.0,0.0,0.0,0.0,0,0,0.0,0,0.0,-1,0.0,0,0.0,0.0298,0.0,0.0
2154,0,0.0299,2.8,2.24,,,-0.21,-0.01,-0.09,9,3,-1,0.23,0.33,70,,,,,,,,,,,,,,,,,,,
2164,0,0.0301,2.79,2.24,1.41,,-0.22,-0.03,-0.12,8,3,-1,0.26,0.33,77,,,,,,,,,,,,,,,,,,,
2174,0,0.0302,2.8,2.24,,,-0.23,-0.07,-0.12,8,3,-1,0.27,0.33,79,,,,,,,,,,,,,,,,,,,
2184,0,0.0304,2.76,2.21,1.42,,-0.27,-0.09,-0.13,8,4,-1,0.31,0.33,94,,0,0,,,,,,,,,,,,,,,,
2194,0,0.0306,2.8,2.23,,,-0.23,-0.11,-0.14,8,4,-0,0.29,0.33,87,,,,,,,,,,,,,,,,,,,
2204,0,0.0308,2.79,2.22,1.43,,-0.28,-0.13,-0.17,8,4,0,0.35,0.35,100,,,,,,,,,,,,,,,,,,,
2214,0,0.0309,2.8,2.25,,,-0.31,-0.12,-0.17,8,4,0,0.37,0.37,100,,,,,,,,,,,,,,,,,,,
2224,0,0.0311,2.8,2.24,1.44,,-0.34,-0.12,-0.19,7,3,1,0.4,0.4,100,,0,0,,,,,,,,,,,,,,,,
2234,0,0.0312,2.78,2.22,,,-0.29,-0.09,-0.18,7,3,1,0.35,0.4,87,,,,,,,,,,,,,,,,,,,
2244,0,0.0314,2.79,2.24,1.45,,-0.31,-0.1,-0.17,7,2,1,0.36,0.4,90,,,,0.0,0.0,0.0,0.0,0,0,0.0,0,0.0,-1,0.0,0,0.0,0.0314,0.0,0.0
2254,0,0.0316,2.78,2.24,,,-0.32,-0.05,-0.18,7,2,1,0.37,0.4,93,,,,,,,,,,,,,,,,,,,
2264,0,0.0318,2.79,2.24,1.45,,-0.34,-0.06,-0.2,7,1,1,0.4,0.4,99,,0,0,,,,,,,,,,,,,,,,
2274,0,0.0319,2.76,2.21,,,-0.31,-0.0,-0.2,7,1,1,0.37,0.4,92,,,,,,,,,,,,,,,,,,,
2284,0,0.0321,2.78,2.23,1.44,,-0.31,0.0,-0.14,6,1,1,0.34,0.4,85,,,,,,,,,,,,,,,,,,,
2294,0,0.0322,2.76,2.21,,,-0.32,0.04,-0.12,6,1,1,0.34,0.4,85,,,,,,,,,,,,,,,,,,,
2304,0,0.0324,2.75,2.23,1.43,,-0.3,0.01,-0.13,6,1,1,0.33,0.4,81,,0,0,,,,,,,,,,,,,,,,
2314,0,0.0326,2.75,2.2,,,-0.31,0.02,-0.17,5,1,1,0.35,0.4,88,,,,,,,,,,,,,,,,,,,
2324,0,0.0328,2.76,2.22,1.43,,-0.32,-0.03,-0.12,5,1,1,0.34,0.4,85,,,,,,,,,,,,,,,,,,,
2334,0,0.0329,2.81,2.25,,,-0.36,-0.04,-0.12,5,2,1,0.38,0.4,94,,,,,,,,,,,,,,,,,,,
2344,0,0.0331,2.8,2.25,1.46,12.78,-0.29,-0.08,-0.16,4,2,1,0.34,0.4,85,0,0,0,0.0,0.0,0.0,0.0,0,0,0.0,0,0.0,-1,0.0,0,0.0,0.0331,0.0,0.0
2354,0,0.0332,2.81,2.25,,,-0.33,-0.08,-0.2,4,1,1,0.39,0.4,98,,,,,,,,,,,,,,,,,,,
2364,0,0.0334,2.8,2.26,1.44,,-0.33,-0.08,-0.2,4,1,1,0.4,0.4,98,,,,,,,,,,,,,,,,,,,
2374,0,0.0336,2.78,2.22,,,-0.39,-0.07,-0.17,4,1,1,0.43,0.43,100,,,,,,,,,,,,,,,,,,,
2384,0,0.0338,2.8,2.26,1.45,,-0.34,-0.06,-0.18,3,0,1,0.39,0.43,91,,0,0,,,,,,,,,,,,,,,,
2394,0,0.0339,2.77,2.22,,,-0.34,-0.07,-0.13,3,-0,1,0.38,0.43,87,,,,,,,,,,,,,,,,,,,
2404,0,0.0341,2.8,2.27,1.46,,-0.35,-0.05,-0.1,3,-1,1,0.37,0.43,85,,,,,,,,,,,,,,,,,,,
2414,0,0.0342,2.79,2.26,,,-0.32,-0.07,-0.09,2,-1,1,0.34,0.43,79,,,,,,,,,,,,,,,,,,,
2424,0,0.0344,2.77,2.24,1.43,,-0.34,-0.03,-0.1,2,-1,1,0.36,0.43,83,,0,0,,,,,,,,,,,,,,,,
2434,0,0.0346,2.74,2.25,,,-0.32,-0.08,-0.08,2,-1,1,0.34,0.43,79,,,,,,,,,,,,,,,,,,,
2444,0,0.0348,2.74,2.24,1.44,,-0.37,-0.04,-0.09,1,-1,1,0.38,0.43,88,,,,0.0,0.0,0.0,0.0,0,0,0.0,0,0.0,-1,0.0,0,0.0,0.0348,0.0,0.0
2454,0,0.0349,2.75,2.24,,,-0.28,-0.07,-0.12,1,-1,1,0.31,0.43,72,,,,,,,,,,,,,,,,,,,
2464,0,0.0351,2.78,2.25,1.45,,-0.31,-0.06,-0.11,1,-1,1,0.33,0.43,78,,0,0,,,,,,,,,,,,,,,,
2474,0,0.0352,2.78,2.25,,,-0.28,-0.07,-0.1,1,-2,0,0.31,0.43,71,,,,,,,,,,,,,,,,,,,
2484,0,0.0354,2.77,2.24,1.45,,-0.27,-0.08,-0.07,1,-2,0,0.29,0.43,67,,,,,,,,,,,,,,,,,,,
2494,0,0.0356,2.77,2.24,,,-0.26,-0.07,-0.11,0,-2,0,0.29,0.43,68,,,,,,,,,,,,,,,,,,,
2504,0,0.0358,2.77,2.24,1.46,,-0.25,-0.11,-0.07,0,-2,0,0.28,0.43,66,,0,0,,,,,,,,,,,,,,,,
2514,0,0.0359,2.74,2.24,,,-0.3,-0.1,-0.04,-0,-1,0,0.32,0.43,74,,,,,,,,,,,,,,,,,,,
2524,0,0.0361,2.74,2.2,1.42,,-0.22,-0.1,-0.09,-0,-1,0,0.26,0.43,60,,,,,,,,,,,,,,,,,,,
2534,0,0.0362,2.74,2.22,,,-0.28,-0.1,-0.1,-0,-1,0,0.32,0.43,74,,,,,,,,,,,,,,,,,,,
2544,0,0.0364,2.77,2.24,1.46,,-0.26,-0.08,-0.09,-0,-1,0,0.29,0.43,68,,0,0,0.0,0.0,0.0,0.0,0,0,0.0,0,0.0,-1,0.0,0,0.0,0.0364,0.0,0.0
2554,0,0.0366,2.73,2.22,,,-0.28,-0.09,-0.04,-1,-1,0,0.3,0.43,69,,,,,,,,,,,,,,,,,,,
2564,0,0.0368,2.76,2.23,1.43,,-0.28,-0.07,-0.04,-1,-1,0,0.29,0.43,67,,,,,,,,,,,,,,,,,,,
2574,0,0.0369,2.78,2.2,,,-0.27,-0.09,-0.03,-1,-1,0,0.29,0.43,68,,,,,,,,,,,,,,,,,,,
2584,0,0.0371,2.78,2.24,1.46,,-0.34,-0.07,-0.06,-1,-1,0,0.35,0.43,81,,0,0,,,,,,,,,,,,,,,,
2594,0,0.0372,2.79,2.24,,,-0.24,-0.08,-0.11,-1,-0,0,0.28,0.43,64,,,,,,,,,,,,,,,,,,,
2604,0,0.0374,2.77,2.23,1.44,,-0.28,-0.05,-0.12,-1,-0,0,0.31,0.43,73,,,,,,,,,,,,,,,,,,,
2614,0,0.0376,2.77,2.22,,,-0.24,-0.04,-0.14,-2,-1,0,0.28,0.43,66,,,,,,,,,,,,,,,,,,,
2624,0,0.0377,2.75,2.21,1.43,,-0.28,-0.05,-0.12,-2,-1,0,0.31,0.43,73,,0,0,,,,,,,,,,,,,,,,
2634,0,0.0379,2.78,2.25,,,-0.25,-0.05,-0.12,-2,-1,0,0.28,0.43,66,,,,,,,,,,,,,,,,,,,
2644,0,0.0381,2.78,2.24,1.45,,-0.24,-0.08,-0.1,-2,-1,0,0.28,0.43,65,,,,0.0,0.0,0.0,0.0,0,0,0.0,0,0.0,-1,0.0,0,0.0,0.0381,0.0,0.0
2654,0,0.0382,2.78,2.24,,,-0.3,-0.07,-0.1,-2,-0,1,0.33,0.43,77,,,,,,,,,,,,,,,,,,,
2664,0,0.0384,2.74,2.21,1.43,,-0.24,-0.08,-0.13,-2,-0,1,0.28,0.43,65,,0,0,,,,,,,,,,,,,,,,
2674,0,0.0386,2.78,2.24,,,-0.29,-0.07,-0.16,-2,-1,1,0.34,0.43,80,,,,,,,,,,,,,,,,,,,
2684,0,0.0388,2.79,2.24,1.45,,-0.26,-0.08,-0.16,-3,-1,0,0.32,0.43,74,,,,,,,,,,,,,,,,,,,
2694,0,0.0389,2.77,2.22,,,-0.3,-0.06,-0.12,-3,-1,1,0.33,0.43,77,,,,,,,,,,,,,,,,,,,
2704,0,0.0391,2.76,2.21,1.42,,-0.25,-0.03,-0.12,-3,-1,1,0.28,0.43,66,,0,0,,,,,,,,,,,,,,,,
2714,0,0.0392,2.77,2.2,,,-0.27,-0.05,-0.07,-3,-1,1,0.28,0.43,66,,,,,,,,,,,,,,,,,,,
2724,0,0.0394,2.76,2.2,1.41,,-0.31,-0.02,-0.08,-3,-1,1,0.32,0.43,75,,,,,,,,,,,,,,,,,,,
2734,0,0.0396,2.78,2.24,,,-0.23,-0.07,-0.11,-3,-1,0,0.26,0.43,62,,,,,,,,,,,,,,,,,,,
2744,0,0.0398,2.78,2.24,1.45,,-0.28,-0.05,-0.13,-3,-1,1,0.32,0.43,74,,0,0,0.0,0.0,0.0,0.0,0,0,0.0,0,0.0,-1,0.0,0,0.0,0.0398,0.0,0.0
2754,0,0.0399,2.78,2.25,,,-0.26,-0.06,-0.13,-3,-1,0,0.3,0.43,70,,,,,,,,,,,,,,,,,,,
2764,0,0.0401,2.75,2.21,1.41,,-0.32,-0.02,-0.13,-3,-1,1,0.34,0.43,80,,,,,,,,,,,,,,,,,,,
2774,0,0.0402,2.79,2.26,,,-0.25,-0.01,-0.17,-3,-1,1,0.31,0.43,71,,,,,,,,,,,,,,,,,,,
2784,0,0.0404,2.78,2.24,1.45,,-0.26,0.0,-0.12,-3,-1,1,0.29,0.43,66,,0,0,,,,,,,,,,,,,,,,
2794,0,0.0406,2.76,2.22,,,-0.3,0.0,-0.11,-3,-1,1,0.32,0.43,74,,,,,,,,,,,,,,,,,,,
2804,0,0.0408,2.77,2.22,1.42,,-0.23,-0.01,-0.16,-3,-1,0,0.28,0.43,65,,,,,,,,,,,,,,,,,,,
2814,0,0.0409,2.78,2.24,,,-0.27,-0.02,-0.19,-4,-1,0,0.33,0.43,77,,,,,,,,,,,,,,,,,,,
2824,0,0.0411,2.77,2.23,1.43,,-0.23,-0.02,-0.18,-4,-1,0,0.29,0.43,68,,0,0,,,,,,,,,,,,,,,,
2834,0,0.0413,2.79,2.25,,,-0.32,0.0,-0.19,-4,-0,-0,0.37,0.43,86,,,,,,,,,,,,,,,,,,,
2844,0,0.0414,2.79,2.24,1.46,,-0.25,-0.01,-0.2,-4,-0,-0,0.32,0.43,75,,,,0.0,0.0,0.0,0.0,0,0,0.0,0,0.0,-1,0.0,0,0.0,0.0414,0.0,0.0
2854,0,0.0416,2.75,2.21,,,-0.26,-0.01,-0.14,-4,-0,-0,0.3,0.43,70,,,,,,,,,,,,,,,,,,,
2864,0,0.0418,2.77,2.23,1.46,,-0.27,-0.03,-0.12,-4,-1,-0,0.29,0.43,69,,0,0,,,,,,,,,,,,,,,,
2874,0,0.0419,2.76,2.19,,,-0.25,-0.05,-0.11,-4,-0,-0,0.28,0.43,66,,,,,,,,,,,,,,,,,,,
2884,0,0.0421,2.75,2.18,1.42,,-0.28,-0.04,-0.14,-4,-0,-0,0.32,0.43,75,,,,,,,,,,,,,,,,,,,
2894,0,0.0422,2.78,2.21,,,-0.24,-0.04,-0.19,-4,0,-0,0.31,0.43,72,,,,,,,,,,,,,,,,,,,
2904,0,0.0424,2.78,2.22,1.45,,-0.3,-0.01,-0.21,-4,1,-0,0.37,0.43,86,,0,0,,,,,,,,,,,,,,,,
2914,0,0.0426,2.78,2.18,,,-0.24,-0.0,-0.23,-4,1,-0,0.33,0.43,76,,,,,,,,,,,,,,,,,,,
2924,0,0.0428,2.77,2.19,1.43,,-0.26,-0.02,-0.19,-4,0,-0,0.32,0.43,75,,,,,,,,,,,,,,,,,,,
2934,0,0.0429,2.78,2.21,,,-0.24,-0.03,-0.17,-4,-0,-0,0.3,0.43,69,,,,,,,,,,,,,,,,,,,
2944,0,0.0431,2.78,2.22,1.45,,-0.25,-0.05,-0.16,-4,-0,0,0.3,0.43,70,,0,0,0.0,0.0,0.0,0.0,0,0,0.0,0,0.0,-1,0.0,0,0.0,0.0431,0.0,0.0
2954,0,0.0432,2.79,2.22,,,-0.28,-0.02,-0.19,-4,0,-0,0.34,0.43,79,,,,,,,,,,,,,,,,,,,
2964,0,0.0434,2.76,2.19,1.41,,-0.28,-0.06,-0.13,-4,0,-0,0.32,0.43,74,,,,,,,,,,,,,,,,,,,
2974,0,0.0436,2.75,2.21,,,-0.33,-0.06,-0.12,-4,1,-0,0.35,0.43,83,,,,,,,,,,,,,,,,,,,
2984,0,0.0438,2.75,2.22,1.44,,-0.27,-0.08,-0.16,-4,1,-0,0.32,0.43,75,,0,0,,,,,,,,,,,,,,,,
2994,0,0.0439,2.8,2.22,,,-0.32,-0.09,-0.18,-4,0,0,0.38,0.43,89,,,,,,,,,,,,,,,,,,,
3004,0,0.0441,2.77,2.18,1.41,,-0.29,-0.07,-0.2,-4,0,0,0.36,0.43,85,,,,,,,,,,,,,,,,,,,
3014,0,0.0442,2.8,2.23,,,-0.34,-0.06,-0.17,-4,-0,0,0.38,0.43,88,,,,,,,,,,,,,,,,,,,
3024,0,0.0444,2.8,2.22,1.45,,-0.31,-0.04,-0.15,-4,-1,0,0.35,0.43,81,,0,0,,,,,,,,,,,,,,,,
3034,0,0.0446,2.8,2.22,,,-0.32,-0.05,-0.09,-4,-1,0,0.33,0.43,77,,,,,,,,,,,,,,,,,,,
3044,0,0.0448,2.78,2.21,1.45,,-0.32,-0.06,-0.04,-4,-1,0,0.32,0.43,76,,,,0.0,0.0,0.0,0.0,0,0,0.0,0,0.0,-1,0.0,0,0.0,0.0448,0.0,0.0
3054,0,0.0449,2.76,2.17,,,-0.27,-0.09,-0.03,-4,-1,1,0.29,0.43,67,,,,,,,,,,,,,,,,,,,
3064,0,0.0451,2.75,2.15,1.44,,-0.31,-0.07,-0.07,-4,-1,0,0.32,0.43,75,,0,0,,,,,,,,,,,,,,,,
3074,0,0.0452,2.79,2.19,,,-0.26,-0.08,-0.11,-4,-1,0,0.29,0.43,68,,,,,,,,,,,,,,,,,,,
3084,0,0.0454,2.77,2.19,1.45,,-0.32,-0.06,-0.12,-4,-0,0,0.34,0.43,80,,,,,,,,,,,,,,,,,,,
3094,0,0.0456,2.78,2.2,,,-0.25,-0.06,-0.1,-4,-0,0,0.27,0.43,64,,,,,,,,,,,,,,,,,,,
3104,0,0.0458,2.8,2.2,1.46,,-0.3,-0.05,-0.05,-4,-0,0,0.31,0.43,72,,0,0,,,,,,,,,,,,,,,,
3114,0,0.0459,2.78,2.17,,,-0.25,-0.06,-0.07,-4,-1,0,0.27,0.43,63,,,,,,,,,,,,,,,,,,,
3124,0,0.0461,2.79,2.2,1.46,,-0.26,-0.08,-0.07,-4,-1,1,0.28,0.43,66,,,,,,,,,,,,,,,,,,,
3134,0,0.0462,2.78,2.18,,,-0.28,-0.06,-0.09,-4,-1,1,0.3,0.43,70,,,,,,,,,,,,,,,,,,,
3144,0,0.0464,2.78,2.2,1.46,,-0.26,-0.12,-0.05,-4,-1,1,0.29,0.43,68,,0,0,0.0,0.0,0.0,0.0,0,0,0.0,0,0.0,-1,0.0,0,0.0,0.0464,0.0,0.0
3154,0,0.0466,2.8,2.22,,,-0.33,-0.1,-0.05,-3,-1,1,0.34,0.43,80,,,,,,,,,,,,,,,,,,,
3164,0,0.0468,2.76,2.2,1.44,,-0.25,-0.11,-0.08,-3,-0,1,0.28,0.43,66,,,,,,,,,,,,,,,,,,,
3174,0,0.0469,2.8,2.23,,,-0.31,-0.08,-0.12,-3,-0,1,0.34,0.43,79,,,,,,,,,,,,,,,,,,,
3184,0,0.0471,2.77,2.22,1.43,,-0.28,-0.08,-0.12,-3,-0,1,0.31,0.43,73,,0,0,,,,,,,,,,,,,,,,
3194,0,0.0472,2.76,2.22,,,-0.33,-0.02,-0.1,-3,-1,1,0.35,0.43,81,,,,,,,,,,,,,,,,,,,
3204,0,0.0474,2.8,2.24,1.45,,-0.3,-0.02,-0.1,-3,-1,1,0.31,0.43,73,,,,,,,,,,,,,,,,,,,
3214,0,0.0476,2.79,2.22,,,-0.32,-0.04,-0.03,-3,-1,1,0.32,0.43,75,,,,,,,,,,,,,,,,,,,
3224,0,0.0478,2.81,2.23,1.45,,-0.31,-0.01,-0.02,-3,-2,1,0.31,0.43,73,,0,0,,,,,,,,,,,,,,,,
3234,0,0.0479,2.8,2.21,,,-0.29,-0.05,-0.03,-3,-2,1,0.3,0.43,69,,,,,,,,,,,,,,,,,,,
3244,0,0.0481,2.77,2.19,1.43,,-0.3,-0.04,-0.06,-3,-2,1,0.31,0.43,72,,,,0.0,0.0,0.0,0.0,0,0,0.0,0,0.0,-1,0.0,0,0.0,0.0481,0.0,0.0
3254,0,0.0482,2.79,2.21,,,-0.29,-0.1,-0.04,-3,-2,1,0.31,0.43,73,,,,,,,,,,,,,,,,,,,
3264,0,0.0484,2.79,2.21,1.45,,-0.32,-0.06,-0.04,-3,-1,1,0.33,0.43,76,,0,0,,,,,,,,,,,,,,,,
3274,0,0.0486,2.75,2.17,,,-0.24,-0.08,-0.08,-3,-1,1,0.27,0.43,62,,,,,,,,,,,,,,,,,,,
3284,0,0.0487,2.74,2.16,1.41,,-0.29,-0.06,-0.07,-3,-1,1,0.3,0.43,71,,,,,,,,,,,,,,,,,,,
3294,0,0.0489,2.78,2.21,,,-0.28,-0.07,-0.09,-3,-1,1,0.31,0.43,71,,,,,,,,,,,,,,,,,,,
3304,0,0.0491,2.77,2.19,1.45,,-0.32,-0.08,-0.09,-3,-1,1,0.34,0.43,79,,0,0,,,,,,,,,,,,,,,,
3314,0,0.0492,2.76,2.21,,,-0.28,-0.09,-0.1,-3,-2,1,0.31,0.43,71,,,,,,,,,,,,,,,,,,,
3324,0,0.0494,2.79,2.21,1.44,,-0.28,-0.09,-0.01,-3,-2,1,0.3,0.43,69,,,,,,,,,,,,,,,,,,,
3334,0,0.0496,2.78,2.19,,,-0.28,-0.09,0.01,-3,-2,1,0.3,0.43,69,,,,,,,,,,,,,,,,,,,
3344,0,0.0498,2.77,2.19,1.42,12.8,-0.26,-0.12,0.02,-2,-2,2,0.29,0.43,67,0,0,0,0.0,0.0,0.0,0.0,0,0,0.0,0,0.0,-1,0.0,0,0.0,0.0498,0.0,0.0
3354,0,0.0499,2.75,2.18,,,-0.27,-0.1,0.01,-2,-3,2,0.29,0.43,67,,,,,,,,,,,,,,,,,,,
3364,0,0.0501,2.79,2.18,1.44,,-0.24,-0.12,0.03,-2,-2,2,0.27,0.43,63,,,,,,,,,,,,,,,,,,,
3374,0,0.0502,2.75,2.14,,,-0.26,-0.16,0.05,-2,-2,2,0.31,0.43,73,,,,,,,,,,,,,,,,,,,
3384,0,0.0504,2.78,2.1,1.45,,-0.17,-0.17,0.05,-2,-1,3,0.25,0.43,58,,0,0,,,,,,,,,,,,,,,,
3394,0,0.0506,2.74,2.02,,,-0.17,-0.15,0.04,-2,-1,3,0.23,0.43,53,,,,,,,,,,,,,,,,,,,
3404,0,0.0508,2.71,2.03,1.45,,-0.1,-0.19,0.05,-2,-0,4,0.22,0.43,51,,,,,,,,,,,,,,,,,,,
3414,0,0.0509,2.6,1.99,,,-0.11,-0.18,0.02,-2,0,5,0.21,0.43,49,,,,,,,,,,,,,,,,,,,
3424,0,0.0511,2.52,1.96,1.41,,0.0,-0.15,-0.01,-2,1,5,0.15,0.43,34,,0,0,,,,,,,,,,,,,,,,
3434,0,0.0512,2.49,2.03,,,0.01,-0.14,0.06,-2,2,6,0.16,0.43,36,,,,,,,,,,,,,,,,,,,
3444,0,0.0514,2.43,2.04,1.42,,0.03,-0.02,0.09,-2,2,5,0.1,0.43,23,,,,0.0,0.0,0.0,0.0,0,0,0.0,0,0.0,-1,0.0,0,0.0,0.0514,0.0,0.0
3454,0,0.0516,2.39,2.13,,,0.01,0.11,0.11,-2,4,5,0.16,0.43,36,,,,,,,,,,,,,,,,,,,
3464,0,0.0518,2.44,2.21,1.45,,0.02,0.22,0.1,-2,5,3,0.24,0.43,57,,0,0,,,,,,,,,,,,,,,,
3474,0,0.0519,2.44,2.2,,,-0.0,0.29,0.13,-2,7,2,0.32,0.43,75,,,,,,,,,,,,,,,,,,,
3484,0,0.0521,2.59,2.28,1.42,,-0.04,0.3,0.11,-2,8,-0,0.32,0.43,74,,,,,,,,,,,,,,,,,,,
3494,0,0.0522,2.68,2.35,,,-0.03,0.2,0.1,-2,9,-2,0.23,0.43,53,,,,,,,,,,,,,,,,,,,
3504,0,0.0524,2.8,2.4,1.45,,-0.14,0.21,0.07,-2,10,-4,0.26,0.43,61,,0,0,,,,,,,,,,,,,,,,
3514,0,0.0526,2.88,2.39,,,-0.23,0.12,0.07,-2,10,-6,0.26,0.43,61,,,,,,,,,,,,,,,,,,,
3524,0,0.0528,2.92,2.43,1.43,,-0.34,-0.01,-0.08,-1,11,-6,0.34,0.43,80,,,,,,,,,,,,,,,,,,,
3534,0,0.0529,2.92,2.43,,,-0.37,-0.1,-0.11,-1,10,-6,0.4,0.43,92,,,,,,,,,,,,,,,,,,,
3544,0,0.0531,2.88,2.41,1.44,,-0.42,-0.2,-0.25,-1,9,-5,0.53,0.53,100,,0,0,0.0,0.0,0.0,0.0,0,0,0.0,0,0.0,-1,0.0,0,0.0,0.0531,0.0,0.0
3554,0,0.0532,2.84,2.39,,,-0.41,-0.15,-0.18,-1,8,-4,0.48,0.53,90,,,,,,,,,,,,,,,,,,,
3564,0,0.0534,2.81,2.35,1.45,,-0.42,-0.14,-0.08,-1,8,-3,0.45,0.53,85,,,,,,,,,,,,,,,,,,,
3574,0,0.0536,2.77,2.32,,,-0.35,-0.15,-0.14,-0,7,-2,0.4,0.53,76,,,,,,,,,,,,,,,,,,,
3584,0,0.0538,2.7,2.29,1.42,,-0.29,-0.17,-0.15,-0,7,-1,0.37,0.53,70,,0,0,,,,,,,,,,,,,,,,
3594,0,0.0539,2.69,2.28,,,-0.24,-0.12,-0.12,-0,5,-0,0.29,0.53,54,,,,,,,,,,,,,,,,,,,
3604,0,0.0541,2.71,2.29,1.42,,-0.19,-0.07,-0.08,0,4,0,0.21,0.53,40,,,,,,,,,,,,,,,,,,,
3614,0,0.0542,2.73,2.3,,,-0.25,-0.08,-0.04,0,3,1,0.26,0.53,50,,,,,,,,,,,,,,,,,,,
3624,0,0.0544,2.74,2.3,1.44,,-0.28,-0.07,0.01,0,2,1,0.29,0.53,54,,0,0,,,,,,,,,,,,,,,,
3634,0,0.0546,2.75,2.3,,,-0.33,-0.1,-0.0,0,2,2,0.34,0.53,65,,,,,,,,,,,,,,,,,,,
3644,0,0.0548,2.77,2.31,1.41,,-0.3,-0.13,-0.08,0,1,2,0.34,0.53,64,,,,0.0,0.0,0.0,0.0,0,0,0.0,0,0.0,-1,0.0,0,0.0,0.0548,0.0,0.0
3654,0,0.0549,2.83,2.31,,,-0.41,-0.11,-0.17,0,-1,3,0.46,0.53,86,,,,,,,,,,,,,,,,,,,
3664,0,0.0551,2.84,2.35,1.45,,-0.48,-0.16,-0.1,0,-2,4,0.52,0.53,98,,0,0,,,,,,,,,,,,,,,,
3674,0,0.0552,2.85,2.35,,,-0.56,-0.03,-0.06,1,-3,4,0.57,0.57,100,,,,,,,,,,,,,,,,,,,
3684,0,0.0554,2.76,2.29,1.43,,-0.49,0.09,-0.12,1,-4,4,0.51,0.57,91,,,,,,,,,,,,,,,,,,,
3694,0,0.0556,2.78,2.29,,,-0.5,0.2,-0.15,1,-6,3,0.56,0.57,99,,,,,,,,,,,,,,,,,,,
3704,0,0.0558,2.69,2.22,1.41,,-0.49,0.32,-0.13,1,-7,1,0.6,0.6,100,,0,0,,,,,,,,,,,,,,,,
3714,0,0.0559,2.67,2.16,,,-0.5,0.39,-0.15,1,-7,-1,0.66,0.66,100,,,,,,,,,,,,,,,,,,,
3724,0,0.0561,2.58,2.04,1.41,,-0.37,0.45,-0.12,2,-8,-4,0.6,0.66,91,,,,,,,,,,,,,,,,,,,
3734,0,0.0562,2.6,2.02,,,-0.31,0.51,-0.04,2,-8,-6,0.6,0.66,91,,,,,,,,,,,,,,,,,,,
3744,0,0.0564,2.57,1.96,1.43,,-0.17,0.38,-0.14,2,-8,-8,0.44,0.66,67,,0,0,0.0,0.0,0.0,0.0,0,0,0.0,0,0.0,-1,0.0,0,0.0,0.0564,0.0,0.0
3754,0,0.0566,2.63,1.96,,,-0.19,0.25,-0.09,1,-8,-8,0.33,0.66,50,,,,,,,,,,,,,,,,,,,
3764,0,0.0568,2.66,1.99,1.45,,-0.06,0.28,0.01,2,-7,-8,0.29,0.66,44,,,,,,,,,,,,,,,,,,,
3774,0,0.0569,2.65,1.96,,,-0.06,0.34,0.04,2,-6,-7,0.35,0.66,53,,,,,,,,,,,,,,,,,,,
3784,0,0.0571,2.69,2.01,1.45,,0.03,0.21,0.1,3,-5,-7,0.23,0.66,36,,0,0,,,,,,,,,,,,,,,,
3794,0,0.0572,2.7,2.01,,,0.03,0.16,0.17,3,-4,-5,0.23,0.66,36,,,,,,,,,,,,,,,,,,,
3804,0,0.0574,2.74,2.02,1.43,,0.06,0.09,0.12,3,-3,-4,0.16,0.66,25,,,,,,,,,,,,,,,,,,,
3814,0,0.0576,2.7,2.03,,,0.1,0.04,0.08,4,-2,-2,0.13,0.66,20,,,,,,,,,,,,,,,,,,,
3824,0,0.0578,2.7,2.06,1.43,,0.16,0.04,0.12,4,-0,0,0.21,0.66,31,,0,0,,,,,,,,,,,,,,,,
3834,0,0.0579,2.67,2.11,,,0.19,0.03,0.08,4,1,3,0.21,0.66,32,,,,,,,,,,,,,,,,,,,
3844,0,0.0581,2.66,2.1,1.41,,0.18,0.06,0.04,5,3,4,0.19,0.66,29,,,,0.0,0.0,0.0,0.0,0,0,0.0,0,0.0,-1,0.0,0,0.0,0.0581,0.0,0.0
3854,0,0.0582,2.65,2.13,,,0.18,0.17,0.04,5,5,5,0.25,0.66,38,,,,,,,,,,,,,,,,,,,
3864,0,0.0584,2.62,2.15,1.41,,0.14,0.18,0.03,5,7,6,0.23,0.66,35,,0,0,,,,,,,,,,,,,,,,
3874,0,0.0586,2.64,2.18,,,0.2,0.25,0.0,6,9,6,0.32,0.66,49,,,,,,,,,,,,,,,,,,,
3884,0,0.0588,2.69,2.22,1.4,,0.09,0.32,-0.0,6,11,6,0.33,0.66,51,,,,,,,,,,,,,,,,,,,
3894,0,0.0589,2.75,2.26,,,0.05,0.33,0.04,6,13,5,0.34,0.66,51,,,,,,,,,,,,,,,,,,,
3904,0,0.0591,2.8,2.29,1.44,,-0.02,0.43,0.07,6,14,3,0.43,0.66,66,,0,0,,,,,,,,,,,,,,,,
3914,0,0.0592,2.81,2.28,,,0.03,0.43,0.02,6,15,2,0.43,0.66,65,,,,,,,,,,,,,,,,,,,
3924,0,0.0594,2.81,2.32,1.44,,-0.07,0.43,-0.03,6,16,1,0.44,0.66,66,,,,,,,,,,,,,,,,,,,
3934,0,0.0596,2.82,2.33,,,-0.11,0.41,-0.06,6,17,0,0.42,0.66,65,,,,,,,,,,,,,,,,,,,
3944,0,0.0598,2.82,2.34,1.44,,-0.15,0.37,-0.1,6,17,-1,0.42,0.66,63,,0,0,0.0,0.0,0.0,0.0,0,0,0.0,0,0.0,-1,0.0,0,0.0,0.0598,0.0,0.0
3954,0,0.0599,2.78,2.29,,,-0.15,0.32,-0.17,6,17,-1,0.39,0.66,60,,,,,,,,,,,,,,,,,,,
3964,0,0.0601,2.82,2.34,1.43,,-0.23,0.26,-0.17,6,17,-2,0.38,0.66,58,,,,,,,,,,,,,,,,,,,
3974,0,0.0602,2.82,2.34,,,-0.3,0.28,-0.16,6,17,-2,0.44,0.66,67,,,,,,,,,,,,,,,,,,,
3984,0,0.0604,2.81,2.33,1.43,,-0.33,0.23,-0.22,6,17,-3,0.46,0.66,70,,0,0,,,,,,,,,,,,,,,,
3994,0,0.0606,2.77,2.3,,,-0.32,0.27,-0.27,6,16,-3,0.5,0.66,75,,,,,,,,,,,,,,,,,,,
4004,0,0.0608,2.81,2.31,1.42,,-0.38,0.2,-0.22,6,16,-3,0.49,0.66,74,,,,,,,,,,,,,,,,,,,
4014,0,0.0609,2.82,2.31,,,-0.43,0.15,-0.18,6,15,-3,0.5,0.66,75,,,,,,,,,,,,,,,,,,,
4024,0,0.0611,2.82,2.31,1.44,,-0.46,0.12,-0.2,6,15,-3,0.51,0.66,78,,0,0,,,,,,,,,,,,,,,,
4034,0,0.0612,2.78,2.28,,,-0.43,0.11,-0.21,5,14,-3,0.49,0.66,75,,,,,,,,,,,,,,,,,,,
4044,0,0.0614,2.82,2.29,1.43,,-0.48,0.08,-0.16,5,13,-3,0.52,0.66,78,,,,0.0,0.0,0.0,0.0,0,0,0.0,0,0.0,-1,0.0,0,0.0,0.0614,0.0,0.0
4054,0,0.0616,2.82,2.27,,,-0.5,0.09,-0.13,5,12,-2,0.53,0.66,80,,,,,,,,,,,,,,,,,,,
4064,0,0.0618,2.78,2.25,1.4,,-0.46,0.11,-0.11,5,10,-2,0.48,0.66,74,,0,0,,,,,,,,,,,,,,,,
4074,0,0.0619,2.82,2.29,,,-0.43,0.09,-0.07,5,9,-2,0.45,0.66,68,,,,,,,,,,,,,,,,,,,
4084,0,0.0621,2.82,2.28,1.44,,-0.43,0.11,-0.05,5,8,-2,0.44,0.66,68,,,,,,,,,,,,,,,,,,,
4094,0,0.0622,2.82,2.27,,,-0.46,0.14,-0.02,5,6,-2,0.48,0.66,74,,,,,,,,,,,,,,,,,,,
4104,0,0.0624,2.79,2.25,1.4,,-0.46,0.16,-0.04,5,5,-3,0.49,0.66,74,,0,0,,,,,,,,,,,,,,,,
4114,0,0.0626,2.78,2.25,,,-0.44,0.17,-0.06,5,4,-3,0.48,0.66,73,,,,,,,,,,,,,,,,,,,
4124,0,0.0627,2.79,2.23,1.44,,-0.37,0.14,-0.1,4,3,-3,0.41,0.66,63,,,,,,,,,,,,,,,,,,,
4134,0,0.0629,2.77,2.21,,,-0.43,0.11,-0.08,4,2,-4,0.45,0.66,69,,,,,,,,,,,,,,,,,,,
4144,0,0.0631,2.78,2.2,1.43,,-0.44,0.08,-0.06,4,1,-4,0.45,0.66,69,,0,0,0.0,0.0,0.0,0.0,0,0,0.0,0,0.0,-1,0.0,0,0.0,0.0631,0.0,0.0
4154,0,0.0632,2.77,2.17,,,-0.42,0.04,-0.07,4,1,-4,0.42,0.66,64,,,,,,,,,,,,,,,,,,,
4164,0,0.0634,2.72,2.08,1.39,,-0.33,-0.01,-0.03,3,0,-4,0.33,0.66,51,,,,,,,,,,,,,,,,,,,
4174,0,0.0636,2.74,2.08,,,-0.31,-0.06,0.05,3,0,-4,0.32,0.66,49,,,,,,,,,,,,,,,,,,,
4184,0,0.0638,2.72,2.04,1.44,,-0.3,-0.14,0.1,3,-0,-3,0.35,0.66,53,,0,0,,,,,,,,,,,,,,,,
4194,0,0.0639,2.66,1.94,,,-0.2,-0.12,0.1,3,-1,-2,0.26,0.66,39,,,,,,,,,,,,,,,,,,,
4204,0,0.0641,2.61,1.9,1.44,,-0.1,-0.21,0.09,3,-1,-1,0.25,0.66,38,,,,,,,,,,,,,,,,,,,
4214,0,0.0642,2.5,1.86,,,0.01,-0.28,0.07,3,-0,1,0.28,0.66,43,,,,,,,,,,,,,,,,,,,
4224,0,0.0644,2.41,1.84,1.41,,0.07,-0.29,0.11,2,1,2,0.32,0.66,49,,0,0,,,,,,,,,,,,,,,,
4234,0,0.0646,2.3,1.86,,,0.11,-0.21,0.13,2,2,4,0.27,0.66,41,,,,,,,,,,,,,,,,,,,
4244,0,0.0648,2.26,1.94,1.42,,0.2,-0.08,0.08,2,4,4,0.23,0.66,35,,,,0.0,0.0,0.0,0.0,0,0,0.0,0,0.0,-1,0.0,0,0.0,0.0648,0.0,0.0
4254,0,0.0649,2.25,2.07,,,0.3,0.05,0.12,2,6,4,0.33,0.66,50,,,,,,,,,,,,,,,,,,,
4264,0,0.0651,2.27,2.18,1.44,,0.24,0.17,0.16,1,9,2,0.34,0.66,52,,0,0,,,,,,,,,,,,,,,,
4274,0,0.0652,2.38,2.29,,,0.2,0.23,0.09,2,11,-0,0.32,0.66,49,,,,,,,,,,,,,,,,,,,
4284,0,0.0654,2.48,2.36,1.42,,0.17,0.35,0.02,1,13,-3,0.39,0.66,59,,,,,,,,,,,,,,,,,,,
4294,0,0.0656,2.66,2.44,,,0.16,0.33,-0.07,2,14,-6,0.37,0.66,56,,,,,,,,,,,,,,,,,,,
4304,0,0.0658,2.81,2.48,1.44,,0.04,0.38,-0.18,1,15,-9,0.42,0.66,64,,0,0,,,,,,,,,,,,,,,,
4314,0,0.0659,2.93,2.43,,,-0.08,0.25,-0.23,2,15,-12,0.35,0.66,54,,,,,,,,,,,,,,,,,,,
4324,0,0.0661,2.96,2.41,1.42,,-0.2,0.13,-0.32,3,15,-14,0.4,0.66,60,,,,,,,,,,,,,,,,,,,
4334,0,0.0662,2.89,2.35,,,-0.3,0.04,-0.39,4,14,-13,0.49,0.66,75,,,,,,,,,,,,,,,,,,,
4344,0,0.0664,2.82,2.32,1.41,12.69,-0.17,-0.02,-0.38,4,14,-11,0.41,0.66,63,0,0,0,0.0,0.0,0.0,0.0,0,0,0.0,0,0.0,-1,0.0,0,0.0,0.0664,0.0,0.0
4354,0,0.0666,2.82,2.3,,,-0.19,0.01,-0.37,3,12,-10,0.41,0.66,63,,,,,,,,,,,,,,,,,,,
4364,0,0.0668,2.77,2.29,1.44,,-0.2,-0.06,-0.33,4,10,-8,0.39,0.66,60,,,,,,,,,,,,,,,,,,,
4374,0,0.0669,2.66,2.25,,,-0.15,0.0,-0.29,4,10,-6,0.33,0.66,50,,,,,,,,,,,,,,,,,,,
4384,0,0.0671,2.58,2.24,1.4,,-0.07,-0.12,-0.33,4,10,-5,0.36,0.66,55,,0,0,,,,,,,,,,,,,,,,
4394,0,0.0672,2.54,2.25,,,-0.05,0.01,-0.4,4,8,-3,0.41,0.66,62,,,,,,,,,,,,,,,,,,,
4404,0,0.0674,2.54,2.27,1.42,,-0.1,0.02,-0.32,4,7,-2,0.34,0.66,51,,,,,,,,,,,,,,,,,,,
4414,0,0.0676,2.58,2.27,,,-0.12,0.03,-0.3,4,6,-1,0.32,0.66,49,,,,,,,,,,,,,,,,,,,
4424,0,0.0678,2.62,2.32,1.44,,-0.13,0.06,-0.29,4,5,0,0.33,0.66,50,,0,0,,,,,,,,,,,,,,,,
4434,0,0.0679,2.63,2.32,,,-0.23,0.1,-0.19,4,4,1,0.32,0.66,49,,,,,,,,,,,,,,,,,,,
4444,0,0.0681,2.7,2.31,1.44,,-0.29,0.11,-0.23,5,2,1,0.38,0.66,59,,,,0.0,0.0,0.0,0.0,0,0,0.0,0,0.0,-1,0.0,0,0.0,0.0681,0.0,0.0
4454,0,0.0682,2.77,2.31,,,-0.39,0.07,-0.29,5,-0,1,0.49,0.66,75,,,,,,,,,,,,,,,,,,,
4464,0,0.0684,2.83,2.32,1.44,,-0.42,0.2,-0.37,6,-4,1,0.59,0.66,90,,0,0,,,,,,,,,,,,,,,,
4474,0,0.0686,2.87,2.32,,,-0.53,0.31,-0.48,6,-7,0,0.78,0.78,100,,,,,,,,,,,,,,,,,,,
4484,0,0.0688,2.88,2.26,1.4,,-0.6,0.26,-0.57,6,-10,-1,0.87,0.87,100,,,,,,,,,,,,,,,,,,,
4494,0,0.0689,2.9,2.25,,,-0.64,0.3,-0.56,6,-12,-3,0.9,0.9,100,,,,,,,,,,,,,,,,,,,
4504,0,0.0691,2.87,2.21,1.44,,-0.57,0.33,-0.55,5,-15,-5,0.86,0.9,96,,0,0,,,,,,,,,,,,,,,,
4514,0,0.0692,2.82,2.19,,,-0.6,0.3,-0.56,5,-19,-6,0.88,0.9,98,,,,,,,,,,,,,,,,,,,
4524,0,0.0694,2.85,2.2,1.44,,-0.46,0.17,-0.67,5,-22,-7,0.83,0.9,93,,,,,,,,,,,,,,,,,,,
4534,0,0.0696,2.83,2.2,,,-0.43,0.05,-0.65,4,-25,-7,0.78,0.9,87,,,,,,,,,,,,,,,,,,,
4544,0,0.0698,2.78,2.18,1.4,,-0.29,-0.07,-0.74,4,-27,-5,0.79,0.9,89,,0,0,0.0,0.0,0.0,0.0,0,0,0.0,0,0.0,-1,0.0,0,0.0,0.0698,0.0,0.0
4554,0,0.0699,2.68,2.18,,,-0.2,0.05,-0.78,5,-29,-4,0.81,0.9,90,,,,,,,,,,,,,,,,,,,
4564,0,0.0701,2.63,2.09,1.39,,-0.12,-0.04,-0.66,5,-31,-3,0.68,0.9,75,,,,,,,,,,,,,,,,,,,
4574,0,0.0702,2.63,2.05,,,-0.12,-0.09,-0.66,5,-32,-3,0.68,0.9,76,,,,,,,,,,,,,,,,,,,
4584,0,0.0704,2.59,1.97,1.41,,-0.03,-0.08,-0.7,6,-32,-3,0.7,0.9,78,,0,0,,,,,,,,,,,,,,,,
4594,0,0.0706,2.59,1.96,,,0.04,-0.14,-0.71,6,-32,-2,0.72,0.9,81,,,,,,,,,,,,,,,,,,,
4604,0,0.0708,2.54,1.95,1.43,,0.13,-0.15,-0.62,7,-32,-1,0.66,0.9,73,,,,,,,,,,,,,,,,,,,
4614,0,0.0709,2.47,1.92,,,0.17,-0.19,-0.63,8,-31,-0,0.68,0.9,76,,,,,,,,,,,,,,,,,,,
4624,0,0.0711,2.48,1.97,1.43,,0.26,-0.2,-0.66,8,-30,0,0.74,0.9,82,,0,0,,,,,,,,,,,,,,,,
4634,0,0.0712,2.47,1.98,,,0.27,-0.2,-0.67,9,-28,1,0.75,0.9,83,,,,,,,,,,,,,,,,,,,
4644,0,0.0714,2.45,1.95,1.44,,0.35,-0.22,-0.65,10,-27,1,0.77,0.9,86,,,,0.0,0.0,0.0,0.0,0,0,0.0,0,0.0,-1,0.0,0,0.0,0.0714,0.0,0.0
4654,0,0.0716,2.47,1.95,,,0.37,-0.22,-0.66,10,-25,2,0.78,0.9,87,,,,,,,,,,,,,,,,,,,
4664,0,0.0718,2.44,1.93,1.39,,0.48,-0.23,-0.63,11,-22,3,0.82,0.9,92,,0,0,,,,,,,,,,,,,,,,
4674,0,0.0719,2.49,1.98,,,0.49,-0.23,-0.56,12,-20,4,0.78,0.9,87,,,,,,,,,,,,,,,,,,,
4684,0,0.0721,2.47,1.98,1.42,,0.56,-0.24,-0.52,13,-18,5,0.8,0.9,90,,,,,,,,,,,,,,,,,,,
4694,0,0.0722,2.49,2.0,,,0.57,-0.23,-0.53,13,-15,6,0.81,0.9,91,,,,,,,,,,,,,,,,,,,
4704,0,0.0724,2.42,2.0,1.39,,0.56,-0.21,-0.53,14,-12,7,0.8,0.9,89,,0,0,,,,,,,,,,,,,,,,
4714,0,0.0726,2.47,2.08,,,0.5,-0.17,-0.46,15,-9,8,0.7,0.9,78,,,,,,,,,,,,,,,,,,,
4724,0,0.0728,2.48,2.09,1.4,,0.47,-0.12,-0.39,15,-5,8,0.62,0.9,69,,,,,,,,,,,,,,,,,,,
4734,0,0.0729,2.53,2.13,,,0.55,-0.06,-0.4,16,-2,8,0.68,0.9,76,,,,,,,,,,,,,,,,,,,
4744,0,0.0731,2.54,2.14,1.43,,0.5,-0.04,-0.43,16,1,8,0.67,0.9,74,,0,0,0.0,0.0,0.0,0.0,0,0,0.0,0,0.0,-1,0.0,0,0.0,0.0731,0.0,0.0
4754,0,0.0733,2.6,2.18,,,0.44,0.03,-0.41,16,4,8,0.6,0.9,67,,,,,,,,,,,,,,,,,,,
4764,0,0.0734,2.65,2.22,1.44,,0.35,0.1,-0.39,17,7,6,0.53,0.9,60,,,,,,,,,,,,,,,,,,,
4774,0,0.0736,2.68,2.21,,,0.34,0.08,-0.38,17,10,5,0.52,0.9,58,,,,,,,,,,,,,,,,,,,
4784,0,0.0737,2.75,2.26,1.44,,0.26,0.17,-0.44,17,12,4,0.54,0.9,60,,0,0,,,,,,,,,,,,,,,,
4794,0,0.0739,2.79,2.27,,,0.2,0.09,-0.37,17,14,2,0.43,0.9,48,,,,,,,,,,,,,,,,,,,
4804,0,0.0741,2.82,2.31,1.4,,0.13,0.12,-0.31,17,15,1,0.36,0.9,40,,,,,,,,,,,,,,,,,,,
4814,0,0.0742,2.85,2.34,,,0.1,-0.0,-0.32,17,16,0,0.34,0.9,37,,,,,,,,,,,,,,,,,,,
4824,0,0.0744,2.85,2.37,1.44,,0.04,-0.07,-0.34,17,17,0,0.35,0.9,39,,0,0,,,,,,,,,,,,,,,,
4834,0,0.0746,2.83,2.36,,,-0.03,-0.15,-0.38,17,17,0,0.41,0.9,45,,,,,,,,,,,,,,,,,,,
4844,0,0.0748,2.82,2.36,1.4,,-0.08,-0.14,-0.35,17,17,1,0.39,0.9,43,,,,0.0,0.0,0.0,0.0,0,0,0.0,0,0.0,-1,0.0,0,0.0,0.0748,0.0,0.0
4854,0,0.0749,2.83,2.32,,,-0.12,-0.13,-0.37,17,17,1,0.42,0.9,46,,,,,,,,,,,,,,,,,,,
4864,0,0.0751,2.78,2.32,1.41,,-0.13,-0.08,-0.41,17,16,0,0.44,0.9,49,,0,0,,,,,,,,,,,,,,,,
4874,0,0.0752,2.77,2.29,,,-0.23,-0.06,-0.44,16,15,0,0.5,0.9,56,,,,,,,,,,,,,,,,,,,
4884,0,0.0754,2.78,2.25,1.39,,-0.26,-0.16,-0.46,16,15,-0,0.55,0.9,62,,,,,,,,,,,,,,,,,,,
4894,0,0.0756,2.76,2.18,,,-0.25,-0.22,-0.45,16,15,0,0.55,0.9,62,,,,,,,,,,,,,,,,,,,
4904,0,0.0758,2.77,2.13,1.41,,-0.24,-0.31,-0.38,15,14,1,0.54,0.9,61,,0,0,,,,,,,,,,,,,,,,
4914,0,0.0759,2.76,2.04,,,-0.23,-0.35,-0.36,15,13,1,0.55,0.9,62,,,,,,,,,,,,,,,,,,,
4924,0,0.0761,2.7,1.95,1.42,,-0.25,-0.38,-0.25,14,12,3,0.52,0.9,58,,,,,,,,,,,,,,,,,,,
4934,0,0.0762,2.67,1.85,,,-0.19,-0.43,-0.19,14,11,5,0.51,0.9,57,,,,,,,,,,,,,,,,,,,
4944,0,0.0764,2.61,1.8,1.41,,-0.07,-0.52,-0.21,13,12,7,0.57,0.9,63,,0,0,0.0,0.0,0.0,0.0,0,0,0.0,0,0.0,-1,0.0,0,0.0,0.0764,0.0,0.0
4954,0,0.0766,2.47,1.76,,,0.06,-0.55,-0.28,11,12,10,0.62,0.9,69,,,,,,,,,,,,,,,,,,,
4964,0,0.0768,2.37,1.82,1.4,,0.08,-0.44,-0.19,10,13,12,0.49,0.9,55,,,,,,,,,,,,,,,,,,,
4974,0,0.0769,2.3,1.95,,,0.12,-0.32,-0.09,9,14,14,0.35,0.9,40,,,,,,,,,,,,,,,,,,,
4984,0,0.0771,2.22,2.05,1.39,,0.17,-0.19,-0.01,8,15,14,0.25,0.9,28,,0,0,,,,,,,,,,,,,,,,
4994,0,0.0772,2.22,2.13,,,0.25,-0.06,-0.0,6,17,12,0.26,0.9,29,,,,,,,,,,,,,,,,,,,
5004,0,0.0774,2.24,2.23,1.43,,0.28,0.03,-0.0,6,19,10,0.28,0.9,31,,,,,,,,,,,,,,,,,,,
5014,0,0.0776,2.3,2.29,,,0.17,0.15,0.02,4,21,6,0.23,0.9,26,,,,,,,,,,,,,,,,,,,
5024,0,0.0778,2.43,2.38,1.43,,0.13,0.23,0.01,3,21,2,0.26,0.9,29,,0,0,,,,,,,,,,,,,,,,
5034,0,0.0779,2.59,2.43,,,0.16,0.25,-0.07,3,22,-2,0.3,0.9,34,,,,,,,,,,,,,,,,,,,
5044,0,0.0781,2.7,2.44,1.44,,0.09,0.23,-0.22,2,23,-7,0.33,0.9,37,,,,0.0,0.0,0.0,0.0,0,0,0.0,0,0.0,-1,0.0,0,0.0,0.0781,0.0,0.0
5054,0,0.0782,2.76,2.4,,,0.1,0.22,-0.35,2,22,-11,0.43,0.9,48,,,,,,,,,,,,,,,,,,,
5064,0,0.0784,2.8,2.4,1.4,,0.02,0.1,-0.29,1,22,-14,0.3,0.9,34,,0,0,,,,,,,,,,,,,,,,
5074,0,0.0786,2.86,2.42,,,-0.08,-0.02,-0.38,0,21,-15,0.39,0.9,43,,,,,,,,,,,,,,,,,,,
5084,0,0.0788,2.88,2.41,1.44,,-0.08,-0.14,-0.35,0,21,-15,0.39,0.9,43,,,,,,,,,,,,,,,,,,,
5094,0,0.0789,2.83,2.39,,,-0.08,-0.26,-0.25,-0,20,-15,0.37,0.9,41,,,,,,,,,,,,,,,,,,,
5104,0,0.0791,2.78,2.36,1.42,,-0.11,-0.35,-0.26,-1,20,-14,0.45,0.9,50,,0,0,,,,,,,,,,,,,,,,
5114,0,0.0792,2.78,2.36,,,-0.1,-0.43,-0.29,-1,19,-12,0.53,0.9,59,,,,,,,,,,,,,,,,,,,
5124,0,0.0794,2.76,2.34,1.39,,-0.18,-0.54,-0.27,-2,17,-9,0.63,0.9,70,,,,,,,,,,,,,,,,,,,
5134,0,0.0796,2.71,2.4,,,-0.28,-0.64,-0.33,-3,16,-6,0.77,0.9,86,,,,,,,,,,,,,,,,,,,
5144,0,0.0798,2.64,2.4,1.43,,-0.25,-0.73,-0.43,-4,14,-2,0.89,0.9,99,,0,0,0.0,0.0,0.0,0.0,0,0,0.0,0,0.0,-1,0.0,0,0.0,0.0798,0.0,0.0
5154,0,0.0799,2.57,2.37,,,-0.36,-0.69,-0.52,-5,12,2,0.93,0.93,100,,,,,,,,,,,,,,,,,,,
5164,0,0.0801,2.55,2.37,1.42,,-0.37,-0.63,-0.54,-4,9,5,0.91,0.93,97,,,,,,,,,,,,,,,,,,,
5174,0,0.0802,2.51,2.33,,,-0.4,-0.49,-0.52,-5,5,7,0.82,0.93,88,,,,,,,,,,,,,,,,,,,
5184,0,0.0804,2.52,2.29,1.4,,-0.47,-0.35,-0.53,-4,2,8,0.78,0.93,84,,0,0,,,,,,,,,,,,,,,,
5194,0,0.0806,2.56,2.22,,,-0.45,-0.21,-0.62,-3,-2,8,0.8,0.93,85,,,,,,,,,,,,,,,,,,,
5204,0,0.0808,2.65,2.17,1.41,,-0.52,-0.14,-0.63,-4,-6,7,0.83,0.93,89,,,,,,,,,,,,,,,,,,,
5214,0,0.0809,2.64,2.08,,,-0.53,-0.1,-0.61,-3,-9,5,0.82,0.93,87,,,,,,,,,,,,,,,,,,,
5224,0,0.0811,2.81,2.12,1.43,,-0.46,-0.03,-0.59,-3,-13,4,0.75,0.93,80,,0,0,,,,,,,,,,,,,,,,
5234,0,0.0812,2.87,2.1,,,-0.5,-0.09,-0.66,-3,-16,2,0.84,0.93,90,,,,,,,,,,,,,,,,,,,
5244,0,0.0814,2.89,2.14,1.43,,-0.45,-0.21,-0.79,-2,-20,2,0.93,0.93,100,,,,0.0,0.0,0.0,0.0,0,0,0.0,0,0.0,-1,0.0,0,0.0,0.0814,0.0,0.0
5254,0,0.0816,2.86,2.17,,,-0.47,-0.31,-0.92,-3,-22,4,1.07,1.07,100,,,,,,,,,,,,,,,,,,,
5264,0,0.0818,2.81,2.19,1.41,,-0.44,-0.42,-1.02,-4,-24,5,1.18,1.18,100,,0,0,,,,,,,,,,,,,,,,
5274,0,0.0819,2.77,2.23,,,-0.39,-0.28,-0.99,-5,-27,7,1.1,1.18,93,,,,,,,,,,,,,,,,,,,
5284,0,0.0821,2.72,2.32,1.43,,-0.31,-0.21,-0.98,-6,-30,7,1.05,1.18,89,,,,,,,,,,,,,,,,,,,
5294,0,0.0822,2.69,2.39,,,-0.33,-0.21,-0.94,-6,-32,7,1.01,1.18,86,,,,,,,,,,,,,,,,,,,
5304,0,0.0824,2.67,2.43,1.42,,-0.31,-0.15,-0.98,-6,-35,7,1.04,1.18,88,,0,0,,,,,,,,,,,,,,,,
5314,0,0.0826,2.67,2.43,,,-0.27,-0.19,-1.03,-6,-37,7,1.08,1.18,91,,,,,,,,,,,,,,,,,,,
5324,0,0.0828,2.62,2.38,1.41,,-0.25,-0.21,-1.06,-6,-39,6,1.11,1.18,94,,,,,,,,,,,,,,,,,,,
5334,0,0.0829,2.61,2.33,,,-0.16,-0.17,-1.15,-6,-41,6,1.17,1.18,99,,,,,,,,,,,,,,,,,,,
5344,0,0.0831,2.54,2.23,1.39,12.69,-0.11,-0.13,-1.23,-6,-42,5,1.24,1.24,100,0,0,0,0.0,0.0,0.0,0.0,0,0,0.0,0,0.0,-1,0.0,0,0.0,0.0831,0.0,0.0
5354,0,0.0832,2.49,2.15,,,-0.09,-0.18,-1.18,-6,-43,5,1.19,1.24,96,,,,,,,,,,,,,,,,,,,
5364,0,0.0834,2.47,2.11,1.39,,-0.04,-0.17,-1.14,-6,-44,4,1.15,1.24,93,,,,,,,,,,,,,,,,,,,
5374,0,0.0836,2.42,2.09,,,0.09,-0.17,-1.13,-6,-44,4,1.14,1.24,92,,,,,,,,,,,,,,,,,,,
5384,0,0.0838,2.38,2.08,1.43,,0.09,-0.1,-1.08,-6,-44,3,1.09,1.24,87,,0,0,,,,,,,,,,,,,,,,
5394,0,0.0839,2.37,2.03,,,0.14,-0.12,-1.06,-6,-44,2,1.08,1.24,87,,,,,,,,,,,,,,,,,,,
5404,0,0.0841,2.34,2.04,1.42,,0.21,-0.09,-0.94,-6,-43,2,0.97,1.24,78,,,,,,,,,,,,,,,,,,,
5414,0,0.0843,2.38,2.04,,,0.28,-0.15,-0.82,-6,-42,1,0.88,1.24,71,,,,,,,,,,,,,,,,,,,
5424,0,0.0844,2.38,2.04,1.43,,0.33,-0.19,-0.75,-6,-41,1,0.84,1.24,68,,0,0,,,,,,,,,,,,,,,,
5434,0,0.0846,2.38,2.03,,,0.39,-0.18,-0.7,-6,-39,1,0.83,1.24,66,,,,,,,,,,,,,,,,,,,
5444,0,0.0847,2.38,2.03,1.43,,0.5,-0.24,-0.59,-7,-38,1,0.81,1.24,65,,,,0.0,0.0,0.0,0.0,0,0,0.0,0,0.0,-1,0.0,0,0.0,0.0847,0.0,0.0
5454,0,0.0849,2.37,2.01,,,0.57,-0.13,-0.51,-7,-36,2,0.78,1.24,63,,,,,,,,,,,,,,,,,,,
5464,0,0.0851,2.36,2.02,1.43,,0.6,-0.13,-0.41,-7,-33,1,0.74,1.24,60,,0,0,,,,,,,,,,,,,,,,
5474,0,0.0852,2.39,2.01,,,0.65,-0.16,-0.36,-7,-30,1,0.75,1.24,61,,,,,,,,,,,,,,,,,,,
5484,0,0.0854,2.4,2.02,1.42,,0.7,-0.21,-0.29,-8,-27,1,0.78,1.24,63,,,,,,,,,,,,,,,,,,,
5494,0,0.0856,2.39,2.0,,,0.79,-0.2,-0.27,-8,-23,2,0.86,1.24,69,,,,,,,,,,,,,,,,,,,
5504,0,0.0858,2.42,2.05,1.42,,0.78,-0.18,-0.31,-9,-19,2,0.86,1.24,69,,0,0,,,,,,,,,,,,,,,,
5514,0,0.0859,2.44,2.06,,,0.8,-0.18,-0.32,-9,-16,2,0.88,1.24,71,,,,,,,,,,,,,,,,,,,
5524,0,0.0861,2.49,2.09,1.43,,0.81,-0.21,-0.28,-10,-12,2,0.88,1.24,71,,,,,,,,,,,,,,,,,,,
5534,0,0.0862,2.5,2.1,,,0.88,-0.24,-0.23,-10,-8,2,0.94,1.24,76,,,,,,,,,,,,,,,,,,,
5544,0,0.0864,2.53,2.11,1.39,,0.86,-0.26,-0.24,-10,-5,2,0.93,1.24,75,,0,0,0.0,0.0,0.0,0.0,0,0,0.0,0,0.0,-1,0.0,0,0.0,0.0864,0.0,0.0
5554,0,0.0866,2.58,2.18,,,0.87,-0.17,-0.29,-11,-1,2,0.93,1.24,75,,,,,,,,,,,,,,,,,,,
5564,0,0.0868,2.63,2.24,1.43,,0.8,-0.14,-0.33,-11,4,1,0.88,1.24,71,,,,,,,,,,,,,,,,,,,
5574,0,0.0869,2.66,2.27,,,0.8,-0.12,-0.3,-11,7,1,0.86,1.24,69,,,,,,,,,,,,,,,,,,,
5584,0,0.0871,2.68,2.3,1.4,,0.73,-0.15,-0.44,-12,11,0,0.86,1.24,69,,0,0,,,,,,,,,,,,,,,,
5594,0,0.0872,2.76,2.34,,,0.71,-0.12,-0.47,-12,14,-0,0.86,1.24,69,,,,,,,,,,,,,,,,,,,
5604,0,0.0874,2.79,2.39,1.43,,0.61,-0.04,-0.46,-13,17,-1,0.77,1.24,62,,,,,,,,,,,,,,,,,,,
5614,0,0.0876,2.8,2.4,,,0.58,-0.08,-0.52,-13,19,-2,0.78,1.24,63,,,,,,,,,,,,,,,,,,,
5624,0,0.0878,2.76,2.35,1.4,,0.48,-0.08,-0.52,-14,21,-2,0.71,1.24,57,,0,0,,,,,,,,,,,,,,,,
5634,0,0.0879,2.8,2.39,,,0.35,-0.15,-0.47,-13,22,-2,0.61,1.24,49,,,,,,,,,,,,,,,,,,,
5644,0,0.0881,2.81,2.38,1.43,,0.29,-0.24,-0.5,-14,24,-2,0.62,1.24,50,,,,0.0,0.0,0.0,0.0,0,0,0.0,0,0.0,-1,0.0,0,0.0,0.0881,0.0,0.0
5654,0,0.0882,2.73,2.35,,,0.32,-0.21,-0.52,-13,25,-2,0.64,1.24,52,,,,,,,,,,,,,,,,,,,
5664,0,0.0884,2.59,2.28,1.43,,0.3,-0.2,-0.5,-14,26,-1,0.62,1.24,50,,0,0,,,,,,,,,,,,,,,,
5674,0,0.0886,2.43,2.19,,,0.24,-0.31,-0.5,-13,27,1,0.63,1.24,51,,,,,,,,,,,,,,,,,,,
5684,0,0.0888,2.29,2.17,1.43,,0.21,-0.29,-0.46,-13,28,2,0.58,1.24,47,,,,,,,,,,,,,,,,,,,
5694,0,0.0889,2.1,2.07,,,0.23,-0.16,-0.38,-13,30,2,0.47,1.24,38,,,,,,,,,,,,,,,,,,,
5704,0,0.0891,2.05,2.05,1.43,,0.28,-0.03,-0.27,-13,31,2,0.39,1.24,32,,0,0,,,,,,,,,,,,,,,,
5714,0,0.0892,2.04,1.97,,,0.31,0.07,-0.25,-13,32,0,0.41,1.24,33,,,,,,,,,,,,,,,,,,,
5724,0,0.0894,2.08,1.93,1.4,,0.36,0.03,-0.3,-12,34,-1,0.46,1.24,37,,,,,,,,,,,,,,,,,,,
5734,0,0.0896,2.2,1.97,,,0.31,0.02,-0.3,-12,37,-3,0.43,1.24,34,,,,,,,,,,,,,,,,,,,
5744,0,0.0898,2.32,2.02,1.43,,0.31,-0.08,-0.31,-11,39,-4,0.44,1.24,36,,0,0,0.0,0.0,0.0,0.0,0,0,0.0,0,0.0,-1,0.0,0,0.0,0.0898,0.0,0.0
5754,0,0.0899,2.46,2.09,,,0.22,-0.09,-0.33,-11,41,-5,0.41,1.24,33,,,,,,,,,,,,,,,,,,,
5764,0,0.0901,2.59,2.15,1.42,,0.1,-0.21,-0.3,-10,42,-5,0.38,1.24,30,,,,,,,,,,,,,,,,,,,
5774,0,0.0902,2.7,2.22,,,0.02,-0.12,-0.34,-9,42,-5,0.36,1.24,29,,,,,,,,,,,,,,,,,,,
5784,0,0.0904,2.81,2.32,1.42,,-0.1,-0.24,-0.4,-8,42,-5,0.47,1.24,38,,0,0,,,,,,,,,,,,,,,,
5794,0,0.0906,2.88,2.45,,,-0.21,-0.35,-0.53,-7,42,-3,0.67,1.24,54,,,,,,,,,,,,,,,,,,,
5804,0,0.0908,2.9,2.48,1.41,,-0.32,-0.21,-0.64,-7,41,-1,0.75,1.24,60,,,,,,,,,,,,,,,,,,,
5814,0,0.0909,2.88,2.48,,,-0.37,-0.29,-0.62,-7,39,0,0.77,1.24,62,,,,,,,,,,,,,,,,,,,
5824,0,0.0911,2.84,2.41,1.41,,-0.34,-0.15,-0.56,-7,38,1,0.67,1.24,54,,0,0,,,,,,,,,,,,,,,,
5834,0,0.0912,2.78,2.36,,,-0.4,-0.12,-0.67,-7,37,1,0.79,1.24,64,,,,,,,,,,,,,,,,,,,
5844,0,0.0914,2.71,2.29,1.43,,-0.44,-0.05,-0.73,-6,35,1,0.85,1.24,69,,,,0.0,0.0,0.0,0.0,0,0,0.0,0,0.0,-1,0.0,0,0.0,0.0914,0.0,0.0
5854,0,0.0916,2.66,2.23,,,-0.4,0.07,-0.71,-7,33,1,0.82,1.24,66,,,,,,,,,,,,,,,,,,,
5864,0,0.0918,2.6,2.16,1.42,,-0.3,-0.05,-0.6,-6,31,-0,0.67,1.24,54,,0,0,,,,,,,,,,,,,,,,
5874,0,0.0919,2.63,2.1,,,-0.3,0.03,-0.55,-6,29,-1,0.63,1.24,51,,,,,,,,,,,,,,,,,,,
5884,0,0.0921,2.58,2.07,1.39,,-0.39,-0.01,-0.52,-6,27,-1,0.65,1.24,53,,,,,,,,,,,,,,,,,,,
5894,0,0.0922,2.62,2.12,,,-0.41,0.03,-0.41,-5,24,-2,0.58,1.24,47,,,,,,,,,,,,,,,,,,,
5904,0,0.0924,2.64,2.13,1.43,,-0.52,0.11,-0.39,-5,20,-2,0.66,1.24,53,,0,0,,,,,,,,,,,,,,,,
5914,0,0.0926,2.69,2.15,,,-0.48,0.23,-0.42,-4,14,-4,0.68,1.24,54,,,,,,,,,,,,,,,,,,,
5924,0,0.0928,2.72,2.11,1.39,,-0.57,0.11,-0.56,-4,8,-6,0.8,1.24,64,,,,,,,,,,,,,,,,,,,
5934,0,0.0929,2.75,2.16,,,-0.67,0.04,-0.55,-3,4,-7,0.86,1.24,69,,,,,,,,,,,,,,,,,,,
5944,0,0.0931,2.72,2.16,1.42,,-0.72,0.11,-0.43,-3,-2,-8,0.84,1.24,68,,0,0,0.0,0.0,0.0,0.0,0,0,0.0,0,0.0,-1,0.0,0,0.0,0.0931,0.0,0.0
5954,0,0.0932,2.79,2.22,,,-0.79,0.06,-0.42,-3,-9,-9,0.89,1.24,72,,,,,,,,,,,,,,,,,,,
5964,0,0.0934,2.78,2.23,1.39,,-0.83,0.1,-0.45,-3,-14,-10,0.95,1.24,76,,,,,,,,,,,,,,,,,,,
5974,0,0.0936,2.83,2.3,,,-0.68,-0.02,-0.55,-2,-20,-10,0.87,1.24,70,,,,,,,,,,,,,,,,,,,
5984,0,0.0938,2.83,2.34,1.43,,-0.65,-0.14,-0.47,-3,-24,-10,0.82,1.24,66,,0,0,,,,,,,,,,,,,,,,
5994,0,0.0939,2.78,2.4,,,-0.72,-0.15,-0.54,-3,-29,-10,0.91,1.24,73,,,,,,,,,,,,,,,,,,,
6004,0,0.0941,2.79,2.43,1.42,,-0.7,-0.02,-0.67,-3,-33,-9,0.97,1.24,78,,,,,,,,,,,,,,,,,,,
6014,0,0.0942,2.81,2.44,,,-0.67,-0.05,-0.76,-3,-38,-10,1.01,1.24,82,,,,,,,,,,,,,,,,,,,
6024,0,0.0944,2.81,2.39,1.4,,-0.65,-0.11,-0.73,-3,-43,-11,0.98,1.24,79,,0,0,,,,,,,,,,,,,,,,
6034,0,0.0946,2.78,2.36,,,-0.59,-0.06,-0.79,-2,-48,-11,0.99,1.24,79,,,,,,,,,,,,,,,,,,,
6044,0,0.0948,2.83,2.35,1.44,,-0.61,-0.14,-0.9,-2,-52,-12,1.1,1.24,88,,,,0.0,0.0,0.0,0.0,0,0,0.0,0,0.0,-1,0.0,0,0.0,0.0948,0.0,0.0
6054,0,0.0949,2.81,2.29,,,-0.51,-0.07,-0.99,-2,-55,-12,1.12,1.24,90,,,,,,,,,,,,,,,,,,,
6064,0,0.0951,2.77,2.25,1.42,,-0.47,-0.14,-1.03,-2,-59,-12,1.14,1.24,92,,0,0,,,,,,,,,,,,,,,,
6074,0,0.0952,2.81,2.2,,,-0.45,-0.14,-1.02,-1,-62,-12,1.12,1.24,90,,,,,,,,,,,,,,,,,,,
6084,0,0.0954,2.8,2.15,1.39,,-0.4,-0.15,-1.02,-1,-66,-12,1.11,1.24,89,,,,,,,,,,,,,,,,,,,
6094,0,0.0956,2.77,2.1,,,-0.37,-0.22,-1.01,-0,-69,-12,1.1,1.24,88,,,,,,,,,,,,,,,,,,,
6104,0,0.0957,2.81,2.09,1.43,,-0.26,-0.27,-1.08,0,-72,-12,1.14,1.24,92,,0,0,,,,,,,,,,,,,,,,
6114,0,0.0959,2.83,2.04,,,-0.22,-0.31,-1.07,0,-75,-11,1.14,1.24,92,,,,,,,,,,,,,,,,,,,
6124,0,0.0961,2.81,2.0,1.44,,-0.17,-0.35,-1.06,0,-77,-10,1.13,1.24,91,,,,,,,,,,,,,,,,,,,
6134,0,0.0962,2.76,1.99,,,-0.11,-0.38,-1.05,1,-78,-9,1.12,1.24,90,,,,,,,,,,,,,,,,,,,
6144,0,0.0964,2.73,1.96,1.43,,-0.0,-0.43,-0.99,1,-80,-8,1.08,1.24,86,,0,0,0.0,0.0,0.0,0.0,0,0,0.0,0,0.0,-1,0.0,0,0.0,0.0964,0.0,0.0
6154,0,0.0966,2.64,1.9,,,0.03,-0.48,-0.93,1,-81,-6,1.05,1.24,84,,,,,,,,,,,,,,,,,,,
6164,0,0.0968,2.6,1.89,1.4,,0.11,-0.46,-0.94,1,-82,-5,1.05,1.24,85,,,,,,,,,,,,,,,,,,,
6174,0,0.0969,2.54,1.9,,,0.19,-0.42,-0.92,1,-83,-3,1.03,1.24,83,,,,,,,,,,,,,,,,,,,
6184,0,0.0971,2.51,1.9,1.4,,0.27,-0.44,-0.91,1,-83,-2,1.05,1.24,84,,0,0,,,,,,,,,,,,,,,,
6194,0,0.0972,2.46,1.87,,,0.37,-0.49,-0.91,2,-83,-0,1.1,1.24,89,,,,,,,,,,,,,,,,,,,
6204,0,0.0974,2.47,1.88,1.44,,0.43,-0.48,-0.87,2,-82,2,1.08,1.24,87,,,,,,,,,,,,,,,,,,,
6214,0,0.0976,2.45,1.89,,,0.48,-0.45,-0.86,2,-82,3,1.08,1.24,87,,,,,,,,,,,,,,,,,,,
6224,0,0.0978,2.45,1.89,1.43,,0.52,-0.4,-0.87,3,-81,5,1.09,1.24,88,,0,0,,,,,,,,,,,,,,,,
6234,0,0.0979,2.43,1.9,,,0.63,-0.33,-0.88,3,-79,6,1.13,1.24,91,,,,,,,,,,,,,,,,,,,
6244,0,0.0981,2.43,1.91,1.44,,0.67,-0.35,-0.8,3,-78,8,1.1,1.24,89,,,,0.0,0.0,0.0,0.0,0,0,0.0,0,0.0,-1,0.0,0,0.0,0.0981,0.0,0.0
6254,0,0.0982,2.44,1.91,,,0.71,-0.33,-0.71,4,-76,9,1.06,1.24,85,,,,,,,,,,,,,,,,,,,
6264,0,0.0984,2.43,1.92,1.43,,0.74,-0.33,-0.75,4,-73,10,1.1,1.24,89,,0,0,,,,,,,,,,,,,,,,
6274,0,0.0986,2.4,1.93,,,0.84,-0.3,-0.81,5,-71,11,1.2,1.24,97,,,,,,,,,,,,,,,,,,,
6284,0,0.0988,2.41,1.93,1.4,,0.87,-0.3,-0.78,5,-68,13,1.21,1.24,97,,,,,,,,,,,,,,,,,,,
6294,0,0.0989,2.43,1.98,,,0.91,-0.27,-0.72,6,-65,14,1.19,1.24,96,,,,,,,,,,,,,,,,,,,
6304,0,0.0991,2.44,2.01,1.44,,0.93,-0.31,-0.72,7,-62,15,1.21,1.24,98,,0,0,,,,,,,,,,,,,,,,
6314,0,0.0993,2.43,2.03,,,0.95,-0.28,-0.75,7,-59,16,1.24,1.24,100,,,,,,,,,,,,,,,,,,,
6324,0,0.0994,2.43,2.04,1.4,,0.97,-0.2,-0.68,8,-56,16,1.21,1.24,97,,,,,,,,,,,,,,,,,,,
6334,0,0.0996,2.44,2.06,,,1.0,-0.15,-0.59,9,-53,17,1.17,1.24,94,,,,,,,,,,,,,,,,,,,
6344,0,0.0998,2.48,2.05,1.43,12.71,1.0,-0.13,-0.58,10,-49,17,1.16,1.24,94,0,0,0,0.0,0.0,0.0,0.0,0,0,0.0,0,0.0,-1,0.0,0,0.0,0.0998,0.0,0.0
6354,0,0.0999,2.51,2.07,,,0.99,-0.14,-0.6,11,-46,17,1.17,1.24,94,,,,,,,,,,,,,,,,,,,
6364,0,0.1001,2.54,2.08,1.44,,0.99,-0.16,-0.6,11,-42,17,1.16,1.24,93,,,,,,,,,,,,,,,,,,,
6374,0,0.1002,2.57,2.12,,,0.94,-0.16,-0.56,12,-39,17,1.11,1.24,89,,,,,,,,,,,,,,,,,,,
6384,0,0.1004,2.61,2.15,1.44,,0.97,-0.12,-0.56,13,-35,17,1.13,1.24,91,,0,0,,,,,,,,,,,,,,,,
6394,0,0.1006,2.64,2.2,,,0.89,-0.09,-0.63,14,-31,17,1.09,1.24,88,,,,,,,,,,,,,,,,,,,
6404,0,0.1008,2.7,2.22,1.43,,0.9,-0.04,-0.67,15,-28,16,1.12,1.24,90,,,,,,,,,,,,,,,,,,,
6414,0,0.1009,2.7,2.22,,,0.83,-0.11,-0.68,16,-25,16,1.09,1.24,87,,,,,,,,,,,,,,,,,,,
6424,0,0.1011,2.72,2.25,1.41,,0.88,-0.1,-0.72,17,-21,15,1.14,1.24,92,,0,0,,,,,,,,,,,,,,,,
6434,0,0.1012,2.74,2.28,,,0.85,-0.08,-0.71,18,-18,15,1.12,1.24,90,,,,,,,,,,,,,,,,,,,
6444,0,0.1014,2.69,2.24,1.37,,0.86,-0.03,-0.71,19,-16,15,1.12,1.24,90,,,,0.0,0.0,0.0,0.0,0,0,0.0,0,0.0,-1,0.0,0,0.0,0.1014,0.0,0.0
6454,0,0.1016,2.77,2.3,,,0.84,-0.0,-0.73,20,-13,14,1.11,1.24,89,,,,,,,,,,,,,,,,,,,
6464,0,0.1018,2.8,2.34,1.44,,0.85,-0.03,-0.7,21,-10,13,1.1,1.24,88,,0,0,,,,,,,,,,,,,,,,
6474,0,0.1019,2.77,2.3,,,0.86,-0.02,-0.66,23,-8,13,1.08,1.24,87,,,,,,,,,,,,,,,,,,,
6484,0,0.1021,2.79,2.33,1.43,,0.82,-0.04,-0.66,24,-5,12,1.05,1.24,85,,,,,,,,,,,,,,,,,,,
6494,0,0.1022,2.79,2.35,,,0.88,-0.02,-0.7,25,-3,12,1.12,1.24,90,,,,,,,,,,,,,,,,,,,
6504,0,0.1024,2.79,2.34,1.43,,0.82,-0.02,-0.7,26,-0,12,1.08,1.24,87,,0,0,,,,,,,,,,,,,,,,
6514,0,0.1026,2.8,2.34,,,0.81,0.02,-0.68,27,2,11,1.06,1.24,85,,,,,,,,,,,,,,,,,,,
6524,0,0.1028,2.77,2.32,1.42,,0.77,0.02,-0.68,28,4,11,1.03,1.24,83,,,,,,,,,,,,,,,,,,,
6534,0,0.1029,2.79,2.3,,,0.76,-0.01,-0.72,30,6,10,1.05,1.24,84,,,,,,,,,,,,,,,,,,,
6544,0,0.1031,2.79,2.32,1.43,,0.72,0.02,-0.7,31,8,10,1.01,1.24,81,,0,0,0.0,0.0,0.0,0.0,0,0,0.0,0,0.0,-1,0.0,0,0.0,0.1031,0.0,0.0
6554,0,0.1032,2.75,2.3,,,0.69,-0.03,-0.76,32,10,10,1.02,1.24,82,,,,,,,,,,,,,,,,,,,
6564,0,0.1034,2.79,2.32,1.43,,0.73,0.0,-0.79,33,12,9,1.07,1.24,86,,,,,,,,,,,,,,,,,,,
6574,0,0.1036,2.76,2.27,,,0.68,-0.03,-0.76,34,14,9,1.02,1.24,82,,,,,,,,,,,,,,,,,,,
6584,0,0.1038,2.78,2.29,1.43,,0.69,-0.01,-0.74,35,16,9,1.01,1.24,81,,0,0,,,,,,,,,,,,,,,,
6594,0,0.1039,2.79,2.29,,,0.66,-0.02,-0.72,36,19,9,0.97,1.24,78,,,,,,,,,,,,,,,,,,,
6604,0,0.1041,2.75,2.27,1.43,,0.65,-0.04,-0.72,37,21,8,0.97,1.24,78,,,,,,,,,,,,,,,,,,,
6614,0,0.1042,2.75,2.22,,,0.63,-0.0,-0.75,38,23,8,0.97,1.24,78,,,,,,,,,,,,,,,,,,,
6624,0,0.1044,2.79,2.23,1.43,,0.62,-0.01,-0.76,39,25,8,0.98,1.24,79,,0,0,,,,,,,,,,,,,,,,
6634,0,0.1046,2.76,2.16,,,0.66,-0.0,-0.8,40,27,8,1.04,1.24,83,,,,,,,,,,,,,,,,,,,
6644,0,0.1048,2.8,2.19,1.43,,0.62,-0.03,-0.79,41,29,8,1.01,1.24,81,,,,0.0,0.0,0.0,0.0,0,0,0.0,0,0.0,-1,0.0,0,0.0,0.1048,0.0,0.0
6654,0,0.1049,2.8,2.17,,,0.64,-0.01,-0.77,42,31,8,1.0,1.24,81,,,,,,,,,,,,,,,,,,,
6664,0,0.1051,2.77,2.16,1.43,,0.64,-0.03,-0.72,43,34,8,0.96,1.24,77,,0,0,,,,,,,,,,,,,,,,
6674,0,0.1052,2.78,2.11,,,0.65,-0.05,-0.75,44,36,8,0.99,1.24,80,,,,,,,,,,,,,,,,,,,
6684,0,0.1054,2.77,2.12,1.42,,0.66,-0.04,-0.76,44,39,8,1.0,1.24,81,,,,,,,,,,,,,,,,,,,
6694,0,0.1056,2.78,2.12,,,0.6,-0.12,-0.72,45,41,9,0.94,1.24,76,,,,,,,,,,,,,,,,,,,
6704,0,0.1058,2.74,2.06,1.38,,0.63,-0.2,-0.72,46,43,10,0.97,1.24,78,,0,0,,,,,,,,,,,,,,,,
6714,0,0.1059,2.75,2.09,,,0.59,-0.16,-0.73,47,46,10,0.95,1.24,77,,,,,,,,,,,,,,,,,,,
6724,0,0.1061,2.68,2.07,1.42,,0.56,-0.06,-0.69,47,49,11,0.89,1.24,72,,,,,,,,,,,,,,,,,,,
6734,0,0.1062,2.72,2.1,,,0.54,-0.05,-0.57,47,51,11,0.79,1.24,63,,,,,,,,,,,,,,,,,,,
6744,0,0.1064,2.69,2.06,1.39,,0.44,0.01,-0.48,48,54,11,0.65,1.24,52,,0,0,0.0,0.0,0.0,0.0,0,0,0.0,0,0.0,-1,0.0,0,0.0,0.1064,0.0,0.0
6754,0,0.1066,2.66,2.06,,,0.31,-0.04,-0.41,46,56,11,0.51,1.24,41,,,,,,,,,,,,,,,,,,,
6764,0,0.1068,2.66,2.07,1.38,,0.23,0.09,-0.44,47,58,11,0.51,1.24,41,,,,,,,,,,,,,,,,,,,
6774,0,0.1069,2.68,2.08,,,0.15,0.21,-0.34,47,60,10,0.42,1.24,34,,,,,,,,,,,,,,,,,,,
6784,0,0.1071,2.7,2.12,1.42,,0.1,0.08,-0.41,44,61,8,0.43,1.24,35,,0,0,,,,,,,,,,,,,,,,
6794,0,0.1072,2.72,2.12,,,-0.02,0.05,-0.38,43,61,8,0.38,1.24,31,,,,,,,,,,,,,,,,,,,
6804,0,0.1074,2.72,2.11,1.42,,-0.09,0.17,-0.27,41,60,8,0.34,1.24,27,,,,,,,,,,,,,,,,,,,
6814,0,0.1076,2.69,2.11,,,-0.14,0.14,-0.28,39,58,7,0.35,1.24,28,,,,,,,,,,,,,,,,,,,
6824,0,0.1078,2.67,2.09,1.42,,-0.26,0.15,-0.28,38,56,6,0.41,1.24,33,,0,0,,,,,,,,,,,,,,,,
6834,0,0.1079,2.7,2.07,,,-0.29,0.1,-0.23,36,54,4,0.38,1.24,31,,,,,,,,,,,,,,,,,,,
6844,0,0.1081,2.69,2.01,1.4,,-0.33,-0.02,-0.13,34,51,3,0.36,1.24,29,,,,0.0,0.0,0.0,0.0,0,0,0.0,0,0.0,-1,0.0,0,0.0,0.1081,0.0,0.0
6854,0,0.1082,2.69,2.03,,,-0.36,-0.1,-0.09,32,49,3,0.38,1.24,31,,,,,,,,,,,,,,,,,,,
6864,0,0.1084,2.63,2.0,1.41,,-0.35,-0.13,-0.14,31,46,3,0.4,1.24,32,,0,0,,,,,,,,,,,,,,,,
6874,0,0.1086,2.66,2.02,,,-0.35,-0.16,-0.14,29,43,3,0.41,1.24,33,,,,,,,,,,,,,,,,,,,
6884,0,0.1088,2.67,2.01,1.43,,-0.39,-0.26,-0.07,27,40,2,0.48,1.24,38,,,,,,,,,,,,,,,,,,,
6894,0,0.1089,2.66,2.0,,,-0.35,-0.29,-0.03,26,37,3,0.46,1.24,37,,,,,,,,,,,,,,,,,,,
6904,0,0.1091,2.64,1.95,1.38,,-0.33,-0.31,-0.03,24,35,3,0.46,1.24,37,,0,0,,,,,,,,,,,,,,,,
6914,0,0.1092,2.65,1.98,,,-0.33,-0.32,0.03,22,32,3,0.46,1.24,37,,,,,,,,,,,,,,,,,,,
6924,0,0.1094,2.67,1.99,1.39,,-0.32,-0.3,0.07,21,30,3,0.44,1.24,35,,,,,,,,,,,,,,,,,,,
6934,0,0.1096,2.68,1.95,,,-0.23,-0.29,0.07,19,28,4,0.38,1.24,31,,,,,,,,,,,,,,,,,,,
6944,0,0.1098,2.68,1.99,1.43,,-0.19,-0.31,0.05,17,26,4,0.37,1.24,30,,0,0,0.0,0.0,0.0,0.0,0,0,0.0,0,0.0,-1,0.0,0,0.0,0.1098,0.0,0.0
6954,0,0.1099,2.71,2.02,,,-0.14,-0.32,0.06,15,24,4,0.35,1.24,28,,,,,,,,,,,,,,,,,,,
6964,0,0.1101,2.71,2.03,1.41,,-0.15,-0.33,0.05,13,22,5,0.37,1.24,30,,,,,,,,,,,,,,,,,,,
6974,0,0.1102,2.7,2.03,,,-0.07,-0.27,-0.01,12,21,5,0.28,1.24,23,,,,,,,,,,,,,,,,,,,
6984,0,0.1104,2.73,2.07,1.43,,-0.05,-0.26,0.0,10,20,6,0.27,1.24,21,,0,0,,,,,,,,,,,,,,,,
6994,0,0.1106,2.72,2.07,,,-0.08,-0.27,-0.01,8,19,6,0.28,1.24,23,,,,,,,,,,,,,,,,,,,
